{"type": "FeatureCollection", "features": [{"geometry": {"type": "Point", "coordinates": [-85.310469, 35.063014]}, "type": "Feature", "properties": {"status": "OPEN", "stands": 9, "address": "100 Manufacturers Rd", "lat": 35.063014, "name": "100 Manufacturers Rd", "bikes": 8, "lon": -85.310469}}, {"geometry": {"type": "Point", "coordinates": [-85.306574, 35.06141]}, "type": "Feature", "properties": {"status": "OPEN", "stands": 6, "address": "200 River St", "lat": 35.06141, "name": "200 River St Outdoor Chattanooga", "bikes": 19, "lon": -85.306574}}, {"geometry": {"type": "Point", "coordinates": [-85.315211, 35.063304]}, "type": "Feature", "properties": {"status": "OPEN", "stands": 7, "address": "301 Manufacturers Rd", "lat": 35.063304, "name": "301 Manufacturers Rd", "bikes": 8, "lon": -85.315211}}, {"geometry": {"type": "Point", "coordinates": [-85.310925, 35.053928]}, "type": "Feature", "properties": {"status": "OPEN", "stands": 10, "address": "215 Broad St", "lat": 35.053928, "name": "215 Broad St", "bikes": 9, "lon": -85.310925}}, {"geometry": {"type": "Point", "coordinates": [-85.307269, 35.036904]}, "type": "Feature", "properties": {"status": "OPEN", "stands": 10, "address": "Market St & E 14th St", "lat": 35.036904, "name": "Market St & E 14th St", "bikes": 7, "lon": -85.307269}}, {"geometry": {"type": "Point", "coordinates": [-85.309483, 35.052701]}, "type": "Feature", "properties": {"status": "OPEN", "stands": 1, "address": "Market and E 4th", "lat": 35.052701, "name": "Market & E 4th Street", "bikes": 16, "lon": -85.309483}}, {"geometry": {"type": "Point", "coordinates": [-85.309331, 35.042774]}, "type": "Feature", "properties": {"status": "OPEN", "stands": 11, "address": "Market St & W 12th St", "lat": 35.042774, "name": "Market St & W 12th St", "bikes": 4, "lon": -85.309331}}, {"geometry": {"type": "Point", "coordinates": [-85.308394, 35.040771]}, "type": "Feature", "properties": {"status": "OPEN", "stands": 16, "address": "Market St & Cowart St", "lat": 35.040771, "name": "Market St & Cowart St", "bikes": 3, "lon": -85.308394}}, {"geometry": {"type": "Point", "coordinates": [-85.310487, 35.056655]}, "type": "Feature", "properties": {"status": "CLOSED", "stands": 19, "address": "100 Riverfront Parkway", "lat": 35.056655, "name": "Chestnut St & Riverfront Pkwy", "bikes": 0, "lon": -85.310487}}, {"geometry": {"type": "Point", "coordinates": [-85.312762, 35.043367]}, "type": "Feature", "properties": {"status": "OPEN", "stands": 6, "address": "Carter St & W 12th St", "lat": 35.043367, "name": "Carter St & W 12th St", "bikes": 9, "lon": -85.312762}}, {"geometry": {"type": "Point", "coordinates": [-85.310399, 35.049429]}, "type": "Feature", "properties": {"status": "OPEN", "stands": 10, "address": "Broad St & W 6th St", "lat": 35.049429, "name": "Broad St & W 6th St", "bikes": 5, "lon": -85.310399}}, {"geometry": {"type": "Point", "coordinates": [-85.307813, 35.055687]}, "type": "Feature", "properties": {"status": "OPEN", "stands": 4, "address": "100 Walnut St", "lat": 35.055687, "name": "100 Walnut St", "bikes": 11, "lon": -85.307813}}, {"geometry": {"type": "Point", "coordinates": [-85.305448, 35.054161]}, "type": "Feature", "properties": {"status": "OPEN", "stands": 9, "address": "High St & E 2nd St", "lat": 35.054161, "name": "High St & E 2nd St", "bikes": 6, "lon": -85.305448}}, {"geometry": {"type": "Point", "coordinates": [-85.312797, 35.055582]}, "type": "Feature", "properties": {"status": "CLOSED", "stands": 17, "address": "Power Alley & Riverfront Pkwy", "lat": 35.055582, "name": "Power Alley & Riverfront Pkwy", "bikes": 0, "lon": -85.312797}}, {"geometry": {"type": "Point", "coordinates": [-85.309207, 35.045603]}, "type": "Feature", "properties": {"status": "OPEN", "stands": 10, "address": "Market St & M.L. King Blvd", "lat": 35.045603, "name": "Market St & ML King Blvd", "bikes": 0, "lon": -85.309207}}, {"geometry": {"type": "Point", "coordinates": [-85.307015, 35.044973]}, "type": "Feature", "properties": {"status": "OPEN", "stands": 7, "address": "M.L. King Blvd & Lindsay St", "lat": 35.044973, "name": "ML King Blvd & Lindsay St", "bikes": 12, "lon": -85.307015}}, {"geometry": {"type": "Point", "coordinates": [-85.305834, 35.047319]}, "type": "Feature", "properties": {"status": "OPEN", "stands": 17, "address": "McCallie Ave & Lindsay St", "lat": 35.047319, "name": "McCallie Ave & Lindsay St", "bikes": 2, "lon": -85.305834}}, {"geometry": {"type": "Point", "coordinates": [-85.297186, 35.047862]}, "type": "Feature", "properties": {"status": "OPEN", "stands": 9, "address": "E 5th St & Collins St", "lat": 35.047862, "name": "E 5th St & Collins St", "bikes": 10, "lon": -85.297186}}, {"geometry": {"type": "Point", "coordinates": [-85.297988, 35.043639]}, "type": "Feature", "properties": {"status": "OPEN", "stands": 2, "address": "800 E 8th St", "lat": 35.043639, "name": "800 E 8th St", "bikes": 13, "lon": -85.297988}}, {"geometry": {"type": "Point", "coordinates": [-85.296087, 35.045057]}, "type": "Feature", "properties": {"status": "OPEN", "stands": 8, "address": "Oak St & University Greenway", "lat": 35.045057, "name": "Oak St & University Greenway", "bikes": 7, "lon": -85.296087}}, {"geometry": {"type": "Point", "coordinates": [-85.302739, 35.047574]}, "type": "Feature", "properties": {"status": "OPEN", "stands": 8, "address": "Oak St & Houston St", "lat": 35.047574, "name": "Oak St & Houston St", "bikes": 6, "lon": -85.302739}}, {"geometry": {"type": "Point", "coordinates": [-85.305187, 35.035217]}, "type": "Feature", "properties": {"status": "OPEN", "stands": 1, "address": "218 E Main St", "lat": 35.035217, "name": "E Main St & Rossville Ave", "bikes": 13, "lon": -85.305187}}, {"geometry": {"type": "Point", "coordinates": [-85.310874, 35.05251]}, "type": "Feature", "properties": {"status": "OPEN", "stands": 0, "address": "401 Broad St", "lat": 35.05251, "name": "Broad St & W 4th St", "bikes": 11, "lon": -85.310874}}, {"geometry": {"type": "Point", "coordinates": [-85.310675, 35.047205]}, "type": "Feature", "properties": {"status": "OPEN", "stands": 15, "address": "735 Broad St", "lat": 35.047205, "name": "Broad St & W 8th St", "bikes": 0, "lon": -85.310675}}, {"geometry": {"type": "Point", "coordinates": [-85.310411, 35.037381]}, "type": "Feature", "properties": {"status": "OPEN", "stands": 9, "address": "343 W Main St", "lat": 35.037381, "name": "W Main St & Cowart St", "bikes": 6, "lon": -85.310411}}, {"geometry": {"type": "Point", "coordinates": [-85.309554, 35.040549]}, "type": "Feature", "properties": {"status": "OPEN", "stands": 7, "address": "1216 Broad St", "lat": 35.040549, "name": "1216 Broad St", "bikes": 8, "lon": -85.309554}}, {"geometry": {"type": "Point", "coordinates": [-85.315093, 35.037433]}, "type": "Feature", "properties": {"status": "OPEN", "stands": 6, "address": "1826 Carter St", "lat": 35.037433, "name": "1826 Carter St", "bikes": 9, "lon": -85.315093}}, {"geometry": {"type": "Point", "coordinates": [-85.305346, 35.050771]}, "type": "Feature", "properties": {"status": "OPEN", "stands": 6, "address": "500 Georgia Ave", "lat": 35.050771, "name": "500 Georgia Ave", "bikes": 13, "lon": -85.305346}}, {"geometry": {"type": "Point", "coordinates": [-85.310458, 35.044458]}, "type": "Feature", "properties": {"status": "OPEN", "stands": 11, "address": "Broad St & W 10th St", "lat": 35.044458, "name": "Broad St & W 10th St", "bikes": 4, "lon": -85.310458}}, {"geometry": {"type": "Point", "coordinates": [-85.300237, 35.048285]}, "type": "Feature", "properties": {"status": "OPEN", "stands": 4, "address": "Douglas St & Vine St", "lat": 35.048285, "name": "Douglas St", "bikes": 11, "lon": -85.300237}}, {"geometry": {"type": "Point", "coordinates": [-85.254503, 35.096003]}, "type": "Feature", "properties": {"status": "OPEN", "stands": 9, "address": "4310 Amnicola Hwy", "lat": 35.096003, "name": "Hubert Fry Center Tennessee Riverpark", "bikes": 16, "lon": -85.254503}}, {"geometry": {"type": "Point", "coordinates": [-85.32021, 35.053801]}, "type": "Feature", "properties": {"status": "OPEN", "stands": 6, "address": "495 Riverfront Pkwy", "lat": 35.053801, "name": "SpringHill Suites", "bikes": 9, "lon": -85.32021}}, {"geometry": {"type": "Point", "coordinates": [-85.312617, 35.049271]}, "type": "Feature", "properties": {"status": "OPEN", "stands": 5, "address": "Pine St. & W. 6th St.", "lat": 35.049271, "name": "Pine St. & W. 6th St.", "bikes": 10, "lon": -85.312617}}]}