{"type": "FeatureCollection", "features": [{"geometry": {"type": "Point", "coordinates": [-6.278198, 53.349562]}, "type": "Feature", "properties": {"status": "OPEN", "stands": 27, "address": "Smithfield North", "lat": 53.349562, "name": "SMITHFIELD NORTH", "bikes": 3, "update": "2015-11-07T16:55:53", "lon": -6.278198}}, {"geometry": {"type": "Point", "coordinates": [-6.265305, 53.353462]}, "type": "Feature", "properties": {"status": "OPEN", "stands": 17, "address": "Parnell Square North", "lat": 53.353462, "name": "PARNELL SQUARE NORTH", "bikes": 3, "update": "2015-11-07T17:05:01", "lon": -6.265305}}, {"geometry": {"type": "Point", "coordinates": [-6.250427, 53.344304]}, "type": "Feature", "properties": {"status": "OPEN", "stands": 23, "address": "Pearse Street", "lat": 53.344304, "name": "PEARSE STREET", "bikes": 7, "update": "2015-11-07T17:04:03", "lon": -6.250427}}, {"geometry": {"type": "Point", "coordinates": [-6.244239, 53.347777]}, "type": "Feature", "properties": {"status": "OPEN", "stands": 19, "address": "Excise Walk", "lat": 53.347777, "name": "EXCISE WALK", "bikes": 21, "update": "2015-11-07T17:05:27", "lon": -6.244239}}, {"geometry": {"type": "Point", "coordinates": [-6.252825, 53.336074]}, "type": "Feature", "properties": {"status": "OPEN", "stands": 30, "address": "Fitzwilliam Square West", "lat": 53.336074, "name": "FITZWILLIAM SQUARE WEST", "bikes": 0, "update": "2015-11-07T16:55:28", "lon": -6.252825}}, {"geometry": {"type": "Point", "coordinates": [-6.295594, 53.339983]}, "type": "Feature", "properties": {"status": "OPEN", "stands": 3, "address": "St. James Hospital (Central)", "lat": 53.339983, "name": "ST. JAMES HOSPITAL (CENTRAL)", "bikes": 37, "update": "2015-11-07T17:04:41", "lon": -6.295594}}, {"geometry": {"type": "Point", "coordinates": [-6.237153, 53.344115]}, "type": "Feature", "properties": {"status": "OPEN", "stands": 31, "address": "Hanover Quay", "lat": 53.344115, "name": "HANOVER QUAY", "bikes": 9, "update": "2015-11-07T17:03:07", "lon": -6.237153}}, {"geometry": {"type": "Point", "coordinates": [-6.280531, 53.343893]}, "type": "Feature", "properties": {"status": "OPEN", "stands": 25, "address": "Oliver Bond Street", "lat": 53.343893, "name": "OLIVER BOND STREET", "bikes": 5, "update": "2015-11-07T17:01:31", "lon": -6.280531}}, {"geometry": {"type": "Point", "coordinates": [-6.28525, 53.347477]}, "type": "Feature", "properties": {"status": "OPEN", "stands": 25, "address": "Collins Barracks Museum", "lat": 53.347477, "name": "COLLINS BARRACKS MUSEUM", "bikes": 13, "update": "2015-11-07T16:59:36", "lon": -6.28525}}, {"geometry": {"type": "Point", "coordinates": [-6.300217, 53.339005]}, "type": "Feature", "properties": {"status": "OPEN", "stands": 27, "address": "Brookfield Road", "lat": 53.339005, "name": "BROOKFIELD ROAD", "bikes": 3, "update": "2015-11-07T17:01:42", "lon": -6.300217}}, {"geometry": {"type": "Point", "coordinates": [-6.26298, 53.336021]}, "type": "Feature", "properties": {"status": "OPEN", "stands": 23, "address": "Clonmel Street", "lat": 53.336021, "name": "CLONMEL STREET", "bikes": 10, "update": "2015-11-07T17:05:15", "lon": -6.26298}}, {"geometry": {"type": "Point", "coordinates": [-6.248174, 53.336485]}, "type": "Feature", "properties": {"status": "OPEN", "stands": 24, "address": "James Street East", "lat": 53.336485, "name": "JAMES STREET EAST", "bikes": 6, "update": "2015-11-07T16:59:50", "lon": -6.248174}}, {"geometry": {"type": "Point", "coordinates": [-6.24153, 53.33796]}, "type": "Feature", "properties": {"status": "OPEN", "stands": 27, "address": "Mount Street Lower", "lat": 53.33796, "name": "MOUNT STREET LOWER", "bikes": 13, "update": "2015-11-07T17:02:11", "lon": -6.24153}}, {"geometry": {"type": "Point", "coordinates": [-6.27012, 53.343368]}, "type": "Feature", "properties": {"status": "OPEN", "stands": 4, "address": "Christchurch Place", "lat": 53.343368, "name": "CHRISTCHURCH PLACE", "bikes": 16, "update": "2015-11-07T16:55:25", "lon": -6.27012}}, {"geometry": {"type": "Point", "coordinates": [-6.265436, 53.334123]}, "type": "Feature", "properties": {"status": "OPEN", "stands": 19, "address": "Grantham Street", "lat": 53.334123, "name": "GRANTHAM STREET", "bikes": 11, "update": "2015-11-07T17:04:48", "lon": -6.265436}}, {"geometry": {"type": "Point", "coordinates": [-6.262003, 53.338755]}, "type": "Feature", "properties": {"status": "OPEN", "stands": 7, "address": "York Street East", "lat": 53.338755, "name": "YORK STREET EAST", "bikes": 25, "update": "2015-11-07T17:01:57", "lon": -6.262003}}, {"geometry": {"type": "Point", "coordinates": [-6.268044, 53.330091]}, "type": "Feature", "properties": {"status": "OPEN", "stands": 24, "address": "Portobello Road", "lat": 53.330091, "name": "PORTOBELLO ROAD", "bikes": 6, "update": "2015-11-07T17:01:30", "lon": -6.268044}}, {"geometry": {"type": "Point", "coordinates": [-6.265125, 53.350929]}, "type": "Feature", "properties": {"status": "OPEN", "stands": 0, "address": "Parnell Street", "lat": 53.350929, "name": "PARNELL STREET", "bikes": 20, "update": "2015-11-07T17:05:08", "lon": -6.265125}}, {"geometry": {"type": "Point", "coordinates": [-6.256853, 53.341515]}, "type": "Feature", "properties": {"status": "OPEN", "stands": 27, "address": "Frederick Street South", "lat": 53.341515, "name": "FREDERICK STREET SOUTH", "bikes": 13, "update": "2015-11-07T17:01:47", "lon": -6.256853}}, {"geometry": {"type": "Point", "coordinates": [-6.263371, 53.344603]}, "type": "Feature", "properties": {"status": "OPEN", "stands": 9, "address": "Fownes Street Upper", "lat": 53.344603, "name": "FOWNES STREET UPPER", "bikes": 21, "update": "2015-11-07T17:04:01", "lon": -6.263371}}, {"geometry": {"type": "Point", "coordinates": [-6.262287, 53.340962]}, "type": "Feature", "properties": {"status": "OPEN", "stands": 9, "address": "Chatham Street", "lat": 53.340962, "name": "CHATHAM STREET", "bikes": 20, "update": "2015-11-07T17:04:48", "lon": -6.262287}}, {"geometry": {"type": "Point", "coordinates": [-6.254662, 53.348279]}, "type": "Feature", "properties": {"status": "OPEN", "stands": 2, "address": "Custom House", "lat": 53.348279, "name": "CUSTOM HOUSE", "bikes": 28, "update": "2015-11-07T17:04:58", "lon": -6.254662}}, {"geometry": {"type": "Point", "coordinates": [-6.233451, 53.344153]}, "type": "Feature", "properties": {"status": "OPEN", "stands": 34, "address": "Benson Street", "lat": 53.344153, "name": "BENSON STREET", "bikes": 6, "update": "2015-11-07T17:05:26", "lon": -6.233451}}, {"geometry": {"type": "Point", "coordinates": [-6.24672, 53.341428]}, "type": "Feature", "properties": {"status": "OPEN", "stands": 30, "address": "Fenian Street", "lat": 53.341428, "name": "FENIAN STREET", "bikes": 5, "update": "2015-11-07T16:56:58", "lon": -6.24672}}, {"geometry": {"type": "Point", "coordinates": [-6.231291, 53.341833]}, "type": "Feature", "properties": {"status": "OPEN", "stands": 15, "address": "South Dock Road", "lat": 53.341833, "name": "SOUTH DOCK ROAD", "bikes": 15, "update": "2015-11-07T17:05:09", "lon": -6.231291}}, {"geometry": {"type": "Point", "coordinates": [-6.230852, 53.346867]}, "type": "Feature", "properties": {"status": "OPEN", "stands": 32, "address": "The Point", "lat": 53.346867, "name": "THE POINT", "bikes": 8, "update": "2015-11-07T16:59:30", "lon": -6.230852}}, {"geometry": {"type": "Point", "coordinates": [-6.243576, 53.346026]}, "type": "Feature", "properties": {"status": "OPEN", "stands": 35, "address": "Lime Street", "lat": 53.346026, "name": "LIME STREET", "bikes": 5, "update": "2015-11-07T16:59:18", "lon": -6.243576}}, {"geometry": {"type": "Point", "coordinates": [-6.310015, 53.342113]}, "type": "Feature", "properties": {"status": "OPEN", "stands": 15, "address": "Kilmainham Gaol", "lat": 53.342113, "name": "KILMAINHAM GAOL", "bikes": 21, "update": "2015-11-07T16:57:32", "lon": -6.310015}}, {"geometry": {"type": "Point", "coordinates": [-6.240928, 53.347932]}, "type": "Feature", "properties": {"status": "OPEN", "stands": 37, "address": "Guild Street", "lat": 53.347932, "name": "GUILD STREET", "bikes": 3, "update": "2015-11-07T17:05:22", "lon": -6.240928}}, {"geometry": {"type": "Point", "coordinates": [-6.245575, 53.334432]}, "type": "Feature", "properties": {"status": "OPEN", "stands": 11, "address": "Herbert Place", "lat": 53.334432, "name": "HERBERT PLACE", "bikes": 18, "update": "2015-11-07T17:04:33", "lon": -6.245575}}, {"geometry": {"type": "Point", "coordinates": [-6.269425, 53.354929]}, "type": "Feature", "properties": {"status": "OPEN", "stands": 22, "address": "Western Way", "lat": 53.354929, "name": "WESTERN WAY", "bikes": 18, "update": "2015-11-07T16:59:01", "lon": -6.269425}}, {"geometry": {"type": "Point", "coordinates": [-6.26059, 53.337132]}, "type": "Feature", "properties": {"status": "OPEN", "stands": 36, "address": "Newman House", "lat": 53.337132, "name": "NEWMAN HOUSE", "bikes": 4, "update": "2015-11-07T17:02:41", "lon": -6.26059}}, {"geometry": {"type": "Point", "coordinates": [-6.273507, 53.350291]}, "type": "Feature", "properties": {"status": "OPEN", "stands": 30, "address": "King Street North", "lat": 53.350291, "name": "KING STREET NORTH", "bikes": 0, "update": "2015-11-07T16:57:47", "lon": -6.273507}}, {"geometry": {"type": "Point", "coordinates": [-6.24551, 53.335742]}, "type": "Feature", "properties": {"status": "OPEN", "stands": 37, "address": "Herbert Street", "lat": 53.335742, "name": "HERBERT STREET", "bikes": 3, "update": "2015-11-07T17:02:58", "lon": -6.24551}}, {"geometry": {"type": "Point", "coordinates": [-6.258371, 53.334019]}, "type": "Feature", "properties": {"status": "OPEN", "stands": 27, "address": "Earlsfort Terrace", "lat": 53.334019, "name": "EARLSFORT TERRACE", "bikes": 3, "update": "2015-11-07T16:55:28", "lon": -6.258371}}, {"geometry": {"type": "Point", "coordinates": [-6.267732, 53.340803]}, "type": "Feature", "properties": {"status": "OPEN", "stands": 11, "address": "Golden Lane", "lat": 53.340803, "name": "GOLDEN LANE", "bikes": 9, "update": "2015-11-07T17:02:04", "lon": -6.267732}}, {"geometry": {"type": "Point", "coordinates": [-6.255265, 53.351464]}, "type": "Feature", "properties": {"status": "OPEN", "stands": 20, "address": "Deverell Place", "lat": 53.351464, "name": "DEVERELL PLACE", "bikes": 10, "update": "2015-11-07T17:01:07", "lon": -6.255265}}, {"geometry": {"type": "Point", "coordinates": [-6.277167, 53.343105]}, "type": "Feature", "properties": {"status": "OPEN", "stands": 30, "address": "John Street West", "lat": 53.343105, "name": "JOHN STREET WEST", "bikes": 1, "update": "2015-11-07T17:00:15", "lon": -6.277167}}, {"geometry": {"type": "Point", "coordinates": [-6.246154, 53.346637]}, "type": "Feature", "properties": {"status": "OPEN", "stands": 30, "address": "City Quay", "lat": 53.346637, "name": "CITY QUAY", "bikes": 0, "update": "2015-11-07T16:57:37", "lon": -6.246154}}, {"geometry": {"type": "Point", "coordinates": [-6.263578, 53.343034]}, "type": "Feature", "properties": {"status": "OPEN", "stands": 2, "address": "Exchequer Street", "lat": 53.343034, "name": "EXCHEQUER STREET", "bikes": 22, "update": "2015-11-07T17:03:34", "lon": -6.263578}}, {"geometry": {"type": "Point", "coordinates": [-6.260714, 53.33403]}, "type": "Feature", "properties": {"status": "OPEN", "stands": 34, "address": "Hatch Street", "lat": 53.33403, "name": "HATCH STREET", "bikes": 2, "update": "2015-11-07T16:58:17", "lon": -6.260714}}, {"geometry": {"type": "Point", "coordinates": [-6.260177, 53.330662]}, "type": "Feature", "properties": {"status": "OPEN", "stands": 20, "address": "Charlemont Street", "lat": 53.330662, "name": "CHARLEMONT PLACE", "bikes": 20, "update": "2015-11-07T17:02:16", "lon": -6.260177}}, {"geometry": {"type": "Point", "coordinates": [-6.263232, 53.357043]}, "type": "Feature", "properties": {"status": "OPEN", "stands": 13, "address": "Hardwicke Place", "lat": 53.357043, "name": "HARDWICKE PLACE", "bikes": 12, "update": "2015-11-07T16:58:22", "lon": -6.263232}}, {"geometry": {"type": "Point", "coordinates": [-6.267459, 53.348875]}, "type": "Feature", "properties": {"status": "OPEN", "stands": 0, "address": "Wolfe Tone Street", "lat": 53.348875, "name": "WOLFE TONE STREET", "bikes": 29, "update": "2015-11-07T17:00:03", "lon": -6.267459}}, {"geometry": {"type": "Point", "coordinates": [-6.275233, 53.342081]}, "type": "Feature", "properties": {"status": "OPEN", "stands": 27, "address": "Francis Street", "lat": 53.342081, "name": "FRANCIS STREET", "bikes": 3, "update": "2015-11-07T17:05:29", "lon": -6.275233}}, {"geometry": {"type": "Point", "coordinates": [-6.272976, 53.346874]}, "type": "Feature", "properties": {"status": "OPEN", "stands": 2, "address": "Greek Street", "lat": 53.346874, "name": "GREEK STREET", "bikes": 17, "update": "2015-11-07T17:04:51", "lon": -6.272976}}, {"geometry": {"type": "Point", "coordinates": [-6.275071, 53.343565]}, "type": "Feature", "properties": {"status": "OPEN", "stands": 18, "address": "High Street", "lat": 53.343565, "name": "HIGH STREET", "bikes": 11, "update": "2015-11-07T16:57:12", "lon": -6.275071}}, {"geometry": {"type": "Point", "coordinates": [-6.260348, 53.359624]}, "type": "Feature", "properties": {"status": "OPEN", "stands": 17, "address": "North Circular Road", "lat": 53.359624, "name": "NORTH CIRCULAR ROAD", "bikes": 13, "update": "2015-11-07T17:00:29", "lon": -6.260348}}, {"geometry": {"type": "Point", "coordinates": [-6.25294, 53.350974]}, "type": "Feature", "properties": {"status": "OPEN", "stands": 28, "address": "Talbot Street", "lat": 53.350974, "name": "TALBOT STREET", "bikes": 12, "update": "2015-11-07T17:03:38", "lon": -6.25294}}, {"geometry": {"type": "Point", "coordinates": [-6.240642, 53.339218]}, "type": "Feature", "properties": {"status": "OPEN", "stands": 38, "address": "Sir Patrick's Dun", "lat": 53.339218, "name": "SIR PATRICK DUN'S", "bikes": 2, "update": "2015-11-07T17:04:21", "lon": -6.240642}}, {"geometry": {"type": "Point", "coordinates": [-6.234749, 53.347122]}, "type": "Feature", "properties": {"status": "OPEN", "stands": 19, "address": "New Central Bank", "lat": 53.347122, "name": "NEW CENTRAL BANK", "bikes": 21, "update": "2015-11-07T17:03:37", "lon": -6.234749}}, {"geometry": {"type": "Point", "coordinates": [-6.252192, 53.347508]}, "type": "Feature", "properties": {"status": "CLOSED", "stands": 20, "address": "Georges Quay", "lat": 53.347508, "name": "GEORGES QUAY", "bikes": 0, "update": "2015-11-07T17:05:04", "lon": -6.252192}}, {"geometry": {"type": "Point", "coordinates": [-6.29719, 53.341645]}, "type": "Feature", "properties": {"status": "OPEN", "stands": 20, "address": "Mount Brown", "lat": 53.341645, "name": "MOUNT BROWN", "bikes": 2, "update": "2015-11-07T16:56:08", "lon": -6.29719}}, {"geometry": {"type": "Point", "coordinates": [-6.29706, 53.343897]}, "type": "Feature", "properties": {"status": "OPEN", "stands": 38, "address": "Royal Hospital", "lat": 53.343897, "name": "ROYAL HOSPITAL", "bikes": 2, "update": "2015-11-07T16:58:43", "lon": -6.29706}}, {"geometry": {"type": "Point", "coordinates": [-6.296924, 53.346603]}, "type": "Feature", "properties": {"status": "OPEN", "stands": 1, "address": "Heuston Station (Central)", "lat": 53.346603, "name": "HEUSTON STATION (CENTRAL)", "bikes": 39, "update": "2015-11-07T17:02:17", "lon": -6.296924}}, {"geometry": {"type": "Point", "coordinates": [-6.254614, 53.345922]}, "type": "Feature", "properties": {"status": "OPEN", "stands": 4, "address": "Townsend Street", "lat": 53.345922, "name": "TOWNSEND STREET", "bikes": 16, "update": "2015-11-07T17:03:05", "lon": -6.254614}}, {"geometry": {"type": "Point", "coordinates": [-6.265163, 53.330362]}, "type": "Feature", "properties": {"status": "OPEN", "stands": 21, "address": "Portobello Harbour", "lat": 53.330362, "name": "PORTOBELLO HARBOUR", "bikes": 9, "update": "2015-11-07T17:02:40", "lon": -6.265163}}, {"geometry": {"type": "Point", "coordinates": [-6.248048, 53.347884]}, "type": "Feature", "properties": {"status": "OPEN", "stands": 25, "address": "Custom House Quay", "lat": 53.347884, "name": "CUSTOM HOUSE QUAY", "bikes": 5, "update": "2015-11-07T17:02:49", "lon": -6.248048}}, {"geometry": {"type": "Point", "coordinates": [-6.258117, 53.341288]}, "type": "Feature", "properties": {"status": "OPEN", "stands": 18, "address": "Molesworth Street", "lat": 53.341288, "name": "MOLESWORTH STREET", "bikes": 2, "update": "2015-11-07T17:03:02", "lon": -6.258117}}, {"geometry": {"type": "Point", "coordinates": [-6.305085, 53.341805]}, "type": "Feature", "properties": {"status": "OPEN", "stands": 11, "address": "Kilmainham Lane", "lat": 53.341805, "name": "KILMAINHAM LANE", "bikes": 19, "update": "2015-11-07T16:59:55", "lon": -6.305085}}, {"geometry": {"type": "Point", "coordinates": [-6.287661, 53.342296]}, "type": "Feature", "properties": {"status": "OPEN", "stands": 10, "address": "Market Street South", "lat": 53.342296, "name": "MARKET STREET SOUTH", "bikes": 28, "update": "2015-11-07T17:05:10", "lon": -6.287661}}, {"geometry": {"type": "Point", "coordinates": [-6.267699, 53.337757]}, "type": "Feature", "properties": {"status": "OPEN", "stands": 36, "address": "Kevin Street", "lat": 53.337757, "name": "KEVIN STREET", "bikes": 4, "update": "2015-11-07T17:04:32", "lon": -6.267699}}, {"geometry": {"type": "Point", "coordinates": [-6.265601, 53.358115]}, "type": "Feature", "properties": {"status": "OPEN", "stands": 12, "address": "Eccles Street East", "lat": 53.358115, "name": "ECCLES STREET EAST", "bikes": 15, "update": "2015-11-07T17:00:09", "lon": -6.265601}}, {"geometry": {"type": "Point", "coordinates": [-6.238695, 53.342638]}, "type": "Feature", "properties": {"status": "OPEN", "stands": 34, "address": "Grand Canal Dock", "lat": 53.342638, "name": "GRAND CANAL DOCK", "bikes": 6, "update": "2015-11-07T17:04:19", "lon": -6.238695}}, {"geometry": {"type": "Point", "coordinates": [-6.246548, 53.339434]}, "type": "Feature", "properties": {"status": "OPEN", "stands": 29, "address": "Merrion Square East", "lat": 53.339434, "name": "MERRION SQUARE EAST", "bikes": 1, "update": "2015-11-07T17:01:20", "lon": -6.246548}}, {"geometry": {"type": "Point", "coordinates": [-6.264699, 53.339334]}, "type": "Feature", "properties": {"status": "OPEN", "stands": 25, "address": "York Street West", "lat": 53.339334, "name": "YORK STREET WEST", "bikes": 15, "update": "2015-11-07T17:04:48", "lon": -6.264699}}, {"geometry": {"type": "Point", "coordinates": [-6.26199, 53.337494]}, "type": "Feature", "properties": {"status": "OPEN", "stands": 27, "address": "St. Stephen's Green South", "lat": 53.337494, "name": "ST. STEPHEN'S GREEN SOUTH", "bikes": 3, "update": "2015-11-07T17:04:25", "lon": -6.26199}}, {"geometry": {"type": "Point", "coordinates": [-6.261397, 53.35561]}, "type": "Feature", "properties": {"status": "OPEN", "stands": 13, "address": "Denmark Street Great", "lat": 53.35561, "name": "DENMARK STREET GREAT", "bikes": 7, "update": "2015-11-07T17:01:38", "lon": -6.261397}}, {"geometry": {"type": "Point", "coordinates": [-6.297804, 53.346985]}, "type": "Feature", "properties": {"status": "OPEN", "stands": 21, "address": "Heuston Station (Car Park)", "lat": 53.346985, "name": "HEUSTON STATION (CAR PARK)", "bikes": 19, "update": "2015-11-07T16:59:54", "lon": -6.297804}}, {"geometry": {"type": "Point", "coordinates": [-6.256035, 53.337824]}, "type": "Feature", "properties": {"status": "OPEN", "stands": 12, "address": "St. Stephen's Green East", "lat": 53.337824, "name": "ST. STEPHEN'S GREEN EAST", "bikes": 28, "update": "2015-11-07T16:58:25", "lon": -6.256035}}, {"geometry": {"type": "Point", "coordinates": [-6.269779, 53.359246]}, "type": "Feature", "properties": {"status": "OPEN", "stands": 17, "address": "Eccles Street", "lat": 53.359246, "name": "ECCLES STREET", "bikes": 3, "update": "2015-11-07T17:02:24", "lon": -6.269779}}, {"geometry": {"type": "Point", "coordinates": [-6.264828, 53.359967]}, "type": "Feature", "properties": {"status": "OPEN", "stands": 20, "address": "Mater Hospital", "lat": 53.359967, "name": "MATER HOSPITAL", "bikes": 20, "update": "2015-11-07T17:01:36", "lon": -6.264828}}, {"geometry": {"type": "Point", "coordinates": [-6.26814, 53.356769]}, "type": "Feature", "properties": {"status": "OPEN", "stands": 14, "address": "Blessington Street", "lat": 53.356769, "name": "BLESSINGTON STREET", "bikes": 6, "update": "2015-11-07T17:00:01", "lon": -6.26814}}, {"geometry": {"type": "Point", "coordinates": [-6.251988, 53.339764]}, "type": "Feature", "properties": {"status": "OPEN", "stands": 4, "address": "Merrion Square West", "lat": 53.339764, "name": "MERRION SQUARE WEST", "bikes": 16, "update": "2015-11-07T17:00:45", "lon": -6.251988}}, {"geometry": {"type": "Point", "coordinates": [-6.238523, 53.34744]}, "type": "Feature", "properties": {"status": "OPEN", "stands": 40, "address": "Convention Centre", "lat": 53.34744, "name": "CONVENTION CENTRE", "bikes": 0, "update": "2015-11-07T17:03:37", "lon": -6.238523}}, {"geometry": {"type": "Point", "coordinates": [-6.264423, 53.355473]}, "type": "Feature", "properties": {"status": "OPEN", "stands": 13, "address": "Hardwicke Street", "lat": 53.355473, "name": "HARDWICKE STREET", "bikes": 3, "update": "2015-11-07T16:56:48", "lon": -6.264423}}, {"geometry": {"type": "Point", "coordinates": [-6.278214, 53.347692]}, "type": "Feature", "properties": {"status": "OPEN", "stands": 24, "address": "Smithfield", "lat": 53.347692, "name": "SMITHFIELD", "bikes": 6, "update": "2015-11-07T16:57:24", "lon": -6.278214}}, {"geometry": {"type": "Point", "coordinates": [-6.266802, 53.344007]}, "type": "Feature", "properties": {"status": "OPEN", "stands": 2, "address": "Dame Street", "lat": 53.344007, "name": "DAME STREET", "bikes": 14, "update": "2015-11-07T16:58:11", "lon": -6.266802}}, {"geometry": {"type": "Point", "coordinates": [-6.247163, 53.345203]}, "type": "Feature", "properties": {"status": "OPEN", "stands": 23, "address": "Sandwith Street", "lat": 53.345203, "name": "SANDWITH STREET", "bikes": 17, "update": "2015-11-07T17:00:48", "lon": -6.247163}}, {"geometry": {"type": "Point", "coordinates": [-6.260311, 53.349013]}, "type": "Feature", "properties": {"status": "OPEN", "stands": 1, "address": "Princes Street / O'Connell Street", "lat": 53.349013, "name": "PRINCES STREET / O'CONNELL STREET", "bikes": 22, "update": "2015-11-07T17:05:26", "lon": -6.260311}}, {"geometry": {"type": "Point", "coordinates": [-6.243778, 53.339629]}, "type": "Feature", "properties": {"status": "OPEN", "stands": 20, "address": "Grattan Street", "lat": 53.339629, "name": "GRATTAN STREET", "bikes": 3, "update": "2015-11-07T16:58:24", "lon": -6.243778}}, {"geometry": {"type": "Point", "coordinates": [-6.292951, 53.341359]}, "type": "Feature", "properties": {"status": "OPEN", "stands": 19, "address": "St James Hospital (Luas)", "lat": 53.341359, "name": "ST JAMES HOSPITAL (LUAS)", "bikes": 21, "update": "2015-11-07T17:02:00", "lon": -6.292951}}, {"geometry": {"type": "Point", "coordinates": [-6.269859, 53.351182]}, "type": "Feature", "properties": {"status": "OPEN", "stands": 7, "address": "Bolton Street", "lat": 53.351182, "name": "BOLTON STREET", "bikes": 13, "update": "2015-11-07T17:04:16", "lon": -6.269859}}, {"geometry": {"type": "Point", "coordinates": [-6.264192, 53.347082]}, "type": "Feature", "properties": {"status": "OPEN", "stands": 3, "address": "Strand Street Great", "lat": 53.347082, "name": "STRAND STREET GREAT", "bikes": 32, "update": "2015-11-07T17:04:45", "lon": -6.264192}}, {"geometry": {"type": "Point", "coordinates": [-6.236198, 53.341655]}, "type": "Feature", "properties": {"status": "OPEN", "stands": 35, "address": "Barrow Street", "lat": 53.341655, "name": "BARROW STREET", "bikes": 5, "update": "2015-11-07T17:05:30", "lon": -6.236198}}, {"geometry": {"type": "Point", "coordinates": [-6.258586, 53.356299]}, "type": "Feature", "properties": {"status": "OPEN", "stands": 15, "address": "Mountjoy Square West", "lat": 53.356299, "name": "MOUNTJOY SQUARE WEST", "bikes": 15, "update": "2015-11-07T17:04:53", "lon": -6.258586}}, {"geometry": {"type": "Point", "coordinates": [-6.252717, 53.332383]}, "type": "Feature", "properties": {"status": "OPEN", "stands": 7, "address": "Wilton Terrace", "lat": 53.332383, "name": "WILTON TERRACE", "bikes": 13, "update": "2015-11-07T17:03:42", "lon": -6.252717}}, {"geometry": {"type": "Point", "coordinates": [-6.254485, 53.34218]}, "type": "Feature", "properties": {"status": "OPEN", "stands": 18, "address": "Leinster Street South", "lat": 53.34218, "name": "LEINSTER STREET SOUTH", "bikes": 12, "update": "2015-11-07T17:05:16", "lon": -6.254485}}, {"geometry": {"type": "Point", "coordinates": [-6.287409, 53.343456]}, "type": "Feature", "properties": {"status": "OPEN", "stands": 23, "address": "James Street", "lat": 53.343456, "name": "JAMES STREET", "bikes": 17, "update": "2015-11-07T16:59:12", "lon": -6.287409}}, {"geometry": {"type": "Point", "coordinates": [-6.291804, 53.347972]}, "type": "Feature", "properties": {"status": "OPEN", "stands": 23, "address": "Parkgate Street", "lat": 53.347972, "name": "PARKGATE STREET", "bikes": 15, "update": "2015-11-07T17:03:37", "lon": -6.291804}}, {"geometry": {"type": "Point", "coordinates": [-6.292041, 53.347106]}, "type": "Feature", "properties": {"status": "OPEN", "stands": 0, "address": "Heuston Bridge (South)", "lat": 53.347106, "name": "HEUSTON BRIDGE (SOUTH)", "bikes": 25, "update": "2015-11-07T17:00:18", "lon": -6.292041}}, {"geometry": {"type": "Point", "coordinates": [-6.260533, 53.352149]}, "type": "Feature", "properties": {"status": "OPEN", "stands": 1, "address": "Cathal Brugha Street", "lat": 53.352149, "name": "CATHAL BRUGHA STREET", "bikes": 18, "update": "2015-11-07T17:02:17", "lon": -6.260533}}, {"geometry": {"type": "Point", "coordinates": [-6.30395, 53.338776]}, "type": "Feature", "properties": {"status": "OPEN", "stands": 21, "address": "Rothe Abbey", "lat": 53.338776, "name": "ROTHE ABBEY", "bikes": 14, "update": "2015-11-07T17:03:09", "lon": -6.30395}}, {"geometry": {"type": "Point", "coordinates": [-6.260641, 53.358437]}, "type": "Feature", "properties": {"status": "OPEN", "stands": 10, "address": "Upper Sherrard Street", "lat": 53.358437, "name": "UPPER SHERRARD STREET", "bikes": 20, "update": "2015-11-07T17:01:52", "lon": -6.260641}}, {"geometry": {"type": "Point", "coordinates": [-6.2509, 53.335211]}, "type": "Feature", "properties": {"status": "OPEN", "stands": 37, "address": "Fitzwilliam Square East", "lat": 53.335211, "name": "FITZWILLIAM SQUARE EAST", "bikes": 3, "update": "2015-11-07T17:01:44", "lon": -6.2509}}, {"geometry": {"type": "Point", "coordinates": [-6.257942, 53.332763]}, "type": "Feature", "properties": {"status": "OPEN", "stands": 17, "address": "Harcourt Terrace", "lat": 53.332763, "name": "HARCOURT TERRACE", "bikes": 3, "update": "2015-11-07T17:05:06", "lon": -6.257942}}, {"geometry": {"type": "Point", "coordinates": [-6.266651, 53.3483]}, "type": "Feature", "properties": {"status": "OPEN", "stands": 1, "address": "Jervis Street", "lat": 53.3483, "name": "JERVIS STREET", "bikes": 20, "update": "2015-11-07T17:05:25", "lon": -6.266651}}, {"geometry": {"type": "Point", "coordinates": [-6.268001, 53.346057]}, "type": "Feature", "properties": {"status": "OPEN", "stands": 15, "address": "Ormond Quay Upper", "lat": 53.346057, "name": "ORMOND QUAY UPPER", "bikes": 14, "update": "2015-11-07T17:03:10", "lon": -6.268001}}, {"geometry": {"type": "Point", "coordinates": [-6.308191, 53.340714]}, "type": "Feature", "properties": {"status": "OPEN", "stands": 25, "address": "Emmet Road", "lat": 53.340714, "name": "EMMET ROAD", "bikes": 15, "update": "2015-11-07T16:59:55", "lon": -6.308191}}, {"geometry": {"type": "Point", "coordinates": [-6.292432, 53.347802]}, "type": "Feature", "properties": {"status": "OPEN", "stands": 4, "address": "Heuston Bridge (North)", "lat": 53.347802, "name": "HEUSTON BRIDGE (NORTH)", "bikes": 36, "update": "2015-11-07T17:05:13", "lon": -6.292432}}, {"geometry": {"type": "Point", "coordinates": [-6.281637, 53.3488]}, "type": "Feature", "properties": {"status": "OPEN", "stands": 21, "address": "Blackhall Place", "lat": 53.3488, "name": "BLACKHALL PLACE", "bikes": 9, "update": "2015-11-07T17:01:20", "lon": -6.281637}}]}