{"features": [{"geometry": {"coordinates": [-6.278198, 53.349562], "type": "Point"}, "properties": {"lon": -6.278198, "stands": 5, "name": "SMITHFIELD NORTH", "address": "Smithfield North", "lat": 53.349562, "bikes": 25, "status": "OPEN", "update": "2015-11-02T22:19:14"}, "type": "Feature"}, {"geometry": {"coordinates": [-6.265305, 53.353462], "type": "Point"}, "properties": {"lon": -6.265305, "stands": 19, "name": "PARNELL SQUARE NORTH", "address": "Parnell Square North", "lat": 53.353462, "bikes": 1, "status": "OPEN", "update": "2015-11-02T22:21:03"}, "type": "Feature"}, {"geometry": {"coordinates": [-6.250427, 53.344304], "type": "Point"}, "properties": {"lon": -6.250427, "stands": 30, "name": "PEARSE STREET", "address": "Pearse Street", "lat": 53.344304, "bikes": 0, "status": "OPEN", "update": "2015-11-02T22:21:26"}, "type": "Feature"}, {"geometry": {"coordinates": [-6.244239, 53.347777], "type": "Point"}, "properties": {"lon": -6.244239, "stands": 27, "name": "EXCISE WALK", "address": "Excise Walk", "lat": 53.347777, "bikes": 12, "status": "OPEN", "update": "2015-11-02T22:21:29"}, "type": "Feature"}, {"geometry": {"coordinates": [-6.252825, 53.336074], "type": "Point"}, "properties": {"lon": -6.252825, "stands": 30, "name": "FITZWILLIAM SQUARE WEST", "address": "Fitzwilliam Square West", "lat": 53.336074, "bikes": 0, "status": "OPEN", "update": "2015-11-02T22:18:49"}, "type": "Feature"}, {"geometry": {"coordinates": [-6.295594, 53.339983], "type": "Point"}, "properties": {"lon": -6.295594, "stands": 3, "name": "ST. JAMES HOSPITAL (CENTRAL)", "address": "St. James Hospital (Central)", "lat": 53.339983, "bikes": 36, "status": "OPEN", "update": "2015-11-02T22:19:32"}, "type": "Feature"}, {"geometry": {"coordinates": [-6.237153, 53.344115], "type": "Point"}, "properties": {"lon": -6.237153, "stands": 30, "name": "HANOVER QUAY", "address": "Hanover Quay", "lat": 53.344115, "bikes": 10, "status": "OPEN", "update": "2015-11-02T22:11:46"}, "type": "Feature"}, {"geometry": {"coordinates": [-6.280531, 53.343893], "type": "Point"}, "properties": {"lon": -6.280531, "stands": 18, "name": "OLIVER BOND STREET", "address": "Oliver Bond Street", "lat": 53.343893, "bikes": 12, "status": "OPEN", "update": "2015-11-02T22:20:22"}, "type": "Feature"}, {"geometry": {"coordinates": [-6.28525, 53.347477], "type": "Point"}, "properties": {"lon": -6.28525, "stands": 18, "name": "COLLINS BARRACKS MUSEUM", "address": "Collins Barracks Museum", "lat": 53.347477, "bikes": 20, "status": "OPEN", "update": "2015-11-02T22:18:52"}, "type": "Feature"}, {"geometry": {"coordinates": [-6.300217, 53.339005], "type": "Point"}, "properties": {"lon": -6.300217, "stands": 0, "name": "BROOKFIELD ROAD", "address": "Brookfield Road", "lat": 53.339005, "bikes": 30, "status": "OPEN", "update": "2015-11-02T22:13:20"}, "type": "Feature"}, {"geometry": {"coordinates": [-6.26298, 53.336021], "type": "Point"}, "properties": {"lon": -6.26298, "stands": 28, "name": "CLONMEL STREET", "address": "Clonmel Street", "lat": 53.336021, "bikes": 5, "status": "OPEN", "update": "2015-11-02T22:12:48"}, "type": "Feature"}, {"geometry": {"coordinates": [-6.248174, 53.336485], "type": "Point"}, "properties": {"lon": -6.248174, "stands": 24, "name": "JAMES STREET EAST", "address": "James Street East", "lat": 53.336485, "bikes": 6, "status": "OPEN", "update": "2015-11-02T22:13:19"}, "type": "Feature"}, {"geometry": {"coordinates": [-6.24153, 53.33796], "type": "Point"}, "properties": {"lon": -6.24153, "stands": 35, "name": "MOUNT STREET LOWER", "address": "Mount Street Lower", "lat": 53.33796, "bikes": 5, "status": "OPEN", "update": "2015-11-02T22:15:31"}, "type": "Feature"}, {"geometry": {"coordinates": [-6.27012, 53.343368], "type": "Point"}, "properties": {"lon": -6.27012, "stands": 20, "name": "CHRISTCHURCH PLACE", "address": "Christchurch Place", "lat": 53.343368, "bikes": 0, "status": "OPEN", "update": "2015-11-02T22:13:10"}, "type": "Feature"}, {"geometry": {"coordinates": [-6.265436, 53.334123], "type": "Point"}, "properties": {"lon": -6.265436, "stands": 16, "name": "GRANTHAM STREET", "address": "Grantham Street", "lat": 53.334123, "bikes": 14, "status": "OPEN", "update": "2015-11-02T22:17:49"}, "type": "Feature"}, {"geometry": {"coordinates": [-6.262003, 53.338755], "type": "Point"}, "properties": {"lon": -6.262003, "stands": 30, "name": "YORK STREET EAST", "address": "York Street East", "lat": 53.338755, "bikes": 2, "status": "OPEN", "update": "2015-11-02T22:20:38"}, "type": "Feature"}, {"geometry": {"coordinates": [-6.268044, 53.330091], "type": "Point"}, "properties": {"lon": -6.268044, "stands": 0, "name": "PORTOBELLO ROAD", "address": "Portobello Road", "lat": 53.330091, "bikes": 30, "status": "OPEN", "update": "2015-11-02T22:18:22"}, "type": "Feature"}, {"geometry": {"coordinates": [-6.265125, 53.350929], "type": "Point"}, "properties": {"lon": -6.265125, "stands": 18, "name": "PARNELL STREET", "address": "Parnell Street", "lat": 53.350929, "bikes": 2, "status": "OPEN", "update": "2015-11-02T22:20:44"}, "type": "Feature"}, {"geometry": {"coordinates": [-6.256853, 53.341515], "type": "Point"}, "properties": {"lon": -6.256853, "stands": 36, "name": "FREDERICK STREET SOUTH", "address": "Frederick Street South", "lat": 53.341515, "bikes": 4, "status": "OPEN", "update": "2015-11-02T22:21:05"}, "type": "Feature"}, {"geometry": {"coordinates": [-6.263371, 53.344603], "type": "Point"}, "properties": {"lon": -6.263371, "stands": 27, "name": "FOWNES STREET UPPER", "address": "Fownes Street Upper", "lat": 53.344603, "bikes": 3, "status": "OPEN", "update": "2015-11-02T22:21:04"}, "type": "Feature"}, {"geometry": {"coordinates": [-6.262287, 53.340962], "type": "Point"}, "properties": {"lon": -6.262287, "stands": 29, "name": "CHATHAM STREET", "address": "Chatham Street", "lat": 53.340962, "bikes": 0, "status": "OPEN", "update": "2015-11-02T22:19:19"}, "type": "Feature"}, {"geometry": {"coordinates": [-6.254662, 53.348279], "type": "Point"}, "properties": {"lon": -6.254662, "stands": 22, "name": "CUSTOM HOUSE", "address": "Custom House", "lat": 53.348279, "bikes": 8, "status": "OPEN", "update": "2015-11-02T22:20:43"}, "type": "Feature"}, {"geometry": {"coordinates": [-6.233451, 53.344153], "type": "Point"}, "properties": {"lon": -6.233451, "stands": 39, "name": "BENSON STREET", "address": "Benson Street", "lat": 53.344153, "bikes": 1, "status": "OPEN", "update": "2015-11-02T22:15:26"}, "type": "Feature"}, {"geometry": {"coordinates": [-6.24672, 53.341428], "type": "Point"}, "properties": {"lon": -6.24672, "stands": 32, "name": "FENIAN STREET", "address": "Fenian Street", "lat": 53.341428, "bikes": 3, "status": "OPEN", "update": "2015-11-02T22:12:12"}, "type": "Feature"}, {"geometry": {"coordinates": [-6.231291, 53.341833], "type": "Point"}, "properties": {"lon": -6.231291, "stands": 0, "name": "SOUTH DOCK ROAD", "address": "South Dock Road", "lat": 53.341833, "bikes": 29, "status": "OPEN", "update": "2015-11-02T22:21:28"}, "type": "Feature"}, {"geometry": {"coordinates": [-6.230852, 53.346867], "type": "Point"}, "properties": {"lon": -6.230852, "stands": 25, "name": "THE POINT", "address": "The Point", "lat": 53.346867, "bikes": 15, "status": "OPEN", "update": "2015-11-02T22:17:35"}, "type": "Feature"}, {"geometry": {"coordinates": [-6.243576, 53.346026], "type": "Point"}, "properties": {"lon": -6.243576, "stands": 40, "name": "LIME STREET", "address": "Lime Street", "lat": 53.346026, "bikes": 0, "status": "OPEN", "update": "2015-11-02T22:13:37"}, "type": "Feature"}, {"geometry": {"coordinates": [-6.310015, 53.342113], "type": "Point"}, "properties": {"lon": -6.310015, "stands": 0, "name": "KILMAINHAM GAOL", "address": "Kilmainham Gaol", "lat": 53.342113, "bikes": 35, "status": "OPEN", "update": "2015-11-02T22:13:42"}, "type": "Feature"}, {"geometry": {"coordinates": [-6.240928, 53.347932], "type": "Point"}, "properties": {"lon": -6.240928, "stands": 19, "name": "GUILD STREET", "address": "Guild Street", "lat": 53.347932, "bikes": 21, "status": "OPEN", "update": "2015-11-02T22:14:19"}, "type": "Feature"}, {"geometry": {"coordinates": [-6.245575, 53.334432], "type": "Point"}, "properties": {"lon": -6.245575, "stands": 21, "name": "HERBERT PLACE", "address": "Herbert Place", "lat": 53.334432, "bikes": 9, "status": "OPEN", "update": "2015-11-02T22:15:58"}, "type": "Feature"}, {"geometry": {"coordinates": [-6.269425, 53.354929], "type": "Point"}, "properties": {"lon": -6.269425, "stands": 17, "name": "WESTERN WAY", "address": "Western Way", "lat": 53.354929, "bikes": 23, "status": "OPEN", "update": "2015-11-02T22:21:06"}, "type": "Feature"}, {"geometry": {"coordinates": [-6.26059, 53.337132], "type": "Point"}, "properties": {"lon": -6.26059, "stands": 40, "name": "NEWMAN HOUSE", "address": "Newman House", "lat": 53.337132, "bikes": 0, "status": "OPEN", "update": "2015-11-02T22:12:52"}, "type": "Feature"}, {"geometry": {"coordinates": [-6.273507, 53.350291], "type": "Point"}, "properties": {"lon": -6.273507, "stands": 10, "name": "KING STREET NORTH", "address": "King Street North", "lat": 53.350291, "bikes": 20, "status": "OPEN", "update": "2015-11-02T22:15:28"}, "type": "Feature"}, {"geometry": {"coordinates": [-6.24551, 53.335742], "type": "Point"}, "properties": {"lon": -6.24551, "stands": 40, "name": "HERBERT STREET", "address": "Herbert Street", "lat": 53.335742, "bikes": 0, "status": "OPEN", "update": "2015-11-02T22:12:25"}, "type": "Feature"}, {"geometry": {"coordinates": [-6.258371, 53.334019], "type": "Point"}, "properties": {"lon": -6.258371, "stands": 30, "name": "EARLSFORT TERRACE", "address": "Earlsfort Terrace", "lat": 53.334019, "bikes": 0, "status": "OPEN", "update": "2015-11-02T22:18:23"}, "type": "Feature"}, {"geometry": {"coordinates": [-6.267732, 53.340803], "type": "Point"}, "properties": {"lon": -6.267732, "stands": 20, "name": "GOLDEN LANE", "address": "Golden Lane", "lat": 53.340803, "bikes": 0, "status": "OPEN", "update": "2015-11-02T22:16:33"}, "type": "Feature"}, {"geometry": {"coordinates": [-6.255265, 53.351464], "type": "Point"}, "properties": {"lon": -6.255265, "stands": 14, "name": "DEVERELL PLACE", "address": "Deverell Place", "lat": 53.351464, "bikes": 16, "status": "OPEN", "update": "2015-11-02T22:17:30"}, "type": "Feature"}, {"geometry": {"coordinates": [-6.277167, 53.343105], "type": "Point"}, "properties": {"lon": -6.277167, "stands": 17, "name": "JOHN STREET WEST", "address": "John Street West", "lat": 53.343105, "bikes": 14, "status": "OPEN", "update": "2015-11-02T22:20:47"}, "type": "Feature"}, {"geometry": {"coordinates": [-6.246154, 53.346637], "type": "Point"}, "properties": {"lon": -6.246154, "stands": 27, "name": "CITY QUAY", "address": "City Quay", "lat": 53.346637, "bikes": 1, "status": "OPEN", "update": "2015-11-02T22:20:00"}, "type": "Feature"}, {"geometry": {"coordinates": [-6.263578, 53.343034], "type": "Point"}, "properties": {"lon": -6.263578, "stands": 23, "name": "EXCHEQUER STREET", "address": "Exchequer Street", "lat": 53.343034, "bikes": 1, "status": "OPEN", "update": "2015-11-02T22:15:42"}, "type": "Feature"}, {"geometry": {"coordinates": [-6.260714, 53.33403], "type": "Point"}, "properties": {"lon": -6.260714, "stands": 36, "name": "HATCH STREET", "address": "Hatch Street", "lat": 53.33403, "bikes": 0, "status": "OPEN", "update": "2015-11-02T22:21:29"}, "type": "Feature"}, {"geometry": {"coordinates": [-6.260177, 53.330662], "type": "Point"}, "properties": {"lon": -6.260177, "stands": 5, "name": "CHARLEMONT PLACE", "address": "Charlemont Street", "lat": 53.330662, "bikes": 35, "status": "OPEN", "update": "2015-11-02T22:19:12"}, "type": "Feature"}, {"geometry": {"coordinates": [-6.263232, 53.357043], "type": "Point"}, "properties": {"lon": -6.263232, "stands": 14, "name": "HARDWICKE PLACE", "address": "Hardwicke Place", "lat": 53.357043, "bikes": 11, "status": "OPEN", "update": "2015-11-02T22:16:50"}, "type": "Feature"}, {"geometry": {"coordinates": [-6.267459, 53.348875], "type": "Point"}, "properties": {"lon": -6.267459, "stands": 27, "name": "WOLFE TONE STREET", "address": "Wolfe Tone Street", "lat": 53.348875, "bikes": 1, "status": "OPEN", "update": "2015-11-02T22:13:21"}, "type": "Feature"}, {"geometry": {"coordinates": [-6.275233, 53.342081], "type": "Point"}, "properties": {"lon": -6.275233, "stands": 1, "name": "FRANCIS STREET", "address": "Francis Street", "lat": 53.342081, "bikes": 29, "status": "OPEN", "update": "2015-11-02T22:21:18"}, "type": "Feature"}, {"geometry": {"coordinates": [-6.272976, 53.346874], "type": "Point"}, "properties": {"lon": -6.272976, "stands": 2, "name": "GREEK STREET", "address": "Greek Street", "lat": 53.346874, "bikes": 17, "status": "OPEN", "update": "2015-11-02T22:17:03"}, "type": "Feature"}, {"geometry": {"coordinates": [-6.275071, 53.343565], "type": "Point"}, "properties": {"lon": -6.275071, "stands": 29, "name": "HIGH STREET", "address": "High Street", "lat": 53.343565, "bikes": 0, "status": "OPEN", "update": "2015-11-02T22:18:38"}, "type": "Feature"}, {"geometry": {"coordinates": [-6.260348, 53.359624], "type": "Point"}, "properties": {"lon": -6.260348, "stands": 6, "name": "NORTH CIRCULAR ROAD", "address": "North Circular Road", "lat": 53.359624, "bikes": 24, "status": "OPEN", "update": "2015-11-02T22:19:28"}, "type": "Feature"}, {"geometry": {"coordinates": [-6.25294, 53.350974], "type": "Point"}, "properties": {"lon": -6.25294, "stands": 9, "name": "TALBOT STREET", "address": "Talbot Street", "lat": 53.350974, "bikes": 31, "status": "OPEN", "update": "2015-11-02T22:16:09"}, "type": "Feature"}, {"geometry": {"coordinates": [-6.240642, 53.339218], "type": "Point"}, "properties": {"lon": -6.240642, "stands": 40, "name": "SIR PATRICK DUN'S", "address": "Sir Patrick's Dun", "lat": 53.339218, "bikes": 0, "status": "OPEN", "update": "2015-11-02T22:20:21"}, "type": "Feature"}, {"geometry": {"coordinates": [-6.234749, 53.347122], "type": "Point"}, "properties": {"lon": -6.234749, "stands": 12, "name": "NEW CENTRAL BANK", "address": "New Central Bank", "lat": 53.347122, "bikes": 28, "status": "OPEN", "update": "2015-11-02T22:17:15"}, "type": "Feature"}, {"geometry": {"coordinates": [-6.252192, 53.347508], "type": "Point"}, "properties": {"lon": -6.252192, "stands": 20, "name": "GEORGES QUAY", "address": "Georges Quay", "lat": 53.347508, "bikes": 0, "status": "CLOSED", "update": "2015-11-02T22:13:57"}, "type": "Feature"}, {"geometry": {"coordinates": [-6.29719, 53.341645], "type": "Point"}, "properties": {"lon": -6.29719, "stands": 0, "name": "MOUNT BROWN", "address": "Mount Brown", "lat": 53.341645, "bikes": 22, "status": "OPEN", "update": "2015-11-02T22:13:00"}, "type": "Feature"}, {"geometry": {"coordinates": [-6.29706, 53.343897], "type": "Point"}, "properties": {"lon": -6.29706, "stands": 0, "name": "ROYAL HOSPITAL", "address": "Royal Hospital", "lat": 53.343897, "bikes": 40, "status": "OPEN", "update": "2015-11-02T22:13:23"}, "type": "Feature"}, {"geometry": {"coordinates": [-6.296924, 53.346603], "type": "Point"}, "properties": {"lon": -6.296924, "stands": 0, "name": "HEUSTON STATION (CENTRAL)", "address": "Heuston Station (Central)", "lat": 53.346603, "bikes": 40, "status": "OPEN", "update": "2015-11-02T22:20:19"}, "type": "Feature"}, {"geometry": {"coordinates": [-6.254614, 53.345922], "type": "Point"}, "properties": {"lon": -6.254614, "stands": 19, "name": "TOWNSEND STREET", "address": "Townsend Street", "lat": 53.345922, "bikes": 1, "status": "OPEN", "update": "2015-11-02T22:18:57"}, "type": "Feature"}, {"geometry": {"coordinates": [-6.265163, 53.330362], "type": "Point"}, "properties": {"lon": -6.265163, "stands": 4, "name": "PORTOBELLO HARBOUR", "address": "Portobello Harbour", "lat": 53.330362, "bikes": 26, "status": "OPEN", "update": "2015-11-02T22:19:56"}, "type": "Feature"}, {"geometry": {"coordinates": [-6.248048, 53.347884], "type": "Point"}, "properties": {"lon": -6.248048, "stands": 30, "name": "CUSTOM HOUSE QUAY", "address": "Custom House Quay", "lat": 53.347884, "bikes": 0, "status": "OPEN", "update": "2015-11-02T22:21:16"}, "type": "Feature"}, {"geometry": {"coordinates": [-6.258117, 53.341288], "type": "Point"}, "properties": {"lon": -6.258117, "stands": 20, "name": "MOLESWORTH STREET", "address": "Molesworth Street", "lat": 53.341288, "bikes": 0, "status": "OPEN", "update": "2015-11-02T22:20:35"}, "type": "Feature"}, {"geometry": {"coordinates": [-6.305085, 53.341805], "type": "Point"}, "properties": {"lon": -6.305085, "stands": 4, "name": "KILMAINHAM LANE", "address": "Kilmainham Lane", "lat": 53.341805, "bikes": 26, "status": "OPEN", "update": "2015-11-02T22:18:56"}, "type": "Feature"}, {"geometry": {"coordinates": [-6.287661, 53.342296], "type": "Point"}, "properties": {"lon": -6.287661, "stands": 12, "name": "MARKET STREET SOUTH", "address": "Market Street South", "lat": 53.342296, "bikes": 26, "status": "OPEN", "update": "2015-11-02T22:15:52"}, "type": "Feature"}, {"geometry": {"coordinates": [-6.267699, 53.337757], "type": "Point"}, "properties": {"lon": -6.267699, "stands": 39, "name": "KEVIN STREET", "address": "Kevin Street", "lat": 53.337757, "bikes": 1, "status": "OPEN", "update": "2015-11-02T22:21:15"}, "type": "Feature"}, {"geometry": {"coordinates": [-6.265601, 53.358115], "type": "Point"}, "properties": {"lon": -6.265601, "stands": 14, "name": "ECCLES STREET EAST", "address": "Eccles Street East", "lat": 53.358115, "bikes": 13, "status": "OPEN", "update": "2015-11-02T22:19:41"}, "type": "Feature"}, {"geometry": {"coordinates": [-6.238695, 53.342638], "type": "Point"}, "properties": {"lon": -6.238695, "stands": 39, "name": "GRAND CANAL DOCK", "address": "Grand Canal Dock", "lat": 53.342638, "bikes": 1, "status": "OPEN", "update": "2015-11-02T22:21:13"}, "type": "Feature"}, {"geometry": {"coordinates": [-6.246548, 53.339434], "type": "Point"}, "properties": {"lon": -6.246548, "stands": 23, "name": "MERRION SQUARE EAST", "address": "Merrion Square East", "lat": 53.339434, "bikes": 7, "status": "OPEN", "update": "2015-11-02T22:21:15"}, "type": "Feature"}, {"geometry": {"coordinates": [-6.264699, 53.339334], "type": "Point"}, "properties": {"lon": -6.264699, "stands": 40, "name": "YORK STREET WEST", "address": "York Street West", "lat": 53.339334, "bikes": 0, "status": "OPEN", "update": "2015-11-02T22:12:12"}, "type": "Feature"}, {"geometry": {"coordinates": [-6.26199, 53.337494], "type": "Point"}, "properties": {"lon": -6.26199, "stands": 30, "name": "ST. STEPHEN'S GREEN SOUTH", "address": "St. Stephen's Green South", "lat": 53.337494, "bikes": 0, "status": "OPEN", "update": "2015-11-02T22:18:00"}, "type": "Feature"}, {"geometry": {"coordinates": [-6.261397, 53.35561], "type": "Point"}, "properties": {"lon": -6.261397, "stands": 20, "name": "DENMARK STREET GREAT", "address": "Denmark Street Great", "lat": 53.35561, "bikes": 0, "status": "OPEN", "update": "2015-11-02T22:15:20"}, "type": "Feature"}, {"geometry": {"coordinates": [-6.297804, 53.346985], "type": "Point"}, "properties": {"lon": -6.297804, "stands": 21, "name": "HEUSTON STATION (CAR PARK)", "address": "Heuston Station (Car Park)", "lat": 53.346985, "bikes": 19, "status": "OPEN", "update": "2015-11-02T22:20:52"}, "type": "Feature"}, {"geometry": {"coordinates": [-6.256035, 53.337824], "type": "Point"}, "properties": {"lon": -6.256035, "stands": 40, "name": "ST. STEPHEN'S GREEN EAST", "address": "St. Stephen's Green East", "lat": 53.337824, "bikes": 0, "status": "OPEN", "update": "2015-11-02T22:15:48"}, "type": "Feature"}, {"geometry": {"coordinates": [-6.269779, 53.359246], "type": "Point"}, "properties": {"lon": -6.269779, "stands": 0, "name": "ECCLES STREET", "address": "Eccles Street", "lat": 53.359246, "bikes": 20, "status": "OPEN", "update": "2015-11-02T22:19:48"}, "type": "Feature"}, {"geometry": {"coordinates": [-6.264828, 53.359967], "type": "Point"}, "properties": {"lon": -6.264828, "stands": 22, "name": "MATER HOSPITAL", "address": "Mater Hospital", "lat": 53.359967, "bikes": 18, "status": "OPEN", "update": "2015-11-02T22:21:10"}, "type": "Feature"}, {"geometry": {"coordinates": [-6.26814, 53.356769], "type": "Point"}, "properties": {"lon": -6.26814, "stands": 1, "name": "BLESSINGTON STREET", "address": "Blessington Street", "lat": 53.356769, "bikes": 19, "status": "OPEN", "update": "2015-11-02T22:19:58"}, "type": "Feature"}, {"geometry": {"coordinates": [-6.251988, 53.339764], "type": "Point"}, "properties": {"lon": -6.251988, "stands": 15, "name": "MERRION SQUARE WEST", "address": "Merrion Square West", "lat": 53.339764, "bikes": 5, "status": "OPEN", "update": "2015-11-02T22:19:43"}, "type": "Feature"}, {"geometry": {"coordinates": [-6.238523, 53.34744], "type": "Point"}, "properties": {"lon": -6.238523, "stands": 38, "name": "CONVENTION CENTRE", "address": "Convention Centre", "lat": 53.34744, "bikes": 2, "status": "OPEN", "update": "2015-11-02T22:13:05"}, "type": "Feature"}, {"geometry": {"coordinates": [-6.264423, 53.355473], "type": "Point"}, "properties": {"lon": -6.264423, "stands": 13, "name": "HARDWICKE STREET", "address": "Hardwicke Street", "lat": 53.355473, "bikes": 3, "status": "OPEN", "update": "2015-11-02T22:17:48"}, "type": "Feature"}, {"geometry": {"coordinates": [-6.278214, 53.347692], "type": "Point"}, "properties": {"lon": -6.278214, "stands": 0, "name": "SMITHFIELD", "address": "Smithfield", "lat": 53.347692, "bikes": 29, "status": "OPEN", "update": "2015-11-02T22:21:18"}, "type": "Feature"}, {"geometry": {"coordinates": [-6.266802, 53.344007], "type": "Point"}, "properties": {"lon": -6.266802, "stands": 16, "name": "DAME STREET", "address": "Dame Street", "lat": 53.344007, "bikes": 0, "status": "OPEN", "update": "2015-11-02T22:11:40"}, "type": "Feature"}, {"geometry": {"coordinates": [-6.247163, 53.345203], "type": "Point"}, "properties": {"lon": -6.247163, "stands": 38, "name": "SANDWITH STREET", "address": "Sandwith Street", "lat": 53.345203, "bikes": 1, "status": "OPEN", "update": "2015-11-02T22:20:48"}, "type": "Feature"}, {"geometry": {"coordinates": [-6.260311, 53.349013], "type": "Point"}, "properties": {"lon": -6.260311, "stands": 23, "name": "PRINCES STREET / O'CONNELL STREET", "address": "Princes Street / O'Connell Street", "lat": 53.349013, "bikes": 0, "status": "OPEN", "update": "2015-11-02T22:16:19"}, "type": "Feature"}, {"geometry": {"coordinates": [-6.243778, 53.339629], "type": "Point"}, "properties": {"lon": -6.243778, "stands": 21, "name": "GRATTAN STREET", "address": "Grattan Street", "lat": 53.339629, "bikes": 2, "status": "OPEN", "update": "2015-11-02T22:12:04"}, "type": "Feature"}, {"geometry": {"coordinates": [-6.292951, 53.341359], "type": "Point"}, "properties": {"lon": -6.292951, "stands": 0, "name": "ST JAMES HOSPITAL (LUAS)", "address": "St James Hospital (Luas)", "lat": 53.341359, "bikes": 40, "status": "OPEN", "update": "2015-11-02T22:19:33"}, "type": "Feature"}, {"geometry": {"coordinates": [-6.269859, 53.351182], "type": "Point"}, "properties": {"lon": -6.269859, "stands": 20, "name": "BOLTON STREET", "address": "Bolton Street", "lat": 53.351182, "bikes": 0, "status": "OPEN", "update": "2015-11-02T22:15:21"}, "type": "Feature"}, {"geometry": {"coordinates": [-6.264192, 53.347082], "type": "Point"}, "properties": {"lon": -6.264192, "stands": 34, "name": "STRAND STREET GREAT", "address": "Strand Street Great", "lat": 53.347082, "bikes": 1, "status": "OPEN", "update": "2015-11-02T22:21:12"}, "type": "Feature"}, {"geometry": {"coordinates": [-6.236198, 53.341655], "type": "Point"}, "properties": {"lon": -6.236198, "stands": 15, "name": "BARROW STREET", "address": "Barrow Street", "lat": 53.341655, "bikes": 25, "status": "OPEN", "update": "2015-11-02T22:18:45"}, "type": "Feature"}, {"geometry": {"coordinates": [-6.258586, 53.356299], "type": "Point"}, "properties": {"lon": -6.258586, "stands": 5, "name": "MOUNTJOY SQUARE WEST", "address": "Mountjoy Square West", "lat": 53.356299, "bikes": 25, "status": "OPEN", "update": "2015-11-02T22:17:59"}, "type": "Feature"}, {"geometry": {"coordinates": [-6.252717, 53.332383], "type": "Point"}, "properties": {"lon": -6.252717, "stands": 15, "name": "WILTON TERRACE", "address": "Wilton Terrace", "lat": 53.332383, "bikes": 5, "status": "OPEN", "update": "2015-11-02T22:19:31"}, "type": "Feature"}, {"geometry": {"coordinates": [-6.254485, 53.34218], "type": "Point"}, "properties": {"lon": -6.254485, "stands": 30, "name": "LEINSTER STREET SOUTH", "address": "Leinster Street South", "lat": 53.34218, "bikes": 0, "status": "OPEN", "update": "2015-11-02T22:15:36"}, "type": "Feature"}, {"geometry": {"coordinates": [-6.287409, 53.343456], "type": "Point"}, "properties": {"lon": -6.287409, "stands": 5, "name": "JAMES STREET", "address": "James Street", "lat": 53.343456, "bikes": 35, "status": "OPEN", "update": "2015-11-02T22:18:53"}, "type": "Feature"}, {"geometry": {"coordinates": [-6.291804, 53.347972], "type": "Point"}, "properties": {"lon": -6.291804, "stands": 0, "name": "PARKGATE STREET", "address": "Parkgate Street", "lat": 53.347972, "bikes": 38, "status": "OPEN", "update": "2015-11-02T22:15:46"}, "type": "Feature"}, {"geometry": {"coordinates": [-6.292041, 53.347106], "type": "Point"}, "properties": {"lon": -6.292041, "stands": 0, "name": "HEUSTON BRIDGE (SOUTH)", "address": "Heuston Bridge (South)", "lat": 53.347106, "bikes": 25, "status": "OPEN", "update": "2015-11-02T22:15:37"}, "type": "Feature"}, {"geometry": {"coordinates": [-6.260533, 53.352149], "type": "Point"}, "properties": {"lon": -6.260533, "stands": 7, "name": "CATHAL BRUGHA STREET", "address": "Cathal Brugha Street", "lat": 53.352149, "bikes": 12, "status": "OPEN", "update": "2015-11-02T22:17:52"}, "type": "Feature"}, {"geometry": {"coordinates": [-6.30395, 53.338776], "type": "Point"}, "properties": {"lon": -6.30395, "stands": 0, "name": "ROTHE ABBEY", "address": "Rothe Abbey", "lat": 53.338776, "bikes": 35, "status": "OPEN", "update": "2015-11-02T22:16:42"}, "type": "Feature"}, {"geometry": {"coordinates": [-6.260641, 53.358437], "type": "Point"}, "properties": {"lon": -6.260641, "stands": 2, "name": "UPPER SHERRARD STREET", "address": "Upper Sherrard Street", "lat": 53.358437, "bikes": 28, "status": "OPEN", "update": "2015-11-02T22:17:59"}, "type": "Feature"}, {"geometry": {"coordinates": [-6.2509, 53.335211], "type": "Point"}, "properties": {"lon": -6.2509, "stands": 39, "name": "FITZWILLIAM SQUARE EAST", "address": "Fitzwilliam Square East", "lat": 53.335211, "bikes": 1, "status": "OPEN", "update": "2015-11-02T22:12:39"}, "type": "Feature"}, {"geometry": {"coordinates": [-6.257942, 53.332763], "type": "Point"}, "properties": {"lon": -6.257942, "stands": 17, "name": "HARCOURT TERRACE", "address": "Harcourt Terrace", "lat": 53.332763, "bikes": 3, "status": "OPEN", "update": "2015-11-02T22:18:04"}, "type": "Feature"}, {"geometry": {"coordinates": [-6.266651, 53.3483], "type": "Point"}, "properties": {"lon": -6.266651, "stands": 20, "name": "JERVIS STREET", "address": "Jervis Street", "lat": 53.3483, "bikes": 0, "status": "OPEN", "update": "2015-11-02T22:13:35"}, "type": "Feature"}, {"geometry": {"coordinates": [-6.268001, 53.346057], "type": "Point"}, "properties": {"lon": -6.268001, "stands": 29, "name": "ORMOND QUAY UPPER", "address": "Ormond Quay Upper", "lat": 53.346057, "bikes": 0, "status": "OPEN", "update": "2015-11-02T22:18:27"}, "type": "Feature"}, {"geometry": {"coordinates": [-6.308191, 53.340714], "type": "Point"}, "properties": {"lon": -6.308191, "stands": 1, "name": "EMMET ROAD", "address": "Emmet Road", "lat": 53.340714, "bikes": 39, "status": "OPEN", "update": "2015-11-02T22:19:23"}, "type": "Feature"}, {"geometry": {"coordinates": [-6.292432, 53.347802], "type": "Point"}, "properties": {"lon": -6.292432, "stands": 5, "name": "HEUSTON BRIDGE (NORTH)", "address": "Heuston Bridge (North)", "lat": 53.347802, "bikes": 35, "status": "OPEN", "update": "2015-11-02T22:18:46"}, "type": "Feature"}, {"geometry": {"coordinates": [-6.281637, 53.3488], "type": "Point"}, "properties": {"lon": -6.281637, "stands": 0, "name": "BLACKHALL PLACE", "address": "Blackhall Place", "lat": 53.3488, "bikes": 30, "status": "OPEN", "update": "2015-11-02T22:18:22"}, "type": "Feature"}], "type": "FeatureCollection"}