{"features": [{"geometry": {"coordinates": [11.04745, 59.95585], "type": "Point"}, "properties": {"lon": 11.04745, "stands": 12, "name": "TORVGATA", "address": "Torvgata 8, Lillestr\u00f8m", "lat": 59.95585, "bikes": 8, "status": "OPEN", "update": "2015-11-02T22:19:50"}, "type": "Feature"}, {"geometry": {"coordinates": [11.04428, 59.95363], "type": "Point"}, "properties": {"lon": 11.04428, "stands": 19, "name": "LILLESTR\u00d8M STASJON", "address": "Jonas Liesgt. 2000 lillestr\u00f8m", "lat": 59.95363, "bikes": 1, "status": "OPEN", "update": "2015-11-02T22:21:10"}, "type": "Feature"}, {"geometry": {"coordinates": [11.05029, 59.95797], "type": "Point"}, "properties": {"lon": 11.05029, "stands": 8, "name": "STORTORGET", "address": "Br\u00f8tergata/Riksvei 120,Lillestr\u00f8m", "lat": 59.95797, "bikes": 12, "status": "OPEN", "update": "2015-11-02T22:22:11"}, "type": "Feature"}, {"geometry": {"coordinates": [11.04959, 59.95128], "type": "Point"}, "properties": {"lon": 11.04959, "stands": 10, "name": "THON HOTEL ARENA", "address": "Nesgata 1,2004 Lillestr\u00f8m", "lat": 59.95128, "bikes": 10, "status": "OPEN", "update": "2015-11-02T22:19:28"}, "type": "Feature"}, {"geometry": {"coordinates": [11.06191, 59.96221], "type": "Point"}, "properties": {"lon": 11.06191, "stands": 1, "name": "\u00c5R\u00c5SEN", "address": "C.J Hansensvei 3B,2007 Kjeller", "lat": 59.96221, "bikes": 19, "status": "OPEN", "update": "2015-11-02T22:15:15"}, "type": "Feature"}], "type": "FeatureCollection"}