{"type": "FeatureCollection", "features": [{"geometry": {"type": "Point", "coordinates": [11.04745, 59.95585]}, "type": "Feature", "properties": {"status": "OPEN", "stands": 0, "address": "Torvgata 8, Lillestr\u00f8m", "lat": 59.95585, "name": "TORVGATA", "bikes": 0, "update": "2015-11-07T17:00:33", "lon": 11.04745}}, {"geometry": {"type": "Point", "coordinates": [11.04428, 59.95363]}, "type": "Feature", "properties": {"status": "OPEN", "stands": 0, "address": "Jonas Liesgt. 2000 lillestr\u00f8m", "lat": 59.95363, "name": "LILLESTR\u00d8M STASJON", "bikes": 0, "update": "2015-11-07T16:53:56", "lon": 11.04428}}, {"geometry": {"type": "Point", "coordinates": [11.05029, 59.95797]}, "type": "Feature", "properties": {"status": "OPEN", "stands": 0, "address": "Br\u00f8tergata/Riksvei 120,Lillestr\u00f8m", "lat": 59.95797, "name": "STORTORGET", "bikes": 0, "update": "2015-11-07T17:02:38", "lon": 11.05029}}, {"geometry": {"type": "Point", "coordinates": [11.04959, 59.95128]}, "type": "Feature", "properties": {"status": "OPEN", "stands": 0, "address": "Nesgata 1,2004 Lillestr\u00f8m", "lat": 59.95128, "name": "THON HOTEL ARENA", "bikes": 0, "update": "2015-11-07T16:58:54", "lon": 11.04959}}, {"geometry": {"type": "Point", "coordinates": [11.06191, 59.96221]}, "type": "Feature", "properties": {"status": "OPEN", "stands": 0, "address": "C.J Hansensvei 3B,2007 Kjeller", "lat": 59.96221, "name": "\u00c5R\u00c5SEN", "bikes": 0, "update": "2015-11-07T16:59:06", "lon": 11.06191}}]}