{"type": "FeatureCollection", "features": [{"geometry": {"type": "Point", "coordinates": [13.192236, 55.710366]}, "type": "Feature", "properties": {"status": "OPEN", "stands": 4, "address": "", "lat": 55.710366, "name": "ALLHELGONAKYRKAN", "bikes": 17, "update": "2015-11-07T16:57:57", "lon": 13.192236}}, {"geometry": {"type": "Point", "coordinates": [13.1967929005623, 55.7128579364781]}, "type": "Feature", "properties": {"status": "OPEN", "stands": 10, "address": "", "lat": 55.7128579364781, "name": "UNIVERSITETSSJUKHUSET", "bikes": 20, "update": "2015-11-07T17:02:08", "lon": 13.1967929005623}}, {"geometry": {"type": "Point", "coordinates": [13.196025788784, 55.7019107380952]}, "type": "Feature", "properties": {"status": "OPEN", "stands": 13, "address": "", "lat": 55.7019107380952, "name": "M\u00c5RTENSTORGET", "bikes": 17, "update": "2015-11-07T17:03:07", "lon": 13.196025788784}}, {"geometry": {"type": "Point", "coordinates": [13.1876116991043, 55.7042412794077]}, "type": "Feature", "properties": {"status": "OPEN", "stands": 22, "address": "", "lat": 55.7042412794077, "name": "BANTORGET", "bikes": 3, "update": "2015-11-07T17:00:04", "lon": 13.1876116991043}}, {"geometry": {"type": "Point", "coordinates": [13.208109, 55.712382]}, "type": "Feature", "properties": {"status": "OPEN", "stands": 2, "address": "", "lat": 55.712382, "name": "LTH", "bikes": 18, "update": "2015-11-07T16:57:52", "lon": 13.208109}}, {"geometry": {"type": "Point", "coordinates": [13.1956234574318, 55.7008134312229]}, "type": "Feature", "properties": {"status": "OPEN", "stands": 16, "address": "", "lat": 55.7008134312229, "name": "GALTEN", "bikes": 4, "update": "2015-11-07T16:55:33", "lon": 13.1956234574318}}, {"geometry": {"type": "Point", "coordinates": [13.1856563687325, 55.7013726686025]}, "type": "Feature", "properties": {"status": "OPEN", "stands": 14, "address": "", "lat": 55.7013726686025, "name": "STADSPARKEN NORR", "bikes": 12, "update": "2015-11-07T16:59:56", "lon": 13.1856563687325}}, {"geometry": {"type": "Point", "coordinates": [13.20595, 55.709632]}, "type": "Feature", "properties": {"status": "OPEN", "stands": 14, "address": "", "lat": 55.709632, "name": "PROFESSORSGATAN", "bikes": 8, "update": "2015-11-07T16:56:47", "lon": 13.20595}}, {"geometry": {"type": "Point", "coordinates": [13.1963047385216, 55.7080949824667]}, "type": "Feature", "properties": {"status": "OPEN", "stands": 10, "address": "", "lat": 55.7080949824667, "name": "UNIVERSITETSBIBLIOTEKET", "bikes": 11, "update": "2015-11-07T17:01:40", "lon": 13.1963047385216}}, {"geometry": {"type": "Point", "coordinates": [13.2011756300926, 55.7134230454044]}, "type": "Feature", "properties": {"status": "OPEN", "stands": 5, "address": "", "lat": 55.7134230454044, "name": "BMC", "bikes": 18, "update": "2015-11-07T16:57:56", "lon": 13.2011756300926}}, {"geometry": {"type": "Point", "coordinates": [13.1933650374413, 55.7029777865809]}, "type": "Feature", "properties": {"status": "OPEN", "stands": 15, "address": "", "lat": 55.7029777865809, "name": "STORTORGET", "bikes": 6, "update": "2015-11-07T17:01:51", "lon": 13.1933650374413}}, {"geometry": {"type": "Point", "coordinates": [13.201240003109, 55.7059732259213]}, "type": "Feature", "properties": {"status": "OPEN", "stands": 12, "address": "", "lat": 55.7059732259213, "name": "BOTANISKA TR\u00c4DG\u00c5RDEN", "bikes": 7, "update": "2015-11-07T17:01:44", "lon": 13.201240003109}}, {"geometry": {"type": "Point", "coordinates": [13.214571, 55.709257]}, "type": "Feature", "properties": {"status": "OPEN", "stands": 16, "address": "", "lat": 55.709257, "name": "SPARTA", "bikes": 7, "update": "2015-11-07T16:56:45", "lon": 13.214571}}, {"geometry": {"type": "Point", "coordinates": [13.1874185800552, 55.7065202995297]}, "type": "Feature", "properties": {"status": "OPEN", "stands": 20, "address": "", "lat": 55.7065202995297, "name": "LUNDS CENTRAL", "bikes": 11, "update": "2015-11-07T16:58:46", "lon": 13.1874185800552}}, {"geometry": {"type": "Point", "coordinates": [13.213704, 55.712961]}, "type": "Feature", "properties": {"status": "OPEN", "stands": 4, "address": "", "lat": 55.712961, "name": "IDEON S\u00d6DER", "bikes": 16, "update": "2015-11-07T16:54:55", "lon": 13.213704}}, {"geometry": {"type": "Point", "coordinates": [13.202782, 55.710874]}, "type": "Feature", "properties": {"status": "OPEN", "stands": 12, "address": "", "lat": 55.710874, "name": "FYSIOLOGEN", "bikes": 10, "update": "2015-11-07T17:03:16", "lon": 13.202782}}, {"geometry": {"type": "Point", "coordinates": [13.214801, 55.715504]}, "type": "Feature", "properties": {"status": "OPEN", "stands": 0, "address": "", "lat": 55.715504, "name": "IDEON NORR", "bikes": 24, "update": "2015-11-07T16:53:45", "lon": 13.214801}}]}