{"features": [{"geometry": {"coordinates": [13.192236, 55.710366], "type": "Point"}, "properties": {"lon": 13.192236, "stands": 8, "name": "ALLHELGONAKYRKAN", "address": "", "lat": 55.710366, "bikes": 13, "status": "OPEN", "update": "2015-11-02T22:14:25"}, "type": "Feature"}, {"geometry": {"coordinates": [13.1967929005623, 55.7128579364781], "type": "Point"}, "properties": {"lon": 13.1967929005623, "stands": 10, "name": "UNIVERSITETSSJUKHUSET", "address": "", "lat": 55.7128579364781, "bikes": 20, "status": "OPEN", "update": "2015-11-02T22:19:51"}, "type": "Feature"}, {"geometry": {"coordinates": [13.196025788784, 55.7019107380952], "type": "Point"}, "properties": {"lon": 13.196025788784, "stands": 19, "name": "M\u00c5RTENSTORGET", "address": "", "lat": 55.7019107380952, "bikes": 11, "status": "OPEN", "update": "2015-11-02T22:13:46"}, "type": "Feature"}, {"geometry": {"coordinates": [13.1876116991043, 55.7042412794077], "type": "Point"}, "properties": {"lon": 13.1876116991043, "stands": 21, "name": "BANTORGET", "address": "", "lat": 55.7042412794077, "bikes": 4, "status": "OPEN", "update": "2015-11-02T22:20:50"}, "type": "Feature"}, {"geometry": {"coordinates": [13.208109, 55.712382], "type": "Point"}, "properties": {"lon": 13.208109, "stands": 2, "name": "LTH", "address": "", "lat": 55.712382, "bikes": 18, "status": "OPEN", "update": "2015-11-02T22:14:55"}, "type": "Feature"}, {"geometry": {"coordinates": [13.1956234574318, 55.7008134312229], "type": "Point"}, "properties": {"lon": 13.1956234574318, "stands": 18, "name": "GALTEN", "address": "", "lat": 55.7008134312229, "bikes": 2, "status": "OPEN", "update": "2015-11-02T22:14:04"}, "type": "Feature"}, {"geometry": {"coordinates": [13.1856563687325, 55.7013726686025], "type": "Point"}, "properties": {"lon": 13.1856563687325, "stands": 10, "name": "STADSPARKEN NORR", "address": "", "lat": 55.7013726686025, "bikes": 16, "status": "OPEN", "update": "2015-11-02T22:18:56"}, "type": "Feature"}, {"geometry": {"coordinates": [13.20595, 55.709632], "type": "Point"}, "properties": {"lon": 13.20595, "stands": 6, "name": "PROFESSORSGATAN", "address": "", "lat": 55.709632, "bikes": 17, "status": "OPEN", "update": "2015-11-02T22:20:05"}, "type": "Feature"}, {"geometry": {"coordinates": [13.1963047385216, 55.7080949824667], "type": "Point"}, "properties": {"lon": 13.1963047385216, "stands": 10, "name": "UNIVERSITETSBIBLIOTEKET", "address": "", "lat": 55.7080949824667, "bikes": 10, "status": "OPEN", "update": "2015-11-02T22:17:50"}, "type": "Feature"}, {"geometry": {"coordinates": [13.2011756300926, 55.7134230454044], "type": "Point"}, "properties": {"lon": 13.2011756300926, "stands": 3, "name": "BMC", "address": "", "lat": 55.7134230454044, "bikes": 20, "status": "OPEN", "update": "2015-11-02T22:17:16"}, "type": "Feature"}, {"geometry": {"coordinates": [13.1933650374413, 55.7029777865809], "type": "Point"}, "properties": {"lon": 13.1933650374413, "stands": 18, "name": "STORTORGET", "address": "", "lat": 55.7029777865809, "bikes": 3, "status": "OPEN", "update": "2015-11-02T22:19:03"}, "type": "Feature"}, {"geometry": {"coordinates": [13.201240003109, 55.7059732259213], "type": "Point"}, "properties": {"lon": 13.201240003109, "stands": 15, "name": "BOTANISKA TR\u00c4DG\u00c5RDEN", "address": "", "lat": 55.7059732259213, "bikes": 4, "status": "OPEN", "update": "2015-11-02T22:18:53"}, "type": "Feature"}, {"geometry": {"coordinates": [13.214571, 55.709257], "type": "Point"}, "properties": {"lon": 13.214571, "stands": 4, "name": "SPARTA", "address": "", "lat": 55.709257, "bikes": 20, "status": "OPEN", "update": "2015-11-02T22:21:40"}, "type": "Feature"}, {"geometry": {"coordinates": [13.1874185800552, 55.7065202995297], "type": "Point"}, "properties": {"lon": 13.1874185800552, "stands": 19, "name": "LUNDS CENTRAL", "address": "", "lat": 55.7065202995297, "bikes": 12, "status": "OPEN", "update": "2015-11-02T22:15:43"}, "type": "Feature"}, {"geometry": {"coordinates": [13.213704, 55.712961], "type": "Point"}, "properties": {"lon": 13.213704, "stands": 3, "name": "IDEON S\u00d6DER", "address": "", "lat": 55.712961, "bikes": 17, "status": "OPEN", "update": "2015-11-02T22:17:31"}, "type": "Feature"}, {"geometry": {"coordinates": [13.202782, 55.710874], "type": "Point"}, "properties": {"lon": 13.202782, "stands": 8, "name": "FYSIOLOGEN", "address": "", "lat": 55.710874, "bikes": 14, "status": "OPEN", "update": "2015-11-02T22:19:13"}, "type": "Feature"}, {"geometry": {"coordinates": [13.214801, 55.715504], "type": "Point"}, "properties": {"lon": 13.214801, "stands": 9, "name": "IDEON NORR", "address": "", "lat": 55.715504, "bikes": 15, "status": "OPEN", "update": "2015-11-02T22:18:02"}, "type": "Feature"}], "type": "FeatureCollection"}