{"features": [{"geometry": {"coordinates": [6.1704, 49.632], "type": "Point"}, "properties": {"lon": 6.1704, "stands": 4, "name": "BRICHERHAFF", "address": "BRICHERHAFF - AVENUE JF KENNEDY / RUE ALPHONSE WEICKER", "lat": 49.632, "bikes": 16, "status": "OPEN", "update": "2015-11-02T22:21:25"}, "type": "Feature"}, {"geometry": {"coordinates": [6.1388, 49.6201], "type": "Point"}, "properties": {"lon": 6.1388, "stands": 11, "name": "BVD K. ADENAUER", "address": "BVD K . ADENAUER - BOULEVARD KONRAD ADENAUER ( DEVANT BEI )", "lat": 49.6201, "bikes": 4, "status": "OPEN", "update": "2015-11-02T22:18:00"}, "type": "Feature"}, {"geometry": {"coordinates": [6.126, 49.6173], "type": "Point"}, "properties": {"lon": 6.126, "stands": 15, "name": "ROBERT SCHUMAN", "address": "ROBERT SCHUMAN - SQUARE SCHUMAN", "lat": 49.6173, "bikes": 10, "status": "OPEN", "update": "2015-11-02T22:18:05"}, "type": "Feature"}, {"geometry": {"coordinates": [6.1323, 49.5984], "type": "Point"}, "properties": {"lon": 6.1323, "stands": 4, "name": "MERCIER", "address": "MERCIER - RUE DU COMMERCE / PARKING", "lat": 49.5984, "bikes": 11, "status": "OPEN", "update": "2015-11-02T22:17:58"}, "type": "Feature"}, {"geometry": {"coordinates": [6.17044, 49.63706], "type": "Point"}, "properties": {"lon": 6.17044, "stands": 6, "name": "FOIRE", "address": "bvd Pierre Frieden/circuit de la foire", "lat": 49.63706, "bikes": 14, "status": "OPEN", "update": "2015-11-02T22:19:02"}, "type": "Feature"}, {"geometry": {"coordinates": [6.1377, 49.5981], "type": "Point"}, "properties": {"lon": 6.1377, "stands": 8, "name": "LEON XIII", "address": "LEON XIII-RUE DE BONNEVOIE ( DEVANT N\u00b0 103 )", "lat": 49.5981, "bikes": 6, "status": "OPEN", "update": "2015-11-02T22:19:46"}, "type": "Feature"}, {"geometry": {"coordinates": [6.1273, 49.607], "type": "Point"}, "properties": {"lon": 6.1273, "stands": 11, "name": "METZER PLAZ", "address": "METZER PLAZ - PLACE DE METZ", "lat": 49.607, "bikes": 4, "status": "OPEN", "update": "2015-11-02T22:20:23"}, "type": "Feature"}, {"geometry": {"coordinates": [6.1172, 49.59], "type": "Point"}, "properties": {"lon": 6.1172, "stands": 11, "name": "LUDWIG VAN BEETHOVEN", "address": "LUDWIG VAN BEETHOVEN - RUE LUDWIG VAN BEETHOVEN ( DEVANT N\u00b0 45 )", "lat": 49.59, "bikes": 8, "status": "OPEN", "update": "2015-11-02T22:19:53"}, "type": "Feature"}, {"geometry": {"coordinates": [6.133, 49.6046], "type": "Point"}, "properties": {"lon": 6.133, "stands": 6, "name": "AAL BRECK", "address": "AAL BRECK - VIADUC / BOULEVARD DE LA PETRUSSE", "lat": 49.6046, "bikes": 9, "status": "OPEN", "update": "2015-11-02T22:19:11"}, "type": "Feature"}, {"geometry": {"coordinates": [6.1072, 49.6122], "type": "Point"}, "properties": {"lon": 6.1072, "stands": 6, "name": "LEOPOLD GOEBEL", "address": "LEOPOLD GOEBEL - ALLEE LEOPOLD GOEBEL ( DEVANT N\u00b0 109 )", "lat": 49.6122, "bikes": 14, "status": "OPEN", "update": "2015-11-02T22:19:46"}, "type": "Feature"}, {"geometry": {"coordinates": [6.119, 49.6113], "type": "Point"}, "properties": {"lon": 6.119, "stands": 10, "name": "WINSTON CHURCHILL", "address": "WINSTON CHURCHILL - PLACE CHURCHILL", "lat": 49.6113, "bikes": 5, "status": "OPEN", "update": "2015-11-02T22:18:37"}, "type": "Feature"}, {"geometry": {"coordinates": [6.1574, 49.6294], "type": "Point"}, "properties": {"lon": 6.1574, "stands": 4, "name": "REIMERWEE", "address": "REIMERWEE - BOULEVARD K ADENAUER / RUE K KALERGI", "lat": 49.6294, "bikes": 11, "status": "OPEN", "update": "2015-11-02T22:18:44"}, "type": "Feature"}, {"geometry": {"coordinates": [6.0977, 49.6126], "type": "Point"}, "properties": {"lon": 6.0977, "stands": 11, "name": "AUBEPINES", "address": "AUBEPINES - VAL SAINTE CROIX / RUE DES AUBEPINES", "lat": 49.6126, "bikes": 9, "status": "OPEN", "update": "2015-11-02T22:22:28"}, "type": "Feature"}, {"geometry": {"coordinates": [6.14397, 49.57337], "type": "Point"}, "properties": {"lon": 6.14397, "stands": 10, "name": "UM SCHLASS", "address": "Ceinture um schlass", "lat": 49.57337, "bikes": 10, "status": "OPEN", "update": "2015-11-02T22:22:05"}, "type": "Feature"}, {"geometry": {"coordinates": [6.1315, 49.6104], "type": "Point"}, "properties": {"lon": 6.1315, "stands": 5, "name": "KNUEDLER", "address": "KNUEDLER - PLACE GUILLAUME", "lat": 49.6104, "bikes": 20, "status": "OPEN", "update": "2015-11-02T22:19:51"}, "type": "Feature"}, {"geometry": {"coordinates": [6.1349, 49.6077], "type": "Point"}, "properties": {"lon": 6.1349, "stands": 11, "name": "HELLEG GEESCHT", "address": "HELLEG GEESCHT - PLATEAU SAINT ESPRIT", "lat": 49.6077, "bikes": 8, "status": "OPEN", "update": "2015-11-02T22:20:15"}, "type": "Feature"}, {"geometry": {"coordinates": [6.1444, 49.6199], "type": "Point"}, "properties": {"lon": 6.1444, "stands": 15, "name": "PHILHARMONIE", "address": "PHILHARMONIE - AVENUE JF KENNEDY / PLACE DE L'EUROPE", "lat": 49.6199, "bikes": 3, "status": "OPEN", "update": "2015-11-02T22:22:22"}, "type": "Feature"}, {"geometry": {"coordinates": [6.08097, 49.61086], "type": "Point"}, "properties": {"lon": 6.08097, "stands": 10, "name": "AN DER BOURMICHT", "address": "Zone industrielle bourmicht/rue des m\u00e9rovingiens", "lat": 49.61086, "bikes": 10, "status": "OPEN", "update": "2015-11-02T22:21:46"}, "type": "Feature"}, {"geometry": {"coordinates": [6.1258, 49.6134], "type": "Point"}, "properties": {"lon": 6.1258, "stands": 17, "name": "AMELIE", "address": "AMELIE - BOULEVARD ROYAL / AVENUE AMELIE", "lat": 49.6134, "bikes": 3, "status": "OPEN", "update": "2015-11-02T22:18:04"}, "type": "Feature"}, {"geometry": {"coordinates": [6.1613, 49.6264], "type": "Point"}, "properties": {"lon": 6.1613, "stands": 9, "name": "CAMPUS KIRCHBERG", "address": "CAMPUS KIRCHBERG - BOULEVARD JF KENNEDY / RUE K KALERGI", "lat": 49.6264, "bikes": 6, "status": "OPEN", "update": "2015-11-02T22:18:13"}, "type": "Feature"}, {"geometry": {"coordinates": [6.1057, 49.5911], "type": "Point"}, "properties": {"lon": 6.1057, "stands": 19, "name": "FISCHERHAFF", "address": "Rue de cessange 177", "lat": 49.5911, "bikes": 6, "status": "OPEN", "update": "2015-11-02T22:20:59"}, "type": "Feature"}, {"geometry": {"coordinates": [6.1741, 49.6318], "type": "Point"}, "properties": {"lon": 6.1741, "stands": 14, "name": "BGL BNP PARIBAS KIRCHBERG", "address": "BGL BNP PARIBAS KIRCHBERG - RUE EDOUARD STEICHEN ( FACE N\u00b0 10 )", "lat": 49.6318, "bikes": 6, "status": "OPEN", "update": "2015-11-02T22:18:15"}, "type": "Feature"}, {"geometry": {"coordinates": [6.1311, 49.6127], "type": "Point"}, "properties": {"lon": 6.1311, "stands": 9, "name": "THEATER PLAZ", "address": "THEATER PLAZ - PLACE DU THEATRE ( FACE N\u00b01 )", "lat": 49.6127, "bikes": 11, "status": "OPEN", "update": "2015-11-02T22:18:05"}, "type": "Feature"}, {"geometry": {"coordinates": [6.13736, 49.60164], "type": "Point"}, "properties": {"lon": 6.13736, "stands": 5, "name": "GAULOIS", "address": "Rue des gaulois 11", "lat": 49.60164, "bikes": 10, "status": "OPEN", "update": "2015-11-02T22:19:50"}, "type": "Feature"}, {"geometry": {"coordinates": [6.1565, 49.6216], "type": "Point"}, "properties": {"lon": 6.1565, "stands": 13, "name": "MUGUETS", "address": "MUGUETS - RUE DES MUGUETS ( DEVANT N\u00b0 57 )", "lat": 49.6216, "bikes": 7, "status": "OPEN", "update": "2015-11-02T22:20:04"}, "type": "Feature"}, {"geometry": {"coordinates": [6.1225, 49.5998], "type": "Point"}, "properties": {"lon": 6.1225, "stands": 15, "name": "MERKELS PLAZ", "address": "MERKELS PLAZ - RUE JEAN BAPTISTE MERKELS / PLACE MERKELS", "lat": 49.5998, "bikes": 5, "status": "OPEN", "update": "2015-11-02T22:19:22"}, "type": "Feature"}, {"geometry": {"coordinates": [6.129, 49.6096], "type": "Point"}, "properties": {"lon": 6.129, "stands": 20, "name": "GELLE FRA", "address": "GELLE FRA - BOULEVARD ROOSEVELT / PLACE DE LA CONSTITUTION", "lat": 49.6096, "bikes": 5, "status": "OPEN", "update": "2015-11-02T22:18:44"}, "type": "Feature"}, {"geometry": {"coordinates": [6.1671, 49.6343], "type": "Point"}, "properties": {"lon": 6.1671, "stands": 10, "name": "KIEM", "address": "KIEM - CIRCUIT DE LA FOIRE / RUE ALPHONSE WEICKER", "lat": 49.6343, "bikes": 5, "status": "OPEN", "update": "2015-11-02T22:20:30"}, "type": "Feature"}, {"geometry": {"coordinates": [6.14202, 49.58421], "type": "Point"}, "properties": {"lon": 6.14202, "stands": 12, "name": "BEI DER SCHOUL", "address": "Rue ferdinand kuhn", "lat": 49.58421, "bikes": 8, "status": "OPEN", "update": "2015-11-02T22:19:11"}, "type": "Feature"}, {"geometry": {"coordinates": [6.1296, 49.6049], "type": "Point"}, "properties": {"lon": 6.1296, "stands": 4, "name": "ROUSEGAERTCHEN", "address": "ROUSEGAERTCHEN - PLACE DES MARTYRS", "lat": 49.6049, "bikes": 11, "status": "OPEN", "update": "2015-11-02T22:17:31"}, "type": "Feature"}, {"geometry": {"coordinates": [6.1252, 49.5912], "type": "Point"}, "properties": {"lon": 6.1252, "stands": 8, "name": "BEI DER AUER", "address": "BEI DER AUER - RUE DE GASPERICH ( DEVANT N\u00b0 20 )", "lat": 49.5912, "bikes": 12, "status": "OPEN", "update": "2015-11-02T22:07:22"}, "type": "Feature"}, {"geometry": {"coordinates": [6.1062, 49.6098], "type": "Point"}, "properties": {"lon": 6.1062, "stands": 4, "name": "GASTON DIDERICH", "address": "GASTON DIDERICH - AVENUE GASTON DIDERICH", "lat": 49.6098, "bikes": 11, "status": "OPEN", "update": "2015-11-02T22:19:36"}, "type": "Feature"}, {"geometry": {"coordinates": [6.10826, 49.60001], "type": "Point"}, "properties": {"lon": 6.10826, "stands": 18, "name": "BOUILLON", "address": "Rue de Bouillon / parking", "lat": 49.60001, "bikes": 7, "status": "OPEN", "update": "2015-11-02T22:17:47"}, "type": "Feature"}, {"geometry": {"coordinates": [6.1193, 49.6094], "type": "Point"}, "properties": {"lon": 6.1193, "stands": 12, "name": "MONTEREY", "address": "MONTEREY - AVENUE DE MONTEREY ( FACE N\u00b0 49 )", "lat": 49.6094, "bikes": 2, "status": "OPEN", "update": "2015-11-02T22:18:49"}, "type": "Feature"}, {"geometry": {"coordinates": [6.1606, 49.6237], "type": "Point"}, "properties": {"lon": 6.1606, "stands": 17, "name": "MARGUERITES", "address": "MARGUERITES - RUE DES MARGUERITES ( FACE N\u00b0 105 A )", "lat": 49.6237, "bikes": 3, "status": "OPEN", "update": "2015-11-02T22:19:08"}, "type": "Feature"}, {"geometry": {"coordinates": [6.131, 49.6037], "type": "Point"}, "properties": {"lon": 6.131, "stands": 8, "name": "PARAISER PLAZ", "address": "PARAISER PLAZ - AVENUE DE LA LIBERTE / PLACE DE PARIS", "lat": 49.6037, "bikes": 12, "status": "OPEN", "update": "2015-11-02T22:20:44"}, "type": "Feature"}, {"geometry": {"coordinates": [6.1404, 49.5967], "type": "Point"}, "properties": {"lon": 6.1404, "stands": 9, "name": "RUE J.B. GELLE", "address": "RUE J.B. GELLE - RUE JEAN- BAPTISTE GELLE ( DEVANT N\u00b0 6 )", "lat": 49.5967, "bikes": 6, "status": "OPEN", "update": "2015-11-02T22:18:35"}, "type": "Feature"}, {"geometry": {"coordinates": [6.1122, 49.608], "type": "Point"}, "properties": {"lon": 6.1122, "stands": 1, "name": "MERL PARC", "address": "MERL PARC - RUE DU 10 SEPTEMBRE ( DEVANT N\u00b0 108 )", "lat": 49.608, "bikes": 14, "status": "OPEN", "update": "2015-11-02T22:21:00"}, "type": "Feature"}, {"geometry": {"coordinates": [6.1336, 49.6002], "type": "Point"}, "properties": {"lon": 6.1336, "stands": 1, "name": "GARE CENTRALE", "address": "GARE CENTRALE-PLACE DE LA GARE ( SUR QUAI N\u00b0 1 )", "lat": 49.6002, "bikes": 34, "status": "OPEN", "update": "2015-11-02T22:17:51"}, "type": "Feature"}, {"geometry": {"coordinates": [6.1365, 49.6028], "type": "Point"}, "properties": {"lon": 6.1365, "stands": 6, "name": "ROCADE", "address": "ROCADE-RUE DU LABORATOIRE ( DEVANT VDL )", "lat": 49.6028, "bikes": 14, "status": "OPEN", "update": "2015-11-02T22:17:30"}, "type": "Feature"}, {"geometry": {"coordinates": [6.11465, 49.58043], "type": "Point"}, "properties": {"lon": 6.11465, "stands": 9, "name": "SCHAARFEN ECK", "address": "Rue Emile Bian", "lat": 49.58043, "bikes": 11, "status": "OPEN", "update": "2015-11-02T22:21:16"}, "type": "Feature"}, {"geometry": {"coordinates": [6.1267, 49.6114], "type": "Point"}, "properties": {"lon": 6.1267, "stands": 5, "name": "ALDRINGEN", "address": "ALDRINGEN - PLACE HAMILIUS", "lat": 49.6114, "bikes": 13, "status": "OPEN", "update": "2015-11-02T22:19:26"}, "type": "Feature"}, {"geometry": {"coordinates": [6.0984, 49.6162], "type": "Point"}, "properties": {"lon": 6.0984, "stands": 11, "name": "ARELER STROOSS", "address": "ARELER STROOSS - RUE DES AUBEPINES ( FACE N\u00b0 187 )", "lat": 49.6162, "bikes": 9, "status": "OPEN", "update": "2015-11-02T22:21:24"}, "type": "Feature"}, {"geometry": {"coordinates": [6.1059, 49.6062], "type": "Point"}, "properties": {"lon": 6.1059, "stands": 1, "name": "PLACE DE FRANCE", "address": "PLACE DE FRANCE - PLACE DE FRANCE", "lat": 49.6062, "bikes": 19, "status": "OPEN", "update": "2015-11-02T22:21:27"}, "type": "Feature"}, {"geometry": {"coordinates": [6.117, 49.6133], "type": "Point"}, "properties": {"lon": 6.117, "stands": 17, "name": "KRAIZGRENNCHEN", "address": "KRAIZGRENNCHEN - SQUARE DE NEW- YORK", "lat": 49.6133, "bikes": 3, "status": "OPEN", "update": "2015-11-02T22:19:38"}, "type": "Feature"}, {"geometry": {"coordinates": [6.1119, 49.6042], "type": "Point"}, "properties": {"lon": 6.1119, "stands": 16, "name": "KOLLEISCH", "address": "KOLLEISCH - RUE DE BRAGANCE", "lat": 49.6042, "bikes": 9, "status": "OPEN", "update": "2015-11-02T22:21:49"}, "type": "Feature"}, {"geometry": {"coordinates": [6.16843, 49.6301], "type": "Point"}, "properties": {"lon": 6.16843, "stands": 11, "name": "LABOURS", "address": "Rue des labours/Bld J.F.Kennedy", "lat": 49.6301, "bikes": 9, "status": "OPEN", "update": "2015-11-02T22:18:59"}, "type": "Feature"}, {"geometry": {"coordinates": [6.1227, 49.6202], "type": "Point"}, "properties": {"lon": 6.1227, "stands": 7, "name": "PLACE LAURENT", "address": "PLACE LAURENT - PLACE AUGUSTE LAURENT", "lat": 49.6202, "bikes": 8, "status": "OPEN", "update": "2015-11-02T22:22:08"}, "type": "Feature"}, {"geometry": {"coordinates": [6.1242, 49.6126], "type": "Point"}, "properties": {"lon": 6.1242, "stands": 13, "name": "CHARLY'S GARE", "address": "CHARLY'S GARE - BOULEVARD PRINCE HENRI", "lat": 49.6126, "bikes": 7, "status": "OPEN", "update": "2015-11-02T22:19:29"}, "type": "Feature"}, {"geometry": {"coordinates": [6.1516, 49.6219], "type": "Point"}, "properties": {"lon": 6.1516, "stands": 2, "name": "COQUE", "address": "COQUE - AVENUE JF KENNEDY / RUE ERASME", "lat": 49.6219, "bikes": 12, "status": "OPEN", "update": "2015-11-02T22:21:48"}, "type": "Feature"}, {"geometry": {"coordinates": [6.11581, 49.60136], "type": "Point"}, "properties": {"lon": 6.11581, "stands": 15, "name": "SCHLUECHTHAUS", "address": "Rue du l'abattoir", "lat": 49.60136, "bikes": 5, "status": "OPEN", "update": "2015-11-02T22:17:57"}, "type": "Feature"}, {"geometry": {"coordinates": [6.1178, 49.5983], "type": "Point"}, "properties": {"lon": 6.1178, "stands": 10, "name": "HOLLERECHER PLAZ", "address": "HOLLERECHER PLAZ - PLACE SAINT PIERRE ET \u00a8PAUL", "lat": 49.5983, "bikes": 10, "status": "OPEN", "update": "2015-11-02T22:22:24"}, "type": "Feature"}, {"geometry": {"coordinates": [6.1416, 49.5911], "type": "Point"}, "properties": {"lon": 6.1416, "stands": 13, "name": "LYCEE TECHNIQUE  DE BONNEVOIE", "address": "LYCEE TECHNIQUE DE BONNEVOIE - RUE DU CIMETIERE ( DEVANT N\u00b0 110 )", "lat": 49.5911, "bikes": 7, "status": "OPEN", "update": "2015-11-02T22:19:50"}, "type": "Feature"}, {"geometry": {"coordinates": [6.09322, 49.60289], "type": "Point"}, "properties": {"lon": 6.09322, "stands": 10, "name": "ST HUBERT", "address": "Rue de Merl 147 / rue st Hubert", "lat": 49.60289, "bikes": 9, "status": "OPEN", "update": "2015-11-02T22:19:50"}, "type": "Feature"}, {"geometry": {"coordinates": [6.08276, 49.61769], "type": "Point"}, "properties": {"lon": 6.08276, "stands": 5, "name": "UM REIMERWEE", "address": "Rue du kiem", "lat": 49.61769, "bikes": 15, "status": "OPEN", "update": "2015-11-02T22:18:42"}, "type": "Feature"}, {"geometry": {"coordinates": [6.1118, 49.6219], "type": "Point"}, "properties": {"lon": 6.1118, "stands": 7, "name": "CAMPUS LAMPERTSBIERG", "address": "CAMPUS LAMPERTSBIERG - RUE DE LA FAIENCERIE ( DEVANT N\u00b0 151 )", "lat": 49.6219, "bikes": 11, "status": "OPEN", "update": "2015-11-02T22:19:36"}, "type": "Feature"}, {"geometry": {"coordinates": [6.1281, 49.6008], "type": "Point"}, "properties": {"lon": 6.1281, "stands": 10, "name": "STROOSSBUERGER PLAZ", "address": "STROOSSBUERGER PLAZ - PLACE DE STRASBOURG ( FACE N\u00b0 41 )", "lat": 49.6008, "bikes": 5, "status": "OPEN", "update": "2015-11-02T22:21:52"}, "type": "Feature"}, {"geometry": {"coordinates": [6.13624, 49.58237], "type": "Point"}, "properties": {"lon": 6.13624, "stands": 9, "name": "BEIM TENNIS", "address": "Rue des Scillas", "lat": 49.58237, "bikes": 11, "status": "OPEN", "update": "2015-11-02T22:20:34"}, "type": "Feature"}, {"geometry": {"coordinates": [6.1211, 49.6147], "type": "Point"}, "properties": {"lon": 6.1211, "stands": 8, "name": "GLACIS KAPELL", "address": "GLACIS KAPELL - BOULEVARD DE LA FOIRE ( DEVANT N\u00b0 21 )", "lat": 49.6147, "bikes": 7, "status": "OPEN", "update": "2015-11-02T22:19:47"}, "type": "Feature"}, {"geometry": {"coordinates": [6.1498, 49.624], "type": "Point"}, "properties": {"lon": 6.1498, "stands": 8, "name": "PISCINE OLYMPIQUE", "address": "PISCINE OLYMPIQUE - RUE LEON HENGEN", "lat": 49.624, "bikes": 7, "status": "OPEN", "update": "2015-11-02T22:20:54"}, "type": "Feature"}, {"geometry": {"coordinates": [6.1482, 49.6255], "type": "Point"}, "properties": {"lon": 6.1482, "stands": 8, "name": "JEAN MONNET", "address": "JEAN MONNET - BOULEVARD KONRAD ADENAUER / RUE ERASME", "lat": 49.6255, "bikes": 7, "status": "OPEN", "update": "2015-11-02T22:21:01"}, "type": "Feature"}, {"geometry": {"coordinates": [6.1188, 49.6238], "type": "Point"}, "properties": {"lon": 6.1188, "stands": 3, "name": "SQUARE ANDRE", "address": "SQUARE ANDRE - SQUARE EDOUARD ANDRE ( DEVANT N\u00b0 1 )", "lat": 49.6238, "bikes": 12, "status": "OPEN", "update": "2015-11-02T22:20:07"}, "type": "Feature"}, {"geometry": {"coordinates": [6.1, 49.6055], "type": "Point"}, "properties": {"lon": 6.1, "stands": 6, "name": "LONKECHER STROOSS", "address": "LONKECHER STROOSS - ROUTE DE LONGWY ( DEVANT N\u00b0 241 )", "lat": 49.6055, "bikes": 9, "status": "OPEN", "update": "2015-11-02T22:22:18"}, "type": "Feature"}, {"geometry": {"coordinates": [6.16458, 49.63713], "type": "Point"}, "properties": {"lon": 6.16458, "stands": 13, "name": "FRIEDEN", "address": "Bvd Pierre frieden", "lat": 49.63713, "bikes": 6, "status": "OPEN", "update": "2015-11-02T22:18:52"}, "type": "Feature"}, {"geometry": {"coordinates": [6.1252, 49.5939], "type": "Point"}, "properties": {"lon": 6.1252, "stands": 9, "name": "SAUERWISS", "address": "SAUERWISS - RUE ABBE FRANCOIS LASCOMBE ( DEVANT N\u00b0 54 )", "lat": 49.5939, "bikes": 11, "status": "OPEN", "update": "2015-11-02T22:17:40"}, "type": "Feature"}, {"geometry": {"coordinates": [6.07275, 49.61489], "type": "Point"}, "properties": {"lon": 6.07275, "stands": 8, "name": "LES THERMES", "address": "Rue du cimetiere", "lat": 49.61489, "bikes": 12, "status": "OPEN", "update": "2015-11-02T22:21:35"}, "type": "Feature"}, {"geometry": {"coordinates": [6.13727, 49.57756], "type": "Point"}, "properties": {"lon": 6.13727, "stands": 9, "name": "PETERNELCHEN", "address": "Rue des Bruyeres", "lat": 49.57756, "bikes": 10, "status": "OPEN", "update": "2015-11-02T22:20:44"}, "type": "Feature"}, {"geometry": {"coordinates": [6.1156, 49.5834], "type": "Point"}, "properties": {"lon": 6.1156, "stands": 8, "name": "CLOCHE D' OR", "address": "CLOCHE D'OR - RUE JEAN PIRET ( DEVANT N\u00b0 3 )", "lat": 49.5834, "bikes": 12, "status": "OPEN", "update": "2015-11-02T22:18:07"}, "type": "Feature"}, {"geometry": {"coordinates": [6.07227, 49.61909], "type": "Point"}, "properties": {"lon": 6.07227, "stands": 10, "name": "GEMENG STROOSSEN", "address": "Rue des romains", "lat": 49.61909, "bikes": 10, "status": "OPEN", "update": "2015-11-02T22:19:15"}, "type": "Feature"}, {"geometry": {"coordinates": [6.1199, 49.6059], "type": "Point"}, "properties": {"lon": 6.1199, "stands": 12, "name": "CONVICT", "address": "CONVICT - PLACE DU FOYER", "lat": 49.6059, "bikes": 5, "status": "OPEN", "update": "2015-11-02T22:20:16"}, "type": "Feature"}, {"geometry": {"coordinates": [6.10842, 49.61925], "type": "Point"}, "properties": {"lon": 6.10842, "stands": 6, "name": "BOCH", "address": "Rue J-F Boch", "lat": 49.61925, "bikes": 8, "status": "OPEN", "update": "2015-11-02T22:17:50"}, "type": "Feature"}, {"geometry": {"coordinates": [6.14277, 49.59459], "type": "Point"}, "properties": {"lon": 6.14277, "stands": 13, "name": "GRENIER", "address": "Rue Edouard grenier", "lat": 49.59459, "bikes": 7, "status": "OPEN", "update": "2015-11-02T22:21:41"}, "type": "Feature"}], "type": "FeatureCollection"}