{"type": "FeatureCollection", "features": [{"geometry": {"type": "Point", "coordinates": [7.331582, 47.742397]}, "type": "Feature", "properties": {"status": "OPEN", "stands": 1, "address": "Rue de Zillisheim angle Rue St Sauveur", "lat": 47.742397, "name": "22 - ST SAUVEUR", "bikes": 0, "update": "2015-11-07T16:59:12", "lon": 7.331582}}, {"geometry": {"type": "Point", "coordinates": [7.318487367942304, 47.745286038301984]}, "type": "Feature", "properties": {"status": "OPEN", "stands": 5, "address": "RUE DAGUERRE MULHOUSE", "lat": 47.745286038301984, "name": "38 - DAGUERRE", "bikes": 8, "update": "2015-11-07T16:59:24", "lon": 7.318487367942304}}, {"geometry": {"type": "Point", "coordinates": [7.327810319448964, 47.74496772031617]}, "type": "Feature", "properties": {"status": "OPEN", "stands": 14, "address": "BOULEVARD CHARLES STOESSEL", "lat": 47.74496772031617, "name": "09 - NESSEL", "bikes": 1, "update": "2015-11-07T17:02:12", "lon": 7.327810319448964}}, {"geometry": {"type": "Point", "coordinates": [7.343595230468297, 47.74685817286068]}, "type": "Feature", "properties": {"status": "OPEN", "stands": 2, "address": "Porte de B\u00e2le / Face Av.du M.DE.L.TASSIGNY", "lat": 47.74685817286068, "name": "03 - PORTE DE BALE", "bikes": 8, "update": "2015-11-07T16:44:14", "lon": 7.343595230468297}}, {"geometry": {"type": "Point", "coordinates": [7.341412567581239, 47.745960719214565]}, "type": "Feature", "properties": {"status": "OPEN", "stands": 13, "address": "3 Place de la R\u00e9publique", "lat": 47.745960719214565, "name": "02 - REPUBLIQUE", "bikes": 1, "update": "2015-11-07T16:55:56", "lon": 7.341412567581239}}, {"geometry": {"type": "Point", "coordinates": [7.347971910269036, 47.756393857099866]}, "type": "Feature", "properties": {"status": "OPEN", "stands": 15, "address": "Face 113 Avenue Robert Schuman angle Rue lefebvre", "lat": 47.756393857099866, "name": "28 - SCHUMAN LEFEB", "bikes": 0, "update": "2015-11-07T16:53:59", "lon": 7.347971910269036}}, {"geometry": {"type": "Point", "coordinates": [7.342944, 47.75243]}, "type": "Feature", "properties": {"status": "OPEN", "stands": 17, "address": "Av Robert Schuman angle Rue de Stalingrad", "lat": 47.75243, "name": "14 - SCHUMANN", "bikes": 1, "update": "2015-11-07T16:56:46", "lon": 7.342944}}, {"geometry": {"type": "Point", "coordinates": [7.338923, 47.747038]}, "type": "Feature", "properties": {"status": "OPEN", "stands": 11, "address": "Rue de la Lanterne contre Temple St ETIENNE", "lat": 47.747038, "name": "17 - PLACE DE LA REUNION", "bikes": 17, "update": "2015-11-07T16:58:17", "lon": 7.338923}}, {"geometry": {"type": "Point", "coordinates": [7.348462912266421, 47.753533915217425]}, "type": "Feature", "properties": {"status": "OPEN", "stands": 7, "address": "Allee Nathan Katz Parvis de la Filature", "lat": 47.753533915217425, "name": "20 - FILATURE", "bikes": 5, "update": "2015-11-07T16:59:10", "lon": 7.348462912266421}}, {"geometry": {"type": "Point", "coordinates": [7.338714139133008, 47.75006905130475]}, "type": "Feature", "properties": {"status": "OPEN", "stands": 15, "address": "Angle av de Colmar / av du President Kennedy devant Porte Jeune", "lat": 47.75006905130475, "name": "06 - PORTE JEUNE", "bikes": 3, "update": "2015-11-07T16:54:54", "lon": 7.338714139133008}}, {"geometry": {"type": "Point", "coordinates": [7.332063268345049, 47.74699319949577]}, "type": "Feature", "properties": {"status": "OPEN", "stands": 2, "address": "Rue Gutenberg angle rue l'Arsenal", "lat": 47.74699319949577, "name": "08 - PORTE HAUTE (2)", "bikes": 13, "update": "2015-11-07T16:57:59", "lon": 7.332063268345049}}, {"geometry": {"type": "Point", "coordinates": [7.314265697019561, 47.733210486448705]}, "type": "Feature", "properties": {"status": "OPEN", "stands": 26, "address": "Rue Alfred Verner All\u00e9e Brenard Thierry-Mieg", "lat": 47.733210486448705, "name": "32- CAMPUS", "bikes": 4, "update": "2015-11-07T16:56:15", "lon": 7.314265697019561}}, {"geometry": {"type": "Point", "coordinates": [7.332262051959153, 47.75986276611346]}, "type": "Feature", "properties": {"status": "OPEN", "stands": 8, "address": "RUE DE LA MERTZAU  MULHOUSE", "lat": 47.75986276611346, "name": "36 - MUSEE DE L'AUTO", "bikes": 7, "update": "2015-11-07T17:01:46", "lon": 7.332262051959153}}, {"geometry": {"type": "Point", "coordinates": [7.311554491720422, 47.744023527710475]}, "type": "Feature", "properties": {"status": "OPEN", "stands": 7, "address": "RUE FRANCOIS MITTERAND MULHOUSE", "lat": 47.744023527710475, "name": "39 - FRAN\u00c7OIS MITERRAND", "bikes": 6, "update": "2015-11-07T17:00:30", "lon": 7.311554491720422}}, {"geometry": {"type": "Point", "coordinates": [7.343104706876782, 47.748312192104606]}, "type": "Feature", "properties": {"status": "OPEN", "stands": 1, "address": "Rue de Metz devant parking Face rue de la SOMME", "lat": 47.748312192104606, "name": "04 - PARC SALVATOR", "bikes": 11, "update": "2015-11-07T16:54:35", "lon": 7.343104706876782}}, {"geometry": {"type": "Point", "coordinates": [7.339778249113981, 47.744219560146554]}, "type": "Feature", "properties": {"status": "OPEN", "stands": 5, "address": "14 AVENUE AUGUSTE WICKY", "lat": 47.744219560146554, "name": "18 - CLEMENCEAU", "bikes": 6, "update": "2015-11-07T17:01:30", "lon": 7.339778249113981}}, {"geometry": {"type": "Point", "coordinates": [7.315494395852651, 47.74329631548472]}, "type": "Feature", "properties": {"status": "OPEN", "stands": 10, "address": "CHATEAU ZU-RHEIN MULHOUSE", "lat": 47.74329631548472, "name": "37 - TUNNEL", "bikes": 2, "update": "2015-11-07T16:55:56", "lon": 7.315494395852651}}, {"geometry": {"type": "Point", "coordinates": [7.351545874483959, 47.76040353431892]}, "type": "Feature", "properties": {"status": "OPEN", "stands": 11, "address": "Cinema Kinepolis Nouveau Bassin", "lat": 47.76040353431892, "name": "31 - KINEPOLIS", "bikes": 4, "update": "2015-11-07T16:55:28", "lon": 7.351545874483959}}, {"geometry": {"type": "Point", "coordinates": [7.335779025655298, 47.74941110084169]}, "type": "Feature", "properties": {"status": "OPEN", "stands": 5, "address": "Av du Pr\u00e9sident Kennedy angle rue Pierre et Marie Curie devant Credit Mutuel", "lat": 47.74941110084169, "name": "07 - MAIRIE", "bikes": 10, "update": "2015-11-07T16:55:00", "lon": 7.335779025655298}}, {"geometry": {"type": "Point", "coordinates": [7.337387363569732, 47.75243313452126]}, "type": "Feature", "properties": {"status": "OPEN", "stands": 14, "address": "Av de Colmar angle Rue Engel Dollfus", "lat": 47.75243313452126, "name": "15 - GRAND REX", "bikes": 1, "update": "2015-11-07T17:01:49", "lon": 7.337387363569732}}, {"geometry": {"type": "Point", "coordinates": [7.348678891778222, 47.750027924403746]}, "type": "Feature", "properties": {"status": "OPEN", "stands": 0, "address": "Rue du Printemps angle Rue Courte", "lat": 47.750027924403746, "name": "11 - PLACE DU PRINTEMPS", "bikes": 13, "update": "2015-11-07T17:01:24", "lon": 7.348678891778222}}, {"geometry": {"type": "Point", "coordinates": [7.335962697690334, 47.75645059182136]}, "type": "Feature", "properties": {"status": "OPEN", "stands": 9, "address": "Avenue de Colmar devant Maison des Associations", "lat": 47.75645059182136, "name": "27 - CITE ADMINISTRATIVE", "bikes": 1, "update": "2015-11-07T16:57:54", "lon": 7.335962697690334}}, {"geometry": {"type": "Point", "coordinates": [7.317404625830476, 47.738321115207405]}, "type": "Feature", "properties": {"status": "OPEN", "stands": 6, "address": "Rue de Brunstatt angle Rue de l'Illberg", "lat": 47.738321115207405, "name": "33 - AUBERGE", "bikes": 6, "update": "2015-11-07T16:57:35", "lon": 7.317404625830476}}, {"geometry": {"type": "Point", "coordinates": [7.352306114121824, 47.752205822026475]}, "type": "Feature", "properties": {"status": "OPEN", "stands": 5, "address": "72 Rue Laurent", "lat": 47.752205822026475, "name": "29 - LAURENT", "bikes": 6, "update": "2015-11-07T16:57:52", "lon": 7.352306114121824}}, {"geometry": {"type": "Point", "coordinates": [7.35513626875887, 47.753021102255765]}, "type": "Feature", "properties": {"status": "OPEN", "stands": 1, "address": "Rue de la Hardt face au 40", "lat": 47.753021102255765, "name": "30 -  HARDT", "bikes": 10, "update": "2015-11-07T16:58:19", "lon": 7.35513626875887}}, {"geometry": {"type": "Point", "coordinates": [7.347364171170129, 47.74305508622176]}, "type": "Feature", "properties": {"status": "OPEN", "stands": 9, "address": "Rue de Tivoli angle Bd Wallack", "lat": 47.74305508622176, "name": "24 - TIVOLI", "bikes": 4, "update": "2015-11-07T16:57:36", "lon": 7.347364171170129}}, {"geometry": {"type": "Point", "coordinates": [7.342152, 47.742424]}, "type": "Feature", "properties": {"status": "OPEN", "stands": 18, "address": "Avenue du G\u00e9n\u00e9ral Leclerc", "lat": 47.742424, "name": "01 - PARVIS DE LA GARE", "bikes": 22, "update": "2015-11-07T16:58:22", "lon": 7.342152}}, {"geometry": {"type": "Point", "coordinates": [7.320302128363218, 47.74057621894032]}, "type": "Feature", "properties": {"status": "OPEN", "stands": 11, "address": "Rue du Ch\u00e2teau Zu-Rhein angle Rue de Hirsingue", "lat": 47.74057621894032, "name": "25 - PALAIS DES SPORTS", "bikes": 0, "update": "2015-11-07T16:56:40", "lon": 7.320302128363218}}, {"geometry": {"type": "Point", "coordinates": [7.332528397998575, 47.739177846735345]}, "type": "Feature", "properties": {"status": "OPEN", "stands": 25, "address": "Rue de la Locomotive angle Rue des Monteurs", "lat": 47.739177846735345, "name": "21 - FONDERIE", "bikes": 2, "update": "2015-11-07T17:01:51", "lon": 7.332528397998575}}, {"geometry": {"type": "Point", "coordinates": [7.335726655363909, 47.744186379414195]}, "type": "Feature", "properties": {"status": "OPEN", "stands": 12, "address": "Rue de la SINNE angle rue CH.BRUN devant Eglise St ETIENNE", "lat": 47.744186379414195, "name": "10 - PLACE DE LA PAIX", "bikes": 0, "update": "2015-11-07T16:57:15", "lon": 7.335726655363909}}, {"geometry": {"type": "Point", "coordinates": [7.323934959556643, 47.74325936026073]}, "type": "Feature", "properties": {"status": "OPEN", "stands": 7, "address": "Rue Charles Goerich angle Rue Koechlim-Dolfus", "lat": 47.74325936026073, "name": "26 - GOERICH", "bikes": 6, "update": "2015-11-07T17:02:58", "lon": 7.323934959556643}}, {"geometry": {"type": "Point", "coordinates": [7.346458858175643, 47.75269193786139]}, "type": "Feature", "properties": {"status": "OPEN", "stands": 11, "address": "Rue du Capitaine Dreyfus angle Bd de l'Europe", "lat": 47.75269193786139, "name": "35 - EUROPE", "bikes": 4, "update": "2015-11-07T16:53:44", "lon": 7.346458858175643}}, {"geometry": {"type": "Point", "coordinates": [7.329751953871988, 47.751246890292535]}, "type": "Feature", "properties": {"status": "OPEN", "stands": 1, "address": "Rue du Pr\u00e9sident Roosevelt angle rue Franklin", "lat": 47.751246890292535, "name": "13 - MARCHE", "bikes": 12, "update": "2015-11-07T16:57:27", "lon": 7.329751953871988}}, {"geometry": {"type": "Point", "coordinates": [7.341236049633396, 47.74946498657992]}, "type": "Feature", "properties": {"status": "OPEN", "stands": 13, "address": "Angle rue de Metz / AV du President Kennedy devant Chambre des M\u00e9tiers", "lat": 47.74946498657992, "name": "05 - METZ", "bikes": 2, "update": "2015-11-07T16:40:20", "lon": 7.341236049633396}}, {"geometry": {"type": "Point", "coordinates": [7.3335583445457, 47.7510835523038]}, "type": "Feature", "properties": {"status": "OPEN", "stands": 6, "address": "Rue Engel Dollfus dans le prolongement de la rue de la Filature", "lat": 47.7510835523038, "name": "16 - PLACE FRANKLIN", "bikes": 5, "update": "2015-11-07T16:56:36", "lon": 7.3335583445457}}, {"geometry": {"type": "Point", "coordinates": [7.308432590232066, 47.746490991763224]}, "type": "Feature", "properties": {"status": "OPEN", "stands": 8, "address": "RUE LEON JOUHAUX MULHOUSE", "lat": 47.746490991763224, "name": "40 - GARE DE DORNACH", "bikes": 2, "update": "2015-11-07T16:59:22", "lon": 7.308432590232066}}, {"geometry": {"type": "Point", "coordinates": [7.333486550613367, 47.74409332327696]}, "type": "Feature", "properties": {"status": "OPEN", "stands": 12, "address": "Rue Jacques Preiss angle rue des Rabbins", "lat": 47.74409332327696, "name": "19 - LES TROIS ROIS", "bikes": 2, "update": "2015-11-07T16:57:52", "lon": 7.333486550613367}}, {"geometry": {"type": "Point", "coordinates": [7.346391524337651, 47.74929728207385]}, "type": "Feature", "properties": {"status": "OPEN", "stands": 5, "address": "Rue de Stalingrad angle rue Savator", "lat": 47.74929728207385, "name": "12 - STALINGRAD", "bikes": 10, "update": "2015-11-07T16:54:10", "lon": 7.346391524337651}}, {"geometry": {"type": "Point", "coordinates": [7.332298077370282, 47.73574513758583]}, "type": "Feature", "properties": {"status": "OPEN", "stands": 15, "address": "Avenue d'Altkirch entr\u00e9e hopital", "lat": 47.73574513758583, "name": "23 - HASENREIN", "bikes": 0, "update": "2015-11-07T16:59:52", "lon": 7.332298077370282}}, {"geometry": {"type": "Point", "coordinates": [7.318956441703374, 47.73592960838637]}, "type": "Feature", "properties": {"status": "OPEN", "stands": 10, "address": "Boulevard Charles Stoessel entr\u00e9e Parc des Sport Patinoire", "lat": 47.73592960838637, "name": "34 - PATINOIRE", "bikes": 5, "update": "2015-11-07T17:00:12", "lon": 7.318956441703374}}]}