{"features": [{"geometry": {"coordinates": [7.331582, 47.742397], "type": "Point"}, "properties": {"lon": 7.331582, "stands": 6, "name": "22 - ST SAUVEUR", "address": "Rue de Zillisheim angle Rue St Sauveur", "lat": 47.742397, "bikes": 5, "status": "OPEN", "update": "2015-11-02T22:11:59"}, "type": "Feature"}, {"geometry": {"coordinates": [7.318487367942304, 47.745286038301984], "type": "Point"}, "properties": {"lon": 7.318487367942304, "stands": 4, "name": "38 - DAGUERRE", "address": "RUE DAGUERRE MULHOUSE", "lat": 47.745286038301984, "bikes": 9, "status": "OPEN", "update": "2015-11-02T22:14:58"}, "type": "Feature"}, {"geometry": {"coordinates": [7.327810319448964, 47.74496772031617], "type": "Point"}, "properties": {"lon": 7.327810319448964, "stands": 15, "name": "09 - NESSEL", "address": "BOULEVARD CHARLES STOESSEL", "lat": 47.74496772031617, "bikes": 0, "status": "OPEN", "update": "2015-11-02T22:11:49"}, "type": "Feature"}, {"geometry": {"coordinates": [7.343595230468297, 47.74685817286068], "type": "Point"}, "properties": {"lon": 7.343595230468297, "stands": 1, "name": "03 - PORTE DE BALE", "address": "Porte de B\u00e2le / Face Av.du M.DE.L.TASSIGNY", "lat": 47.74685817286068, "bikes": 9, "status": "OPEN", "update": "2015-11-02T22:20:01"}, "type": "Feature"}, {"geometry": {"coordinates": [7.341412567581239, 47.745960719214565], "type": "Point"}, "properties": {"lon": 7.341412567581239, "stands": 6, "name": "02 - REPUBLIQUE", "address": "3 Place de la R\u00e9publique", "lat": 47.745960719214565, "bikes": 8, "status": "OPEN", "update": "2015-11-02T22:13:03"}, "type": "Feature"}, {"geometry": {"coordinates": [7.347971910269036, 47.756393857099866], "type": "Point"}, "properties": {"lon": 7.347971910269036, "stands": 11, "name": "28 - SCHUMAN LEFEB", "address": "Face 113 Avenue Robert Schuman angle Rue lefebvre", "lat": 47.756393857099866, "bikes": 4, "status": "OPEN", "update": "2015-11-02T22:19:51"}, "type": "Feature"}, {"geometry": {"coordinates": [7.342944, 47.75243], "type": "Point"}, "properties": {"lon": 7.342944, "stands": 17, "name": "14 - SCHUMANN", "address": "Av Robert Schuman angle Rue de Stalingrad", "lat": 47.75243, "bikes": 1, "status": "OPEN", "update": "2015-11-02T22:16:22"}, "type": "Feature"}, {"geometry": {"coordinates": [7.338923, 47.747038], "type": "Point"}, "properties": {"lon": 7.338923, "stands": 25, "name": "17 - PLACE DE LA REUNION", "address": "Rue de la Lanterne contre Temple St ETIENNE", "lat": 47.747038, "bikes": 3, "status": "OPEN", "update": "2015-11-02T22:20:30"}, "type": "Feature"}, {"geometry": {"coordinates": [7.348462912266421, 47.753533915217425], "type": "Point"}, "properties": {"lon": 7.348462912266421, "stands": 6, "name": "20 - FILATURE", "address": "Allee Nathan Katz Parvis de la Filature", "lat": 47.753533915217425, "bikes": 6, "status": "OPEN", "update": "2015-11-02T22:19:12"}, "type": "Feature"}, {"geometry": {"coordinates": [7.338714139133008, 47.75006905130475], "type": "Point"}, "properties": {"lon": 7.338714139133008, "stands": 18, "name": "06 - PORTE JEUNE", "address": "Angle av de Colmar / av du President Kennedy devant Porte Jeune", "lat": 47.75006905130475, "bikes": 0, "status": "OPEN", "update": "2015-11-02T22:20:37"}, "type": "Feature"}, {"geometry": {"coordinates": [7.332063268345049, 47.74699319949577], "type": "Point"}, "properties": {"lon": 7.332063268345049, "stands": 13, "name": "08 - PORTE HAUTE (2)", "address": "Rue Gutenberg angle rue l'Arsenal", "lat": 47.74699319949577, "bikes": 2, "status": "OPEN", "update": "2015-11-02T22:18:53"}, "type": "Feature"}, {"geometry": {"coordinates": [7.314265697019561, 47.733210486448705], "type": "Point"}, "properties": {"lon": 7.314265697019561, "stands": 30, "name": "32- CAMPUS", "address": "Rue Alfred Verner All\u00e9e Brenard Thierry-Mieg", "lat": 47.733210486448705, "bikes": 0, "status": "OPEN", "update": "2015-11-02T22:12:19"}, "type": "Feature"}, {"geometry": {"coordinates": [7.332262051959153, 47.75986276611346], "type": "Point"}, "properties": {"lon": 7.332262051959153, "stands": 10, "name": "36 - MUSEE DE L'AUTO", "address": "RUE DE LA MERTZAU  MULHOUSE", "lat": 47.75986276611346, "bikes": 5, "status": "OPEN", "update": "2015-11-02T22:17:37"}, "type": "Feature"}, {"geometry": {"coordinates": [7.311554491720422, 47.744023527710475], "type": "Point"}, "properties": {"lon": 7.311554491720422, "stands": 8, "name": "39 - FRAN\u00c7OIS MITERRAND", "address": "RUE FRANCOIS MITTERAND MULHOUSE", "lat": 47.744023527710475, "bikes": 5, "status": "OPEN", "update": "2015-11-02T22:13:33"}, "type": "Feature"}, {"geometry": {"coordinates": [7.343104706876782, 47.748312192104606], "type": "Point"}, "properties": {"lon": 7.343104706876782, "stands": 5, "name": "04 - PARC SALVATOR", "address": "Rue de Metz devant parking Face rue de la SOMME", "lat": 47.748312192104606, "bikes": 7, "status": "OPEN", "update": "2015-11-02T22:11:30"}, "type": "Feature"}, {"geometry": {"coordinates": [7.339778249113981, 47.744219560146554], "type": "Point"}, "properties": {"lon": 7.339778249113981, "stands": 9, "name": "18 - CLEMENCEAU", "address": "14 AVENUE AUGUSTE WICKY", "lat": 47.744219560146554, "bikes": 2, "status": "OPEN", "update": "2015-11-02T22:18:15"}, "type": "Feature"}, {"geometry": {"coordinates": [7.315494395852651, 47.74329631548472], "type": "Point"}, "properties": {"lon": 7.315494395852651, "stands": 5, "name": "37 - TUNNEL", "address": "CHATEAU ZU-RHEIN MULHOUSE", "lat": 47.74329631548472, "bikes": 7, "status": "OPEN", "update": "2015-11-02T22:18:24"}, "type": "Feature"}, {"geometry": {"coordinates": [7.351545874483959, 47.76040353431892], "type": "Point"}, "properties": {"lon": 7.351545874483959, "stands": 9, "name": "31 - KINEPOLIS", "address": "Cinema Kinepolis Nouveau Bassin", "lat": 47.76040353431892, "bikes": 6, "status": "OPEN", "update": "2015-11-02T22:17:11"}, "type": "Feature"}, {"geometry": {"coordinates": [7.335779025655298, 47.74941110084169], "type": "Point"}, "properties": {"lon": 7.335779025655298, "stands": 11, "name": "07 - MAIRIE", "address": "Av du Pr\u00e9sident Kennedy angle rue Pierre et Marie Curie devant Credit Mutuel", "lat": 47.74941110084169, "bikes": 4, "status": "OPEN", "update": "2015-11-02T22:14:10"}, "type": "Feature"}, {"geometry": {"coordinates": [7.337387363569732, 47.75243313452126], "type": "Point"}, "properties": {"lon": 7.337387363569732, "stands": 10, "name": "15 - GRAND REX", "address": "Av de Colmar angle Rue Engel Dollfus", "lat": 47.75243313452126, "bikes": 5, "status": "OPEN", "update": "2015-11-02T22:15:21"}, "type": "Feature"}, {"geometry": {"coordinates": [7.348678891778222, 47.750027924403746], "type": "Point"}, "properties": {"lon": 7.348678891778222, "stands": 3, "name": "11 - PLACE DU PRINTEMPS", "address": "Rue du Printemps angle Rue Courte", "lat": 47.750027924403746, "bikes": 10, "status": "OPEN", "update": "2015-11-02T22:14:03"}, "type": "Feature"}, {"geometry": {"coordinates": [7.335962697690334, 47.75645059182136], "type": "Point"}, "properties": {"lon": 7.335962697690334, "stands": 8, "name": "27 - CITE ADMINISTRATIVE", "address": "Avenue de Colmar devant Maison des Associations", "lat": 47.75645059182136, "bikes": 2, "status": "OPEN", "update": "2015-11-02T22:16:27"}, "type": "Feature"}, {"geometry": {"coordinates": [7.317404625830476, 47.738321115207405], "type": "Point"}, "properties": {"lon": 7.317404625830476, "stands": 8, "name": "33 - AUBERGE", "address": "Rue de Brunstatt angle Rue de l'Illberg", "lat": 47.738321115207405, "bikes": 4, "status": "OPEN", "update": "2015-11-02T22:19:06"}, "type": "Feature"}, {"geometry": {"coordinates": [7.352306114121824, 47.752205822026475], "type": "Point"}, "properties": {"lon": 7.352306114121824, "stands": 5, "name": "29 - LAURENT", "address": "72 Rue Laurent", "lat": 47.752205822026475, "bikes": 6, "status": "OPEN", "update": "2015-11-02T22:12:38"}, "type": "Feature"}, {"geometry": {"coordinates": [7.35513626875887, 47.753021102255765], "type": "Point"}, "properties": {"lon": 7.35513626875887, "stands": 0, "name": "30 -  HARDT", "address": "Rue de la Hardt face au 40", "lat": 47.753021102255765, "bikes": 11, "status": "OPEN", "update": "2015-11-02T22:15:55"}, "type": "Feature"}, {"geometry": {"coordinates": [7.347364171170129, 47.74305508622176], "type": "Point"}, "properties": {"lon": 7.347364171170129, "stands": 7, "name": "24 - TIVOLI", "address": "Rue de Tivoli angle Bd Wallack", "lat": 47.74305508622176, "bikes": 6, "status": "OPEN", "update": "2015-11-02T22:18:22"}, "type": "Feature"}, {"geometry": {"coordinates": [7.342152, 47.742424], "type": "Point"}, "properties": {"lon": 7.342152, "stands": 17, "name": "01 - PARVIS DE LA GARE", "address": "Avenue du G\u00e9n\u00e9ral Leclerc", "lat": 47.742424, "bikes": 23, "status": "OPEN", "update": "2015-11-02T22:13:27"}, "type": "Feature"}, {"geometry": {"coordinates": [7.320302128363218, 47.74057621894032], "type": "Point"}, "properties": {"lon": 7.320302128363218, "stands": 5, "name": "25 - PALAIS DES SPORTS", "address": "Rue du Ch\u00e2teau Zu-Rhein angle Rue de Hirsingue", "lat": 47.74057621894032, "bikes": 6, "status": "OPEN", "update": "2015-11-02T22:19:38"}, "type": "Feature"}, {"geometry": {"coordinates": [7.332528397998575, 47.739177846735345], "type": "Point"}, "properties": {"lon": 7.332528397998575, "stands": 14, "name": "21 - FONDERIE", "address": "Rue de la Locomotive angle Rue des Monteurs", "lat": 47.739177846735345, "bikes": 13, "status": "OPEN", "update": "2015-11-02T22:19:16"}, "type": "Feature"}, {"geometry": {"coordinates": [7.335726655363909, 47.744186379414195], "type": "Point"}, "properties": {"lon": 7.335726655363909, "stands": 1, "name": "10 - PLACE DE LA PAIX", "address": "Rue de la SINNE angle rue CH.BRUN devant Eglise St ETIENNE", "lat": 47.744186379414195, "bikes": 12, "status": "OPEN", "update": "2015-11-02T22:12:33"}, "type": "Feature"}, {"geometry": {"coordinates": [7.323934959556643, 47.74325936026073], "type": "Point"}, "properties": {"lon": 7.323934959556643, "stands": 8, "name": "26 - GOERICH", "address": "Rue Charles Goerich angle Rue Koechlim-Dolfus", "lat": 47.74325936026073, "bikes": 5, "status": "OPEN", "update": "2015-11-02T22:20:14"}, "type": "Feature"}, {"geometry": {"coordinates": [7.346458858175643, 47.75269193786139], "type": "Point"}, "properties": {"lon": 7.346458858175643, "stands": 12, "name": "35 - EUROPE", "address": "Rue du Capitaine Dreyfus angle Bd de l'Europe", "lat": 47.75269193786139, "bikes": 2, "status": "OPEN", "update": "2015-11-02T22:12:06"}, "type": "Feature"}, {"geometry": {"coordinates": [7.329751953871988, 47.751246890292535], "type": "Point"}, "properties": {"lon": 7.329751953871988, "stands": 7, "name": "13 - MARCHE", "address": "Rue du Pr\u00e9sident Roosevelt angle rue Franklin", "lat": 47.751246890292535, "bikes": 6, "status": "OPEN", "update": "2015-11-02T22:17:06"}, "type": "Feature"}, {"geometry": {"coordinates": [7.341236049633396, 47.74946498657992], "type": "Point"}, "properties": {"lon": 7.341236049633396, "stands": 12, "name": "05 - METZ", "address": "Angle rue de Metz / AV du President Kennedy devant Chambre des M\u00e9tiers", "lat": 47.74946498657992, "bikes": 3, "status": "OPEN", "update": "2015-11-02T22:13:46"}, "type": "Feature"}, {"geometry": {"coordinates": [7.3335583445457, 47.7510835523038], "type": "Point"}, "properties": {"lon": 7.3335583445457, "stands": 7, "name": "16 - PLACE FRANKLIN", "address": "Rue Engel Dollfus dans le prolongement de la rue de la Filature", "lat": 47.7510835523038, "bikes": 4, "status": "OPEN", "update": "2015-11-02T22:16:16"}, "type": "Feature"}, {"geometry": {"coordinates": [7.308432590232066, 47.746490991763224], "type": "Point"}, "properties": {"lon": 7.308432590232066, "stands": 4, "name": "40 - GARE DE DORNACH", "address": "RUE LEON JOUHAUX MULHOUSE", "lat": 47.746490991763224, "bikes": 6, "status": "OPEN", "update": "2015-11-02T22:19:58"}, "type": "Feature"}, {"geometry": {"coordinates": [7.333486550613367, 47.74409332327696], "type": "Point"}, "properties": {"lon": 7.333486550613367, "stands": 3, "name": "19 - LES TROIS ROIS", "address": "Rue Jacques Preiss angle rue des Rabbins", "lat": 47.74409332327696, "bikes": 11, "status": "OPEN", "update": "2015-11-02T22:15:27"}, "type": "Feature"}, {"geometry": {"coordinates": [7.346391524337651, 47.74929728207385], "type": "Point"}, "properties": {"lon": 7.346391524337651, "stands": 5, "name": "12 - STALINGRAD", "address": "Rue de Stalingrad angle rue Savator", "lat": 47.74929728207385, "bikes": 10, "status": "OPEN", "update": "2015-11-02T22:17:44"}, "type": "Feature"}, {"geometry": {"coordinates": [7.332298077370282, 47.73574513758583], "type": "Point"}, "properties": {"lon": 7.332298077370282, "stands": 11, "name": "23 - HASENREIN", "address": "Avenue d'Altkirch entr\u00e9e hopital", "lat": 47.73574513758583, "bikes": 4, "status": "OPEN", "update": "2015-11-02T22:18:39"}, "type": "Feature"}, {"geometry": {"coordinates": [7.318956441703374, 47.73592960838637], "type": "Point"}, "properties": {"lon": 7.318956441703374, "stands": 14, "name": "34 - PATINOIRE", "address": "Boulevard Charles Stoessel entr\u00e9e Parc des Sport Patinoire", "lat": 47.73592960838637, "bikes": 1, "status": "OPEN", "update": "2015-11-02T22:17:14"}, "type": "Feature"}], "type": "FeatureCollection"}