{"type": "FeatureCollection", "features": [{"geometry": {"type": "Point", "coordinates": [-1.553049129320471, 47.212108463141774]}, "type": "Feature", "properties": {"status": "OPEN", "stands": 24, "address": "PLACE RICORDEAU", "lat": 47.212108463141774, "name": "00038-PLACE RICORDEAU", "bikes": 16, "update": "2015-11-07T17:00:39", "lon": -1.553049129320471}}, {"geometry": {"type": "Point", "coordinates": [-1.547999925907375, 47.22542988533347]}, "type": "Feature", "properties": {"status": "OPEN", "stands": 12, "address": "CHANZY - FACE AU 23 AVENUE DE CHANZY", "lat": 47.22542988533347, "name": "00066-CHANZY", "bikes": 3, "update": "2015-11-07T17:01:26", "lon": -1.547999925907375}}, {"geometry": {"type": "Point", "coordinates": [-1.55154060534636, 47.216479771820744]}, "type": "Feature", "properties": {"status": "OPEN", "stands": 11, "address": "STRASBOURG - PLACE TIRANT LO BLANC", "lat": 47.216479771820744, "name": "00003-STRASBOURG", "bikes": 4, "update": "2015-11-07T17:02:10", "lon": -1.55154060534636}}, {"geometry": {"type": "Point", "coordinates": [-1.553484290392954, 47.21857181309145]}, "type": "Feature", "properties": {"status": "OPEN", "stands": 13, "address": "H\u00d4TEL DE VILLE - FACE AU 29 RUE DE STRASBOURG", "lat": 47.21857181309145, "name": "00002-H\u00d4TEL DE VILLE", "bikes": 7, "update": "2015-11-07T16:58:54", "lon": -1.553484290392954}}, {"geometry": {"type": "Point", "coordinates": [-1.564806790782994, 47.20691895869599]}, "type": "Feature", "properties": {"status": "OPEN", "stands": 6, "address": "MACHINE DE L'\u00ceLE - 3 BD LEON BUREAU", "lat": 47.20691895869599, "name": "00043 - MACHINE DE L'\u00ceLE", "bikes": 24, "update": "2015-11-07T17:04:16", "lon": -1.564806790782994}}, {"geometry": {"type": "Point", "coordinates": [-1.525933451925082, 47.21074214218137]}, "type": "Feature", "properties": {"status": "OPEN", "stands": 6, "address": "REGION - RUE DE LA LOIRE", "lat": 47.21074214218137, "name": "00084-R\u00c9GION", "bikes": 13, "update": "2015-11-07T16:47:07", "lon": -1.525933451925082}}, {"geometry": {"type": "Point", "coordinates": [-1.550411914119152, 47.208804642437784]}, "type": "Feature", "properties": {"status": "OPEN", "stands": 15, "address": "MADELEINE - 2 QUAI MONCOUSU", "lat": 47.208804642437784, "name": "00040-MADELEINE", "bikes": 0, "update": "2015-11-07T17:02:12", "lon": -1.550411914119152}}, {"geometry": {"type": "Point", "coordinates": [-1.555531041936261, 47.220392126691955]}, "type": "Feature", "properties": {"status": "OPEN", "stands": 8, "address": "MOQUECHIEN - 8 RUE MOQUECHIEN", "lat": 47.220392126691955, "name": "00022-MOQUECHIEN", "bikes": 8, "update": "2015-11-07T17:02:12", "lon": -1.555531041936261}}, {"geometry": {"type": "Point", "coordinates": [-1.572610286970505, 47.20659772898787]}, "type": "Feature", "properties": {"status": "OPEN", "stands": 11, "address": "GARE MARITIME - PLACE JACKSONVILLE", "lat": 47.20659772898787, "name": "00042-GARE MARITIME", "bikes": 13, "update": "2015-11-07T17:00:05", "lon": -1.572610286970505}}, {"geometry": {"type": "Point", "coordinates": [-1.549291898557657, 47.19280351379784]}, "type": "Feature", "properties": {"status": "OPEN", "stands": 0, "address": "GARE PONT ROUSSEAU - RUE DE LA GARE - REZE", "lat": 47.19280351379784, "name": "00102-GARE PT ROUSSEAU", "bikes": 20, "update": "2015-11-07T17:02:28", "lon": -1.549291898557657}}, {"geometry": {"type": "Point", "coordinates": [-1.541777739850638, 47.206798618575256]}, "type": "Feature", "properties": {"status": "OPEN", "stands": 13, "address": "VINCENT GACHE - 9 RUE FRANCOIS ALBERT", "lat": 47.206798618575256, "name": "00056-VINCENT GACHE", "bikes": 2, "update": "2015-11-07T16:57:04", "lon": -1.541777739850638}}, {"geometry": {"type": "Point", "coordinates": [-1.556126125975167, 47.215331358010445]}, "type": "Feature", "properties": {"status": "OPEN", "stands": 1, "address": "BARILLERIE - 2 ALLEE PENTHIEVRE", "lat": 47.215331358010445, "name": "00007- BARILLERIE", "bikes": 14, "update": "2015-11-07T17:03:56", "lon": -1.556126125975167}}, {"geometry": {"type": "Point", "coordinates": [-1.55892310936669, 47.204783935599195]}, "type": "Feature", "properties": {"status": "OPEN", "stands": 9, "address": "PRAIRIE AU DUC - 40 BOULEVARD DE LA PRAIRIE AU DUC", "lat": 47.204783935599195, "name": "00045-PRAIRIE AU DUC", "bikes": 4, "update": "2015-11-07T17:01:48", "lon": -1.55892310936669}}, {"geometry": {"type": "Point", "coordinates": [-1.568490581479757, 47.206384991216765]}, "type": "Feature", "properties": {"status": "OPEN", "stands": 12, "address": "ILE DE NANTES PARC DES CHANTIERS A COTE DU CARROUSEL  (Station mobile)", "lat": 47.206384991216765, "name": "00103 - STATION MOBILE", "bikes": 7, "update": "2015-11-07T16:55:59", "lon": -1.568490581479757}}, {"geometry": {"type": "Point", "coordinates": [-1.534184544523239, 47.216369613307506]}, "type": "Feature", "properties": {"status": "OPEN", "stands": 11, "address": "PICASSO - RUE PABLO PICASSO", "lat": 47.216369613307506, "name": "00010- PICASSO", "bikes": 17, "update": "2015-11-07T16:55:23", "lon": -1.534184544523239}}, {"geometry": {"type": "Point", "coordinates": [-1.542208634875899, 47.218132613316826]}, "type": "Feature", "properties": {"status": "OPEN", "stands": 6, "address": "GARE NORD - 1 PLACE CHARLES LE ROUX", "lat": 47.218132613316826, "name": "00062-GARE NORD", "bikes": 34, "update": "2015-11-07T17:03:40", "lon": -1.542208634875899}}, {"geometry": {"type": "Point", "coordinates": [-1.535981000861306, 47.208466072191925]}, "type": "Feature", "properties": {"status": "OPEN", "stands": 14, "address": "PALAIS DES SPORTS - 21 RUE RENE VIVIANI", "lat": 47.208466072191925, "name": "00058-PALAIS DES SPORTS", "bikes": 1, "update": "2015-11-07T17:02:37", "lon": -1.535981000861306}}, {"geometry": {"type": "Point", "coordinates": [-1.556344610167984, 47.243263914975486]}, "type": "Feature", "properties": {"status": "OPEN", "stands": 5, "address": "PETIT PORT - BD DU PETIT PORT", "lat": 47.243263914975486, "name": "00094-PETIT PORT", "bikes": 15, "update": "2015-11-07T17:03:55", "lon": -1.556344610167984}}, {"geometry": {"type": "Point", "coordinates": [-1.559086551239872, 47.212083030753185]}, "type": "Feature", "properties": {"status": "OPEN", "stands": 2, "address": "BOURSE - SQUARE DE LA BOURSE", "lat": 47.212083030753185, "name": "00031-BOURSE", "bikes": 14, "update": "2015-11-07T17:00:08", "lon": -1.559086551239872}}, {"geometry": {"type": "Point", "coordinates": [-1.574924617192968, 47.21433366088933]}, "type": "Feature", "properties": {"status": "OPEN", "stands": 5, "address": "CANCLAUX - 8 PLACE CANCLAUX", "lat": 47.21433366088933, "name": "00074-CANCLAUX", "bikes": 10, "update": "2015-11-07T17:00:03", "lon": -1.574924617192968}}, {"geometry": {"type": "Point", "coordinates": [-1.561806393011127, 47.22862569057461]}, "type": "Feature", "properties": {"status": "OPEN", "stands": 11, "address": "Bellamy-Gu\u00e9 Moreau-138 rue Paul Bellamy", "lat": 47.22862569057461, "name": "00072-BELLAMY-GU\u00c9 MOREAU", "bikes": 4, "update": "2015-11-07T17:03:36", "lon": -1.561806393011127}}, {"geometry": {"type": "Point", "coordinates": [-1.558920890474776, 47.219854467329974]}, "type": "Feature", "properties": {"status": "OPEN", "stands": 14, "address": "SAINT SIMILIEN - 1 PLACE SAINT SIMILIEN", "lat": 47.219854467329974, "name": "00019-SAINT SIMILIEN", "bikes": 1, "update": "2015-11-07T16:58:25", "lon": -1.558920890474776}}, {"geometry": {"type": "Point", "coordinates": [-1.529735885980363, 47.21419463149648]}, "type": "Feature", "properties": {"status": "OPEN", "stands": 3, "address": "AVENUE DE BERLIN DEVANT MAISON DE QUARTIER", "lat": 47.21419463149648, "name": "00051-TABARLY", "bikes": 17, "update": "2015-11-07T16:55:55", "lon": -1.529735885980363}}, {"geometry": {"type": "Point", "coordinates": [-1.578689264310988, 47.20743863754715]}, "type": "Feature", "properties": {"status": "OPEN", "stands": 1, "address": "SAINT AIGNAN - 65 BD ST AIGNAN", "lat": 47.20743863754715, "name": "00089-SAINT-AIGNAN", "bikes": 13, "update": "2015-11-07T16:50:46", "lon": -1.578689264310988}}, {"geometry": {"type": "Point", "coordinates": [-1.557532467914316, 47.207605640212115]}, "type": "Feature", "properties": {"status": "OPEN", "stands": 22, "address": "ECOLE D'ARCHITECTURE - QUAI F MITTERRAND", "lat": 47.207605640212115, "name": "00077-ECOLE D'ARCHITECTURE", "bikes": 3, "update": "2015-11-07T17:01:53", "lon": -1.557532467914316}}, {"geometry": {"type": "Point", "coordinates": [-1.571373578112414, 47.223604815399085]}, "type": "Feature", "properties": {"status": "OPEN", "stands": 13, "address": "ANATOLE FRANCE - 41 RUE ALEXANDRE DUMAS", "lat": 47.223604815399085, "name": "00087-ANATOLE FRANCE", "bikes": 2, "update": "2015-11-07T16:59:32", "lon": -1.571373578112414}}, {"geometry": {"type": "Point", "coordinates": [-1.548161311046709, 47.20702417983412]}, "type": "Feature", "properties": {"status": "OPEN", "stands": 14, "address": "MARTYRS NANTAIS - 1 BD DES MARTYRS NANTAIS", "lat": 47.20702417983412, "name": "00047- MARTYRS NANTAIS", "bikes": 1, "update": "2015-11-07T16:59:57", "lon": -1.548161311046709}}, {"geometry": {"type": "Point", "coordinates": [-1.540292594289221, 47.22908808709286]}, "type": "Feature", "properties": {"status": "OPEN", "stands": 9, "address": "SAINT DONATIEN - PLACE DU 51\u00e9me RIMA", "lat": 47.22908808709286, "name": "00097-SAINT DONATIEN", "bikes": 11, "update": "2015-11-07T17:02:01", "lon": -1.540292594289221}}, {"geometry": {"type": "Point", "coordinates": [-1.557393235628245, 47.21312055103121]}, "type": "Feature", "properties": {"status": "OPEN", "stands": 21, "address": "COMMERCE - FACE PLACE DU COMMERCE", "lat": 47.21312055103121, "name": "00030-COMMERCE", "bikes": 18, "update": "2015-11-07T17:04:14", "lon": -1.557393235628245}}, {"geometry": {"type": "Point", "coordinates": [-1.569171883302444, 47.21792981632508]}, "type": "Feature", "properties": {"status": "OPEN", "stands": 9, "address": "GUIST'HAU NORD - 42 BD GUIST'HAU", "lat": 47.21792981632508, "name": "00027-GUIST'HAU NORD", "bikes": 6, "update": "2015-11-07T17:04:10", "lon": -1.569171883302444}}, {"geometry": {"type": "Point", "coordinates": [-1.562986793288367, 47.21718482329023]}, "type": "Feature", "properties": {"status": "OPEN", "stands": 14, "address": "PLACE ARISTIDE BRIAND", "lat": 47.21718482329023, "name": "00015-PLACE ARISTIDE BRIAND", "bikes": 3, "update": "2015-11-07T17:00:43", "lon": -1.562986793288367}}, {"geometry": {"type": "Point", "coordinates": [-1.530180435959972, 47.208199645038825]}, "type": "Feature", "properties": {"status": "OPEN", "stands": 10, "address": "MILLERAND - 9 BD ALEXANDRE MILLERAND", "lat": 47.208199645038825, "name": "00083-MILLERAND", "bikes": 4, "update": "2015-11-07T17:01:51", "lon": -1.530180435959972}}, {"geometry": {"type": "Point", "coordinates": [-1.561744905652581, 47.210886925815934]}, "type": "Feature", "properties": {"status": "OPEN", "stands": 11, "address": "MEDIATHEQUE - 24 QUAI DE LA FOSSE", "lat": 47.210886925815934, "name": "00034-MEDIATHEQUE", "bikes": 9, "update": "2015-11-07T17:01:42", "lon": -1.561744905652581}}, {"geometry": {"type": "Point", "coordinates": [-1.572114577993728, 47.229580605369215]}, "type": "Feature", "properties": {"status": "OPEN", "stands": 8, "address": "RD PT VANNES - 65 BD LE LASSEUR", "lat": 47.229580605369215, "name": "00091-RD PT VANNES", "bikes": 8, "update": "2015-11-07T17:01:40", "lon": -1.572114577993728}}, {"geometry": {"type": "Point", "coordinates": [-1.555183107916184, 47.20532409029517]}, "type": "Feature", "properties": {"status": "OPEN", "stands": 14, "address": "PLACE DE LA REPUBLIQUE - 3 PLACE DE LA REPUBLIQUE", "lat": 47.20532409029517, "name": "00046-PLACE REPUBLIQUE", "bikes": 6, "update": "2015-11-07T17:01:16", "lon": -1.555183107916184}}, {"geometry": {"type": "Point", "coordinates": [-1.557229797031573, 47.222902006053054]}, "type": "Feature", "properties": {"status": "OPEN", "stands": 13, "address": "BELLAMY - 50 RUE PAUL BELLAMY", "lat": 47.222902006053054, "name": "00020-BELLAMY", "bikes": 2, "update": "2015-11-07T17:02:45", "lon": -1.557229797031573}}, {"geometry": {"type": "Point", "coordinates": [-1.545507251231619, 47.20095551723967]}, "type": "Feature", "properties": {"status": "OPEN", "stands": 9, "address": "MANGIN - DEV 8 PLACE MANGIN", "lat": 47.20095551723967, "name": "00081 - MANGIN", "bikes": 5, "update": "2015-11-07T16:58:16", "lon": -1.545507251231619}}, {"geometry": {"type": "Point", "coordinates": [-1.544298470945214, 47.21078140655944]}, "type": "Feature", "properties": {"status": "OPEN", "stands": 10, "address": "MAGELLAN - 11 RUE DE BELFORT", "lat": 47.21078140655944, "name": "00055-MAGELLAN", "bikes": 5, "update": "2015-11-07T16:55:27", "lon": -1.544298470945214}}, {"geometry": {"type": "Point", "coordinates": [-1.540514488290191, 47.20844367718286]}, "type": "Feature", "properties": {"status": "OPEN", "stands": 10, "address": "DE GAULLE - PONT A. BRIAND / BD DE GAULLE", "lat": 47.20844367718286, "name": "00078-DE GAULLE", "bikes": 4, "update": "2015-11-07T16:54:46", "lon": -1.540514488290191}}, {"geometry": {"type": "Point", "coordinates": [-1.552147986072217, 47.22777476106513]}, "type": "Feature", "properties": {"status": "OPEN", "stands": 16, "address": "PLACE WALDECK ROUSSEAU", "lat": 47.22777476106513, "name": "00067-PLACE WALDECK ROUSSEAU", "bikes": 3, "update": "2015-11-07T16:59:40", "lon": -1.552147986072217}}, {"geometry": {"type": "Point", "coordinates": [-1.537581863003988, 47.205396132179104]}, "type": "Feature", "properties": {"status": "OPEN", "stands": 14, "address": "GAETAN RONDEAU - 20 RUE GAETAN RONDEAU", "lat": 47.205396132179104, "name": "00057-GAETAN RONDEAU", "bikes": 6, "update": "2015-11-07T16:57:10", "lon": -1.537581863003988}}, {"geometry": {"type": "Point", "coordinates": [-1.536511118183477, 47.213237140630014]}, "type": "Feature", "properties": {"status": "OPEN", "stands": 11, "address": "MALAKOFF - 15 QUAI MALAKOFF", "lat": 47.213237140630014, "name": "00079-MALAKOFF", "bikes": 4, "update": "2015-11-07T16:58:59", "lon": -1.536511118183477}}, {"geometry": {"type": "Point", "coordinates": [-1.571369360221906, 47.21230895884701]}, "type": "Feature", "properties": {"status": "OPEN", "stands": 4, "address": "LAMORICIERE - PLACE BEAUMANOIR", "lat": 47.21230895884701, "name": "00075-LAMORICIERE", "bikes": 14, "update": "2015-11-07T17:03:47", "lon": -1.571369360221906}}, {"geometry": {"type": "Point", "coordinates": [-1.563308366869757, 47.22142933898549]}, "type": "Feature", "properties": {"status": "OPEN", "stands": 11, "address": "PLACE VIARME - 23 PLACE VIARME", "lat": 47.22142933898549, "name": "00018-PLACE VIARME", "bikes": 2, "update": "2015-11-07T17:04:09", "lon": -1.563308366869757}}, {"geometry": {"type": "Point", "coordinates": [-1.556421138973112, 47.234687038295554]}, "type": "Feature", "properties": {"status": "OPEN", "stands": 25, "address": "MICHELET - BD MICHELET", "lat": 47.234687038295554, "name": "00095-MICHELET", "bikes": 0, "update": "2015-11-07T16:57:21", "lon": -1.556421138973112}}, {"geometry": {"type": "Point", "coordinates": [-1.560022819676629, 47.226394430986105]}, "type": "Feature", "properties": {"status": "OPEN", "stands": 12, "address": "BEL AIR - 102 RUE PAUL BELLAMY", "lat": 47.226394430986105, "name": "00085-BEL AIR", "bikes": 2, "update": "2015-11-07T17:02:20", "lon": -1.560022819676629}}, {"geometry": {"type": "Point", "coordinates": [-1.56605906933562, 47.23302818477594]}, "type": "Feature", "properties": {"status": "OPEN", "stands": 17, "address": "RD PT RENNES - ANGLE BD LE LASSEUR & RUE PAUL BELLAMY", "lat": 47.23302818477594, "name": "00092-DT PT RENNES", "bikes": 3, "update": "2015-11-07T17:03:45", "lon": -1.56605906933562}}, {"geometry": {"type": "Point", "coordinates": [-1.539712888264826, 47.21391161818379]}, "type": "Feature", "properties": {"status": "OPEN", "stands": 3, "address": "STADE SAUPIN - 35 QUAI MALAKOFF", "lat": 47.21391161818379, "name": "00059-STADE SAUPIN", "bikes": 12, "update": "2015-11-07T16:59:52", "lon": -1.539712888264826}}, {"geometry": {"type": "Point", "coordinates": [-1.549886024937758, 47.211736393222054]}, "type": "Feature", "properties": {"status": "OPEN", "stands": 4, "address": "OLIVETTES - 10 RUE DES OLIVETTES", "lat": 47.211736393222054, "name": "00053-OLIVETTES", "bikes": 11, "update": "2015-11-07T17:04:11", "lon": -1.549886024937758}}, {"geometry": {"type": "Point", "coordinates": [-1.570515336280715, 47.209429092524424]}, "type": "Feature", "properties": {"status": "OPEN", "stands": 9, "address": "PLACE RENE BOUHIER - 8 PLACE RENE BOUHIER", "lat": 47.209429092524424, "name": "00076-PLACE REN\u00c9 BOUHIER", "bikes": 6, "update": "2015-11-07T17:00:29", "lon": -1.570515336280715}}, {"geometry": {"type": "Point", "coordinates": [-1.557111680197571, 47.21620089258823]}, "type": "Feature", "properties": {"status": "OPEN", "stands": 3, "address": "BOUCHERIE - FACE AU 4 RUE DE LA BOUCHERIE", "lat": 47.21620089258823, "name": "00008-BOUCHERIE", "bikes": 16, "update": "2015-11-07T17:03:50", "lon": -1.557111680197571}}, {"geometry": {"type": "Point", "coordinates": [-1.570438598073934, 47.220882433018865]}, "type": "Feature", "properties": {"status": "OPEN", "stands": 10, "address": "SARRADIN - FACE AU 4 PLACE SARRADIN", "lat": 47.220882433018865, "name": "00073-SARRADIN", "bikes": 3, "update": "2015-11-07T17:02:37", "lon": -1.570438598073934}}, {"geometry": {"type": "Point", "coordinates": [-1.547058938534335, 47.21651740326776]}, "type": "Feature", "properties": {"status": "OPEN", "stands": 2, "address": "DUCHESSE ANNE - 2 PLACE DE LA DUCHESSE ANNE", "lat": 47.21651740326776, "name": "00049-DUCHESSE ANNE", "bikes": 12, "update": "2015-11-07T17:02:17", "lon": -1.547058938534335}}, {"geometry": {"type": "Point", "coordinates": [-1.555309011107301, 47.246298068423485]}, "type": "Feature", "properties": {"status": "OPEN", "stands": 16, "address": "FACULTES - ANGLE ROUTE DE LA JONELIERE & BD G. MOLLET", "lat": 47.246298068423485, "name": "00093-FACULTES", "bikes": 24, "update": "2015-11-07T17:01:52", "lon": -1.555309011107301}}, {"geometry": {"type": "Point", "coordinates": [-1.551849784370311, 47.217505374678645]}, "type": "Feature", "properties": {"status": "OPEN", "stands": 14, "address": "VERDUN - 15 RUE DE VERDUN", "lat": 47.217505374678645, "name": "00048-VERDUN", "bikes": 0, "update": "2015-11-07T16:59:18", "lon": -1.551849784370311}}, {"geometry": {"type": "Point", "coordinates": [-1.55408380740881, 47.220255183724454]}, "type": "Feature", "properties": {"status": "OPEN", "stands": 21, "address": "PREFECTURE - 5 QUAI CEINERAY", "lat": 47.220255183724454, "name": "00001-PREFECTURE", "bikes": 4, "update": "2015-11-07T16:59:09", "lon": -1.55408380740881}}, {"geometry": {"type": "Point", "coordinates": [-1.542404741250403, 47.227145468224634]}, "type": "Feature", "properties": {"status": "OPEN", "stands": 11, "address": "BUAT - 118 RUE DE COULMIERS", "lat": 47.227145468224634, "name": "00023-BUAT", "bikes": 0, "update": "2015-11-07T17:01:07", "lon": -1.542404741250403}}, {"geometry": {"type": "Point", "coordinates": [-1.576612843727262, 47.22419506173264]}, "type": "Feature", "properties": {"status": "OPEN", "stands": 6, "address": "PROCE - ANGLE BD G. SERPETTE & BD A. PAGEOT", "lat": 47.22419506173264, "name": "00090-PROCE", "bikes": 9, "update": "2015-11-07T16:55:52", "lon": -1.576612843727262}}, {"geometry": {"type": "Point", "coordinates": [-1.5502297, 47.2191122]}, "type": "Feature", "properties": {"status": "OPEN", "stands": 10, "address": "FOCH - PLACE FOCH", "lat": 47.2191122, "name": "00032-FOCH", "bikes": 5, "update": "2015-11-07T16:58:31", "lon": -1.5502297}}, {"geometry": {"type": "Point", "coordinates": [-1.561570147641708, 47.21921395261352]}, "type": "Feature", "properties": {"status": "OPEN", "stands": 7, "address": "SAINTE ELISABTEH - 3 PLACE STE ELISABETH", "lat": 47.21921395261352, "name": "00017-SAINTE ELISABETH", "bikes": 7, "update": "2015-11-07T17:02:01", "lon": -1.561570147641708}}, {"geometry": {"type": "Point", "coordinates": [-1.555269922656021, 47.213450231365094]}, "type": "Feature", "properties": {"status": "OPEN", "stands": 0, "address": "DUGUAY TROUIN - 7 ALLEE DUGUAY TROUIN", "lat": 47.213450231365094, "name": "00029-DUGUAY TROUIN", "bikes": 15, "update": "2015-11-07T16:58:52", "lon": -1.555269922656021}}, {"geometry": {"type": "Point", "coordinates": [-1.550226242563373, 47.21514969516256]}, "type": "Feature", "properties": {"status": "OPEN", "stands": 7, "address": "CHATEAU - 2 RUE DES ETATS", "lat": 47.21514969516256, "name": "00050-CHATEAU", "bikes": 9, "update": "2015-11-07T17:04:06", "lon": -1.550226242563373}}, {"geometry": {"type": "Point", "coordinates": [-1.5568245371939, 47.211465063355035]}, "type": "Feature", "properties": {"status": "OPEN", "stands": 8, "address": "FEYDEAU - 1 ALLEE ILE GLORIETTE", "lat": 47.211465063355035, "name": "00037-FEYDEAU", "bikes": 13, "update": "2015-11-07T16:58:53", "lon": -1.5568245371939}}, {"geometry": {"type": "Point", "coordinates": [-1.567501842502272, 47.22547062698044]}, "type": "Feature", "properties": {"status": "OPEN", "stands": 16, "address": "HAUT PAVES - ANGLE RUE DE BERRY/RUE DES HAUTS PAVES", "lat": 47.22547062698044, "name": "00086-HAUTS PAV\u00c9S", "bikes": 0, "update": "2015-11-07T17:03:01", "lon": -1.567501842502272}}, {"geometry": {"type": "Point", "coordinates": [-1.555233144631466, 47.209406573873714]}, "type": "Feature", "properties": {"status": "OPEN", "stands": 9, "address": "QUAI MONCOUSU - 11 QUAI MONCOUSU", "lat": 47.209406573873714, "name": "00039-QUAI MONCOUSU", "bikes": 10, "update": "2015-11-07T17:02:30", "lon": -1.555233144631466}}, {"geometry": {"type": "Point", "coordinates": [-1.565543986075099, 47.212168974412094]}, "type": "Feature", "properties": {"status": "OPEN", "stands": 14, "address": "JEAN V - 2 PLACE JEAN V", "lat": 47.212168974412094, "name": "00035-JEAN V", "bikes": 1, "update": "2015-11-07T16:57:19", "lon": -1.565543986075099}}, {"geometry": {"type": "Point", "coordinates": [-1.529959592703474, 47.223508869811994]}, "type": "Feature", "properties": {"status": "OPEN", "stands": 8, "address": "DALBY- 61 BD ERNEST DALBY FACE STATION SERVICE", "lat": 47.223508869811994, "name": "00025-DALBY", "bikes": 7, "update": "2015-11-07T16:57:38", "lon": -1.529959592703474}}, {"geometry": {"type": "Point", "coordinates": [-1.561173077989395, 47.20831728844152]}, "type": "Feature", "properties": {"status": "OPEN", "stands": 23, "address": "PALAIS DE JUSTICE - 19 QUAI FRANCOIS MITTERAND", "lat": 47.20831728844152, "name": "00044-PALAIS DE JUSTICE", "bikes": 2, "update": "2015-11-07T17:00:00", "lon": -1.561173077989395}}, {"geometry": {"type": "Point", "coordinates": [-1.536540663464699, 47.1958989090141]}, "type": "Feature", "properties": {"status": "OPEN", "stands": 6, "address": "ST JACQUES - RUE ST JACQUES", "lat": 47.1958989090141, "name": "00099-ST JACQUES", "bikes": 8, "update": "2015-11-07T16:59:20", "lon": -1.536540663464699}}, {"geometry": {"type": "Point", "coordinates": [-1.551548484803203, 47.204003208491145]}, "type": "Feature", "properties": {"status": "OPEN", "stands": 9, "address": "VICTOR HUGO - BD VICTOR HUGO", "lat": 47.204003208491145, "name": "00080 - VICTOR HUGO", "bikes": 6, "update": "2015-11-07T17:01:43", "lon": -1.551548484803203}}, {"geometry": {"type": "Point", "coordinates": [-1.545905939112105, 47.215591463959825]}, "type": "Feature", "properties": {"status": "OPEN", "stands": 6, "address": "LIEU UNIQUE - FACE 23 QUAI FERDINAND FAVRE", "lat": 47.215591463959825, "name": "00061-LU - LIEU UNIQUE", "bikes": 9, "update": "2015-11-07T16:55:25", "lon": -1.545905939112105}}, {"geometry": {"type": "Point", "coordinates": [-1.556476339327795, 47.22114332912908]}, "type": "Feature", "properties": {"status": "OPEN", "stands": 6, "address": "MARCHE TALENSAC SUD - 6 RUE TALENSAC", "lat": 47.22114332912908, "name": "00021-MARCHE TALENSAC SUD", "bikes": 10, "update": "2015-11-07T16:54:40", "lon": -1.556476339327795}}, {"geometry": {"type": "Point", "coordinates": [-1.558940746690739, 47.22185363818837]}, "type": "Feature", "properties": {"status": "OPEN", "stands": 12, "address": "MARCHE TALENSAC NORD - 18 RUE TALENSAC", "lat": 47.22185363818837, "name": "00071-MARCHE TALENSAC NORD", "bikes": 2, "update": "2015-11-07T17:03:57", "lon": -1.558940746690739}}, {"geometry": {"type": "Point", "coordinates": [-1.569524048742154, 47.208357479819504]}, "type": "Feature", "properties": {"status": "OPEN", "stands": 6, "address": "CHANTIER NAVAL - 87 QUAI DE LA FOSSE", "lat": 47.208357479819504, "name": "00041-CHANTIER NAVAL", "bikes": 9, "update": "2015-11-07T17:03:48", "lon": -1.569524048742154}}, {"geometry": {"type": "Point", "coordinates": [-1.563900673465861, 47.21515818868574]}, "type": "Feature", "properties": {"status": "OPEN", "stands": 12, "address": "PLACE DELORME", "lat": 47.21515818868574, "name": "00012-PLACE DELORME", "bikes": 8, "update": "2015-11-07T16:58:34", "lon": -1.563900673465861}}, {"geometry": {"type": "Point", "coordinates": [-1.550828036456355, 47.18921204751304]}, "type": "Feature", "properties": {"status": "OPEN", "stands": 10, "address": "HUIT MAI - AVENUE DE LA LIBERATION - REZE", "lat": 47.18921204751304, "name": "00098-HUIT MAI", "bikes": 4, "update": "2015-11-07T16:56:38", "lon": -1.550828036456355}}, {"geometry": {"type": "Point", "coordinates": [-1.567004526265165, 47.21682795997449]}, "type": "Feature", "properties": {"status": "OPEN", "stands": 15, "address": "GUIST'HAU SUD - 26 BOULEVARD GUIST'HAU", "lat": 47.21682795997449, "name": "00026-GUIST'HAU SUD", "bikes": 0, "update": "2015-11-07T17:02:39", "lon": -1.567004526265165}}, {"geometry": {"type": "Point", "coordinates": [-1.548750555741977, 47.214327524589145]}, "type": "Feature", "properties": {"status": "OPEN", "stands": 14, "address": "BACO - FACE AU 8 ALLEE BACO", "lat": 47.214327524589145, "name": "00052-BACO", "bikes": 1, "update": "2015-11-07T16:56:08", "lon": -1.548750555741977}}, {"geometry": {"type": "Point", "coordinates": [-1.560675283700123, 47.215578942427136]}, "type": "Feature", "properties": {"status": "OPEN", "stands": 15, "address": "CALVAIRE - PL.DES VOLONTAIRES DE LA DEFENSE PASSIVE", "lat": 47.215578942427136, "name": "00011-CALVAIRE", "bikes": 0, "update": "2015-11-07T17:02:37", "lon": -1.560675283700123}}, {"geometry": {"type": "Point", "coordinates": [-1.544718964531585, 47.219834197318974]}, "type": "Feature", "properties": {"status": "OPEN", "stands": 3, "address": "JARDIN DES PLANTES - 6 RUE STANILAS BAUDRY", "lat": 47.219834197318974, "name": "00063-JARDIN DES PLANTES", "bikes": 12, "update": "2015-11-07T16:59:32", "lon": -1.544718964531585}}, {"geometry": {"type": "Point", "coordinates": [-1.563419484053747, 47.21902754473837]}, "type": "Feature", "properties": {"status": "OPEN", "stands": 14, "address": "PLACE EDOUARD NORMAND - FACE AU 7 PLACE EDOUARD NORMAND", "lat": 47.21902754473837, "name": "00016-PLACE EDOUARD NORMAND", "bikes": 1, "update": "2015-11-07T16:57:34", "lon": -1.563419484053747}}, {"geometry": {"type": "Point", "coordinates": [-1.577175414321782, 47.211501070117826]}, "type": "Feature", "properties": {"status": "OPEN", "stands": 10, "address": "MELLINET - 1 BD ALLARD", "lat": 47.211501070117826, "name": "00088-MELLINET", "bikes": 5, "update": "2015-11-07T17:02:58", "lon": -1.577175414321782}}, {"geometry": {"type": "Point", "coordinates": [-1.542844, 47.215505]}, "type": "Feature", "properties": {"status": "OPEN", "stands": 2, "address": "Quai Malakoff - c\u00f4t\u00e9 canal st F\u00e9lix", "lat": 47.215505, "name": "00070-GARE SUD 2", "bikes": 28, "update": "2015-11-07T16:55:30", "lon": -1.542844}}, {"geometry": {"type": "Point", "coordinates": [-1.5543847138777, 47.216667582015184]}, "type": "Feature", "properties": {"status": "OPEN", "stands": 11, "address": "MOULIN - FACE AU 18 RUE DU MOULIN", "lat": 47.216667582015184, "name": "00004-MOULIN", "bikes": 2, "update": "2015-11-07T17:00:36", "lon": -1.5543847138777}}, {"geometry": {"type": "Point", "coordinates": [-1.549221766809888, 47.235335222208626]}, "type": "Feature", "properties": {"status": "OPEN", "stands": 7, "address": "TORTIERE - BD EUGENE ORIEUX", "lat": 47.235335222208626, "name": "00096-TORTIERE", "bikes": 8, "update": "2015-11-07T17:02:31", "lon": -1.549221766809888}}, {"geometry": {"type": "Point", "coordinates": [-1.547099233718495, 47.221785183522634]}, "type": "Feature", "properties": {"status": "OPEN", "stands": 14, "address": "SAINT CLEMENT - FACE AU 37 RUE DU MARECHAL JOFFRE", "lat": 47.221785183522634, "name": "00064-SAINT CLEMENT", "bikes": 1, "update": "2015-11-07T17:02:05", "lon": -1.547099233718495}}, {"geometry": {"type": "Point", "coordinates": [-1.559017485167438, 47.215814587139455]}, "type": "Feature", "properties": {"status": "OPEN", "stands": 14, "address": "GUEPIN - 8 RUE DE L'ARCHE SECHE", "lat": 47.215814587139455, "name": "00009-GUEPIN", "bikes": 0, "update": "2015-11-07T17:01:17", "lon": -1.559017485167438}}, {"geometry": {"type": "Point", "coordinates": [-1.563140874431397, 47.213522613719896]}, "type": "Feature", "properties": {"status": "OPEN", "stands": 9, "address": "RACINE - 4 RUE RACINE", "lat": 47.213522613719896, "name": "00033-RACINE", "bikes": 6, "update": "2015-11-07T16:58:32", "lon": -1.563140874431397}}, {"geometry": {"type": "Point", "coordinates": [-1.542847782057658, 47.215919436013635]}, "type": "Feature", "properties": {"status": "OPEN", "stands": 4, "address": "GARE SUD - FACE 12 RUE LOURMEL", "lat": 47.215919436013635, "name": "00060-GARE SUD", "bikes": 36, "update": "2015-11-07T16:58:35", "lon": -1.542847782057658}}, {"geometry": {"type": "Point", "coordinates": [-1.553711961402328, 47.22451490719107]}, "type": "Feature", "properties": {"status": "OPEN", "stands": 10, "address": "VERSAILLES - FACE AU 25 QUAI DE VERSAILLES", "lat": 47.22451490719107, "name": "00024-VERSAILLES", "bikes": 5, "update": "2015-11-07T16:58:33", "lon": -1.553711961402328}}, {"geometry": {"type": "Point", "coordinates": [-1.535847443276377, 47.219216380711345]}, "type": "Feature", "properties": {"status": "OPEN", "stands": 8, "address": "MANUFACTURE - 11 BIS BD STALINGRAD", "lat": 47.219216380711345, "name": "00069 - MANUFACTURE", "bikes": 7, "update": "2015-11-07T16:58:45", "lon": -1.535847443276377}}, {"geometry": {"type": "Point", "coordinates": [-1.566655339669288, 47.210693859551135]}, "type": "Feature", "properties": {"status": "OPEN", "stands": 6, "address": "ALGER - 5 RUE D'ALGER", "lat": 47.210693859551135, "name": "00036-ALGER", "bikes": 9, "update": "2015-11-07T17:00:58", "lon": -1.566655339669288}}, {"geometry": {"type": "Point", "coordinates": [-1.533118244923623, 47.206757512308414]}, "type": "Feature", "properties": {"status": "OPEN", "stands": 11, "address": "SEBILLEAU - 9 RUE GAETAN RONDEAU", "lat": 47.206757512308414, "name": "00082-SEBILLEAU", "bikes": 5, "update": "2015-11-07T16:56:25", "lon": -1.533118244923623}}, {"geometry": {"type": "Point", "coordinates": [-1.556749263076553, 47.218837230469425]}, "type": "Feature", "properties": {"status": "OPEN", "stands": 12, "address": "BROSSARD - 25 RUE ARMAND BROSSARD", "lat": 47.218837230469425, "name": "00005-BROSSARD", "bikes": 3, "update": "2015-11-07T17:02:01", "lon": -1.556749263076553}}, {"geometry": {"type": "Point", "coordinates": [-1.54156809120326, 47.1965313642396]}, "type": "Feature", "properties": {"status": "OPEN", "stands": 14, "address": "PIRMIL - RUE ESNOUL DES CHATELETS", "lat": 47.1965313642396, "name": "00101 - PIRMIL", "bikes": 14, "update": "2015-11-07T16:57:09", "lon": -1.54156809120326}}, {"geometry": {"type": "Point", "coordinates": [-1.534717540470481, 47.199923092905216]}, "type": "Feature", "properties": {"status": "OPEN", "stands": 0, "address": "GRENERAIE - PARC DE LA GRENERAIE", "lat": 47.199923092905216, "name": "00100 - GRENERAIE", "bikes": 20, "update": "2015-11-07T16:54:24", "lon": -1.534717540470481}}, {"geometry": {"type": "Point", "coordinates": [-1.544952541668585, 47.213180085527846]}, "type": "Feature", "properties": {"status": "OPEN", "stands": 7, "address": "CITE INTERNATIONAL DES CONGRES - 2 RUE DE JEMMAPES", "lat": 47.213180085527846, "name": "00054- CITE INTERNATIONALE DES CONGRES", "bikes": 22, "update": "2015-11-07T17:01:01", "lon": -1.544952541668585}}, {"geometry": {"type": "Point", "coordinates": [-1.567568016663838, 47.21446342738575]}, "type": "Feature", "properties": {"status": "OPEN", "stands": 8, "address": "PLACE DE L'EDIT DE NANTES", "lat": 47.21446342738575, "name": "00028- PLACE DE L'EDIT NANTES", "bikes": 5, "update": "2015-11-07T16:56:00", "lon": -1.567568016663838}}, {"geometry": {"type": "Point", "coordinates": [-1.545212434215091, 47.22406787948748]}, "type": "Feature", "properties": {"status": "OPEN", "stands": 15, "address": "LIVET - FACE AU 65 RUE DU FOUR", "lat": 47.22406787948748, "name": "00068-LIVET", "bikes": 0, "update": "2015-11-07T17:03:19", "lon": -1.545212434215091}}, {"geometry": {"type": "Point", "coordinates": [-1.551666442545979, 47.222587339906696]}, "type": "Feature", "properties": {"status": "OPEN", "stands": 12, "address": "COURS SULLY - FACE AU 9 COURS SULLY", "lat": 47.222587339906696, "name": "00065-COURS SULLY", "bikes": 3, "update": "2015-11-07T17:03:12", "lon": -1.551666442545979}}, {"geometry": {"type": "Point", "coordinates": [-1.559161066618992, 47.216787949913034]}, "type": "Feature", "properties": {"status": "OPEN", "stands": 17, "address": "BRETAGNE SUD - 1 RUE PIERRE CHEREAU", "lat": 47.216787949913034, "name": "00013-BRETAGNE SUD", "bikes": 2, "update": "2015-11-07T17:04:15", "lon": -1.559161066618992}}, {"geometry": {"type": "Point", "coordinates": [-1.556937645378872, 47.21759668240601]}, "type": "Feature", "properties": {"status": "OPEN", "stands": 6, "address": "PLACE DU CIRQUE - 7 ALLEE DUQUESNE", "lat": 47.21759668240601, "name": "00006-PLACE DU CIRQUE", "bikes": 9, "update": "2015-11-07T17:04:14", "lon": -1.556937645378872}}]}