{"features": [{"geometry": {"coordinates": [-1.553049129320471, 47.212108463141774], "type": "Point"}, "properties": {"lon": -1.553049129320471, "stands": 40, "name": "00038-PLACE RICORDEAU", "address": "PLACE RICORDEAU", "lat": 47.212108463141774, "bikes": 0, "status": "OPEN", "update": "2015-11-02T22:14:07"}, "type": "Feature"}, {"geometry": {"coordinates": [-1.547999925907375, 47.22542988533347], "type": "Point"}, "properties": {"lon": -1.547999925907375, "stands": 6, "name": "00066-CHANZY", "address": "CHANZY - FACE AU 23 AVENUE DE CHANZY", "lat": 47.22542988533347, "bikes": 9, "status": "OPEN", "update": "2015-11-02T22:14:00"}, "type": "Feature"}, {"geometry": {"coordinates": [-1.55154060534636, 47.216479771820744], "type": "Point"}, "properties": {"lon": -1.55154060534636, "stands": 2, "name": "00003-STRASBOURG", "address": "STRASBOURG - PLACE TIRANT LO BLANC", "lat": 47.216479771820744, "bikes": 13, "status": "OPEN", "update": "2015-11-02T22:18:57"}, "type": "Feature"}, {"geometry": {"coordinates": [-1.553484290392954, 47.21857181309145], "type": "Point"}, "properties": {"lon": -1.553484290392954, "stands": 15, "name": "00002-H\u00d4TEL DE VILLE", "address": "H\u00d4TEL DE VILLE - FACE AU 29 RUE DE STRASBOURG", "lat": 47.21857181309145, "bikes": 5, "status": "OPEN", "update": "2015-11-02T22:19:37"}, "type": "Feature"}, {"geometry": {"coordinates": [-1.564806790782994, 47.20691895869599], "type": "Point"}, "properties": {"lon": -1.564806790782994, "stands": 26, "name": "00043 - MACHINE DE L'\u00ceLE", "address": "MACHINE DE L'\u00ceLE - 3 BD LEON BUREAU", "lat": 47.20691895869599, "bikes": 4, "status": "OPEN", "update": "2015-11-02T22:14:17"}, "type": "Feature"}, {"geometry": {"coordinates": [-1.525933451925082, 47.21074214218137], "type": "Point"}, "properties": {"lon": -1.525933451925082, "stands": 14, "name": "00084-R\u00c9GION", "address": "REGION - RUE DE LA LOIRE", "lat": 47.21074214218137, "bikes": 5, "status": "OPEN", "update": "2015-11-02T22:16:03"}, "type": "Feature"}, {"geometry": {"coordinates": [-1.550411914119152, 47.208804642437784], "type": "Point"}, "properties": {"lon": -1.550411914119152, "stands": 12, "name": "00040-MADELEINE", "address": "MADELEINE - 2 QUAI MONCOUSU", "lat": 47.208804642437784, "bikes": 3, "status": "OPEN", "update": "2015-11-02T22:19:20"}, "type": "Feature"}, {"geometry": {"coordinates": [-1.555531041936261, 47.220392126691955], "type": "Point"}, "properties": {"lon": -1.555531041936261, "stands": 6, "name": "00022-MOQUECHIEN", "address": "MOQUECHIEN - 8 RUE MOQUECHIEN", "lat": 47.220392126691955, "bikes": 10, "status": "OPEN", "update": "2015-11-02T22:14:31"}, "type": "Feature"}, {"geometry": {"coordinates": [-1.572610286970505, 47.20659772898787], "type": "Point"}, "properties": {"lon": -1.572610286970505, "stands": 1, "name": "00042-GARE MARITIME", "address": "GARE MARITIME - PLACE JACKSONVILLE", "lat": 47.20659772898787, "bikes": 24, "status": "OPEN", "update": "2015-11-02T22:20:29"}, "type": "Feature"}, {"geometry": {"coordinates": [-1.549291898557657, 47.19280351379784], "type": "Point"}, "properties": {"lon": -1.549291898557657, "stands": 0, "name": "00102-GARE PT ROUSSEAU", "address": "GARE PONT ROUSSEAU - RUE DE LA GARE - REZE", "lat": 47.19280351379784, "bikes": 20, "status": "OPEN", "update": "2015-11-02T22:19:03"}, "type": "Feature"}, {"geometry": {"coordinates": [-1.541777739850638, 47.206798618575256], "type": "Point"}, "properties": {"lon": -1.541777739850638, "stands": 15, "name": "00056-VINCENT GACHE", "address": "VINCENT GACHE - 9 RUE FRANCOIS ALBERT", "lat": 47.206798618575256, "bikes": 0, "status": "OPEN", "update": "2015-11-02T22:15:37"}, "type": "Feature"}, {"geometry": {"coordinates": [-1.556126125975167, 47.215331358010445], "type": "Point"}, "properties": {"lon": -1.556126125975167, "stands": 4, "name": "00007- BARILLERIE", "address": "BARILLERIE - 2 ALLEE PENTHIEVRE", "lat": 47.215331358010445, "bikes": 11, "status": "OPEN", "update": "2015-11-02T22:16:35"}, "type": "Feature"}, {"geometry": {"coordinates": [-1.55892310936669, 47.204783935599195], "type": "Point"}, "properties": {"lon": -1.55892310936669, "stands": 7, "name": "00045-PRAIRIE AU DUC", "address": "PRAIRIE AU DUC - 40 BOULEVARD DE LA PRAIRIE AU DUC", "lat": 47.204783935599195, "bikes": 6, "status": "OPEN", "update": "2015-11-02T22:13:39"}, "type": "Feature"}, {"geometry": {"coordinates": [-1.568490581479757, 47.206384991216765], "type": "Point"}, "properties": {"lon": -1.568490581479757, "stands": 15, "name": "00103 - STATION MOBILE", "address": "ILE DE NANTES PARC DES CHANTIERS A COTE DU CARROUSEL  (Station mobile)", "lat": 47.206384991216765, "bikes": 4, "status": "OPEN", "update": "2015-11-02T22:17:39"}, "type": "Feature"}, {"geometry": {"coordinates": [-1.534184544523239, 47.216369613307506], "type": "Point"}, "properties": {"lon": -1.534184544523239, "stands": 24, "name": "00010- PICASSO", "address": "PICASSO - RUE PABLO PICASSO", "lat": 47.216369613307506, "bikes": 4, "status": "OPEN", "update": "2015-11-02T22:12:20"}, "type": "Feature"}, {"geometry": {"coordinates": [-1.542208634875899, 47.218132613316826], "type": "Point"}, "properties": {"lon": -1.542208634875899, "stands": 21, "name": "00062-GARE NORD", "address": "GARE NORD - 1 PLACE CHARLES LE ROUX", "lat": 47.218132613316826, "bikes": 19, "status": "OPEN", "update": "2015-11-02T22:18:42"}, "type": "Feature"}, {"geometry": {"coordinates": [-1.535981000861306, 47.208466072191925], "type": "Point"}, "properties": {"lon": -1.535981000861306, "stands": 12, "name": "00058-PALAIS DES SPORTS", "address": "PALAIS DES SPORTS - 21 RUE RENE VIVIANI", "lat": 47.208466072191925, "bikes": 3, "status": "OPEN", "update": "2015-11-02T22:14:12"}, "type": "Feature"}, {"geometry": {"coordinates": [-1.556344610167984, 47.243263914975486], "type": "Point"}, "properties": {"lon": -1.556344610167984, "stands": 6, "name": "00094-PETIT PORT", "address": "PETIT PORT - BD DU PETIT PORT", "lat": 47.243263914975486, "bikes": 14, "status": "OPEN", "update": "2015-11-02T22:20:31"}, "type": "Feature"}, {"geometry": {"coordinates": [-1.559086551239872, 47.212083030753185], "type": "Point"}, "properties": {"lon": -1.559086551239872, "stands": 0, "name": "00031-BOURSE", "address": "BOURSE - SQUARE DE LA BOURSE", "lat": 47.212083030753185, "bikes": 16, "status": "OPEN", "update": "2015-11-02T22:18:52"}, "type": "Feature"}, {"geometry": {"coordinates": [-1.574924617192968, 47.21433366088933], "type": "Point"}, "properties": {"lon": -1.574924617192968, "stands": 0, "name": "00074-CANCLAUX", "address": "CANCLAUX - 8 PLACE CANCLAUX", "lat": 47.21433366088933, "bikes": 15, "status": "OPEN", "update": "2015-11-02T22:17:56"}, "type": "Feature"}, {"geometry": {"coordinates": [-1.561806393011127, 47.22862569057461], "type": "Point"}, "properties": {"lon": -1.561806393011127, "stands": 4, "name": "00072-BELLAMY-GU\u00c9 MOREAU", "address": "Bellamy-Gu\u00e9 Moreau-138 rue Paul Bellamy", "lat": 47.22862569057461, "bikes": 11, "status": "OPEN", "update": "2015-11-02T22:15:02"}, "type": "Feature"}, {"geometry": {"coordinates": [-1.558920890474776, 47.219854467329974], "type": "Point"}, "properties": {"lon": -1.558920890474776, "stands": 14, "name": "00019-SAINT SIMILIEN", "address": "SAINT SIMILIEN - 1 PLACE SAINT SIMILIEN", "lat": 47.219854467329974, "bikes": 0, "status": "OPEN", "update": "2015-11-02T22:15:47"}, "type": "Feature"}, {"geometry": {"coordinates": [-1.529735885980363, 47.21419463149648], "type": "Point"}, "properties": {"lon": -1.529735885980363, "stands": 16, "name": "00051-TABARLY", "address": "AVENUE DE BERLIN DEVANT MAISON DE QUARTIER", "lat": 47.21419463149648, "bikes": 4, "status": "OPEN", "update": "2015-11-02T22:13:10"}, "type": "Feature"}, {"geometry": {"coordinates": [-1.578689264310988, 47.20743863754715], "type": "Point"}, "properties": {"lon": -1.578689264310988, "stands": 7, "name": "00089-SAINT-AIGNAN", "address": "SAINT AIGNAN - 65 BD ST AIGNAN", "lat": 47.20743863754715, "bikes": 6, "status": "OPEN", "update": "2015-11-02T22:21:38"}, "type": "Feature"}, {"geometry": {"coordinates": [-1.557532467914316, 47.207605640212115], "type": "Point"}, "properties": {"lon": -1.557532467914316, "stands": 23, "name": "00077-ECOLE D'ARCHITECTURE", "address": "ECOLE D'ARCHITECTURE - QUAI F MITTERRAND", "lat": 47.207605640212115, "bikes": 2, "status": "OPEN", "update": "2015-11-02T22:21:59"}, "type": "Feature"}, {"geometry": {"coordinates": [-1.571373578112414, 47.223604815399085], "type": "Point"}, "properties": {"lon": -1.571373578112414, "stands": 12, "name": "00087-ANATOLE FRANCE", "address": "ANATOLE FRANCE - 41 RUE ALEXANDRE DUMAS", "lat": 47.223604815399085, "bikes": 3, "status": "OPEN", "update": "2015-11-02T22:14:35"}, "type": "Feature"}, {"geometry": {"coordinates": [-1.548161311046709, 47.20702417983412], "type": "Point"}, "properties": {"lon": -1.548161311046709, "stands": 9, "name": "00047- MARTYRS NANTAIS", "address": "MARTYRS NANTAIS - 1 BD DES MARTYRS NANTAIS", "lat": 47.20702417983412, "bikes": 6, "status": "OPEN", "update": "2015-11-02T22:18:52"}, "type": "Feature"}, {"geometry": {"coordinates": [-1.540292594289221, 47.22908808709286], "type": "Point"}, "properties": {"lon": -1.540292594289221, "stands": 5, "name": "00097-SAINT DONATIEN", "address": "SAINT DONATIEN - PLACE DU 51\u00e9me RIMA", "lat": 47.22908808709286, "bikes": 15, "status": "OPEN", "update": "2015-11-02T22:14:12"}, "type": "Feature"}, {"geometry": {"coordinates": [-1.557393235628245, 47.21312055103121], "type": "Point"}, "properties": {"lon": -1.557393235628245, "stands": 19, "name": "00030-COMMERCE", "address": "COMMERCE - FACE PLACE DU COMMERCE", "lat": 47.21312055103121, "bikes": 20, "status": "OPEN", "update": "2015-11-02T22:19:26"}, "type": "Feature"}, {"geometry": {"coordinates": [-1.569171883302444, 47.21792981632508], "type": "Point"}, "properties": {"lon": -1.569171883302444, "stands": 11, "name": "00027-GUIST'HAU NORD", "address": "GUIST'HAU NORD - 42 BD GUIST'HAU", "lat": 47.21792981632508, "bikes": 4, "status": "OPEN", "update": "2015-11-02T22:18:50"}, "type": "Feature"}, {"geometry": {"coordinates": [-1.562986793288367, 47.21718482329023], "type": "Point"}, "properties": {"lon": -1.562986793288367, "stands": 12, "name": "00015-PLACE ARISTIDE BRIAND", "address": "PLACE ARISTIDE BRIAND", "lat": 47.21718482329023, "bikes": 5, "status": "OPEN", "update": "2015-11-02T22:12:30"}, "type": "Feature"}, {"geometry": {"coordinates": [-1.530180435959972, 47.208199645038825], "type": "Point"}, "properties": {"lon": -1.530180435959972, "stands": 2, "name": "00083-MILLERAND", "address": "MILLERAND - 9 BD ALEXANDRE MILLERAND", "lat": 47.208199645038825, "bikes": 12, "status": "OPEN", "update": "2015-11-02T22:21:09"}, "type": "Feature"}, {"geometry": {"coordinates": [-1.561744905652581, 47.210886925815934], "type": "Point"}, "properties": {"lon": -1.561744905652581, "stands": 20, "name": "00034-MEDIATHEQUE", "address": "MEDIATHEQUE - 24 QUAI DE LA FOSSE", "lat": 47.210886925815934, "bikes": 0, "status": "OPEN", "update": "2015-11-02T22:20:23"}, "type": "Feature"}, {"geometry": {"coordinates": [-1.572114577993728, 47.229580605369215], "type": "Point"}, "properties": {"lon": -1.572114577993728, "stands": 4, "name": "00091-RD PT VANNES", "address": "RD PT VANNES - 65 BD LE LASSEUR", "lat": 47.229580605369215, "bikes": 12, "status": "OPEN", "update": "2015-11-02T22:16:35"}, "type": "Feature"}, {"geometry": {"coordinates": [-1.555183107916184, 47.20532409029517], "type": "Point"}, "properties": {"lon": -1.555183107916184, "stands": 0, "name": "00046-PLACE REPUBLIQUE", "address": "PLACE DE LA REPUBLIQUE - 3 PLACE DE LA REPUBLIQUE", "lat": 47.20532409029517, "bikes": 20, "status": "OPEN", "update": "2015-11-02T22:21:16"}, "type": "Feature"}, {"geometry": {"coordinates": [-1.557229797031573, 47.222902006053054], "type": "Point"}, "properties": {"lon": -1.557229797031573, "stands": 9, "name": "00020-BELLAMY", "address": "BELLAMY - 50 RUE PAUL BELLAMY", "lat": 47.222902006053054, "bikes": 6, "status": "OPEN", "update": "2015-11-02T22:17:59"}, "type": "Feature"}, {"geometry": {"coordinates": [-1.545507251231619, 47.20095551723967], "type": "Point"}, "properties": {"lon": -1.545507251231619, "stands": 7, "name": "00081 - MANGIN", "address": "MANGIN - DEV 8 PLACE MANGIN", "lat": 47.20095551723967, "bikes": 6, "status": "OPEN", "update": "2015-11-02T22:20:45"}, "type": "Feature"}, {"geometry": {"coordinates": [-1.544298470945214, 47.21078140655944], "type": "Point"}, "properties": {"lon": -1.544298470945214, "stands": 11, "name": "00055-MAGELLAN", "address": "MAGELLAN - 11 RUE DE BELFORT", "lat": 47.21078140655944, "bikes": 3, "status": "OPEN", "update": "2015-11-02T22:14:46"}, "type": "Feature"}, {"geometry": {"coordinates": [-1.540514488290191, 47.20844367718286], "type": "Point"}, "properties": {"lon": -1.540514488290191, "stands": 12, "name": "00078-DE GAULLE", "address": "DE GAULLE - PONT A. BRIAND / BD DE GAULLE", "lat": 47.20844367718286, "bikes": 2, "status": "OPEN", "update": "2015-11-02T22:16:02"}, "type": "Feature"}, {"geometry": {"coordinates": [-1.552147986072217, 47.22777476106513], "type": "Point"}, "properties": {"lon": -1.552147986072217, "stands": 1, "name": "00067-PLACE WALDECK ROUSSEAU", "address": "PLACE WALDECK ROUSSEAU", "lat": 47.22777476106513, "bikes": 18, "status": "OPEN", "update": "2015-11-02T22:16:43"}, "type": "Feature"}, {"geometry": {"coordinates": [-1.537581863003988, 47.205396132179104], "type": "Point"}, "properties": {"lon": -1.537581863003988, "stands": 15, "name": "00057-GAETAN RONDEAU", "address": "GAETAN RONDEAU - 20 RUE GAETAN RONDEAU", "lat": 47.205396132179104, "bikes": 5, "status": "OPEN", "update": "2015-11-02T22:21:20"}, "type": "Feature"}, {"geometry": {"coordinates": [-1.536511118183477, 47.213237140630014], "type": "Point"}, "properties": {"lon": -1.536511118183477, "stands": 11, "name": "00079-MALAKOFF", "address": "MALAKOFF - 15 QUAI MALAKOFF", "lat": 47.213237140630014, "bikes": 4, "status": "OPEN", "update": "2015-11-02T22:12:57"}, "type": "Feature"}, {"geometry": {"coordinates": [-1.571369360221906, 47.21230895884701], "type": "Point"}, "properties": {"lon": -1.571369360221906, "stands": 1, "name": "00075-LAMORICIERE", "address": "LAMORICIERE - PLACE BEAUMANOIR", "lat": 47.21230895884701, "bikes": 17, "status": "OPEN", "update": "2015-11-02T22:12:48"}, "type": "Feature"}, {"geometry": {"coordinates": [-1.563308366869757, 47.22142933898549], "type": "Point"}, "properties": {"lon": -1.563308366869757, "stands": 12, "name": "00018-PLACE VIARME", "address": "PLACE VIARME - 23 PLACE VIARME", "lat": 47.22142933898549, "bikes": 2, "status": "OPEN", "update": "2015-11-02T22:20:26"}, "type": "Feature"}, {"geometry": {"coordinates": [-1.556421138973112, 47.234687038295554], "type": "Point"}, "properties": {"lon": -1.556421138973112, "stands": 24, "name": "00095-MICHELET", "address": "MICHELET - BD MICHELET", "lat": 47.234687038295554, "bikes": 1, "status": "OPEN", "update": "2015-11-02T22:22:04"}, "type": "Feature"}, {"geometry": {"coordinates": [-1.560022819676629, 47.226394430986105], "type": "Point"}, "properties": {"lon": -1.560022819676629, "stands": 2, "name": "00085-BEL AIR", "address": "BEL AIR - 102 RUE PAUL BELLAMY", "lat": 47.226394430986105, "bikes": 12, "status": "OPEN", "update": "2015-11-02T22:13:07"}, "type": "Feature"}, {"geometry": {"coordinates": [-1.56605906933562, 47.23302818477594], "type": "Point"}, "properties": {"lon": -1.56605906933562, "stands": 11, "name": "00092-DT PT RENNES", "address": "RD PT RENNES - ANGLE BD LE LASSEUR & RUE PAUL BELLAMY", "lat": 47.23302818477594, "bikes": 9, "status": "OPEN", "update": "2015-11-02T22:20:06"}, "type": "Feature"}, {"geometry": {"coordinates": [-1.539712888264826, 47.21391161818379], "type": "Point"}, "properties": {"lon": -1.539712888264826, "stands": 12, "name": "00059-STADE SAUPIN", "address": "STADE SAUPIN - 35 QUAI MALAKOFF", "lat": 47.21391161818379, "bikes": 3, "status": "OPEN", "update": "2015-11-02T22:19:10"}, "type": "Feature"}, {"geometry": {"coordinates": [-1.549886024937758, 47.211736393222054], "type": "Point"}, "properties": {"lon": -1.549886024937758, "stands": 9, "name": "00053-OLIVETTES", "address": "OLIVETTES - 10 RUE DES OLIVETTES", "lat": 47.211736393222054, "bikes": 5, "status": "OPEN", "update": "2015-11-02T22:22:16"}, "type": "Feature"}, {"geometry": {"coordinates": [-1.570515336280715, 47.209429092524424], "type": "Point"}, "properties": {"lon": -1.570515336280715, "stands": 2, "name": "00076-PLACE REN\u00c9 BOUHIER", "address": "PLACE RENE BOUHIER - 8 PLACE RENE BOUHIER", "lat": 47.209429092524424, "bikes": 13, "status": "OPEN", "update": "2015-11-02T22:17:25"}, "type": "Feature"}, {"geometry": {"coordinates": [-1.557111680197571, 47.21620089258823], "type": "Point"}, "properties": {"lon": -1.557111680197571, "stands": 9, "name": "00008-BOUCHERIE", "address": "BOUCHERIE - FACE AU 4 RUE DE LA BOUCHERIE", "lat": 47.21620089258823, "bikes": 10, "status": "OPEN", "update": "2015-11-02T22:17:22"}, "type": "Feature"}, {"geometry": {"coordinates": [-1.570438598073934, 47.220882433018865], "type": "Point"}, "properties": {"lon": -1.570438598073934, "stands": 7, "name": "00073-SARRADIN", "address": "SARRADIN - FACE AU 4 PLACE SARRADIN", "lat": 47.220882433018865, "bikes": 6, "status": "OPEN", "update": "2015-11-02T22:12:51"}, "type": "Feature"}, {"geometry": {"coordinates": [-1.547058938534335, 47.21651740326776], "type": "Point"}, "properties": {"lon": -1.547058938534335, "stands": 3, "name": "00049-DUCHESSE ANNE", "address": "DUCHESSE ANNE - 2 PLACE DE LA DUCHESSE ANNE", "lat": 47.21651740326776, "bikes": 12, "status": "OPEN", "update": "2015-11-02T22:12:26"}, "type": "Feature"}, {"geometry": {"coordinates": [-1.555309011107301, 47.246298068423485], "type": "Point"}, "properties": {"lon": -1.555309011107301, "stands": 40, "name": "00093-FACULTES", "address": "FACULTES - ANGLE ROUTE DE LA JONELIERE & BD G. MOLLET", "lat": 47.246298068423485, "bikes": 0, "status": "OPEN", "update": "2015-11-02T22:13:56"}, "type": "Feature"}, {"geometry": {"coordinates": [-1.551849784370311, 47.217505374678645], "type": "Point"}, "properties": {"lon": -1.551849784370311, "stands": 5, "name": "00048-VERDUN", "address": "VERDUN - 15 RUE DE VERDUN", "lat": 47.217505374678645, "bikes": 9, "status": "OPEN", "update": "2015-11-02T22:13:35"}, "type": "Feature"}, {"geometry": {"coordinates": [-1.55408380740881, 47.220255183724454], "type": "Point"}, "properties": {"lon": -1.55408380740881, "stands": 14, "name": "00001-PREFECTURE", "address": "PREFECTURE - 5 QUAI CEINERAY", "lat": 47.220255183724454, "bikes": 9, "status": "OPEN", "update": "2015-11-02T22:14:16"}, "type": "Feature"}, {"geometry": {"coordinates": [-1.542404741250403, 47.227145468224634], "type": "Point"}, "properties": {"lon": -1.542404741250403, "stands": 7, "name": "00023-BUAT", "address": "BUAT - 118 RUE DE COULMIERS", "lat": 47.227145468224634, "bikes": 4, "status": "OPEN", "update": "2015-11-02T22:18:30"}, "type": "Feature"}, {"geometry": {"coordinates": [-1.576612843727262, 47.22419506173264], "type": "Point"}, "properties": {"lon": -1.576612843727262, "stands": 8, "name": "00090-PROCE", "address": "PROCE - ANGLE BD G. SERPETTE & BD A. PAGEOT", "lat": 47.22419506173264, "bikes": 7, "status": "OPEN", "update": "2015-11-02T22:15:21"}, "type": "Feature"}, {"geometry": {"coordinates": [-1.5502297, 47.2191122], "type": "Point"}, "properties": {"lon": -1.5502297, "stands": 3, "name": "00032-FOCH", "address": "FOCH - PLACE FOCH", "lat": 47.2191122, "bikes": 12, "status": "OPEN", "update": "2015-11-02T22:22:06"}, "type": "Feature"}, {"geometry": {"coordinates": [-1.561570147641708, 47.21921395261352], "type": "Point"}, "properties": {"lon": -1.561570147641708, "stands": 14, "name": "00017-SAINTE ELISABETH", "address": "SAINTE ELISABTEH - 3 PLACE STE ELISABETH", "lat": 47.21921395261352, "bikes": 0, "status": "OPEN", "update": "2015-11-02T22:14:53"}, "type": "Feature"}, {"geometry": {"coordinates": [-1.555269922656021, 47.213450231365094], "type": "Point"}, "properties": {"lon": -1.555269922656021, "stands": 9, "name": "00029-DUGUAY TROUIN", "address": "DUGUAY TROUIN - 7 ALLEE DUGUAY TROUIN", "lat": 47.213450231365094, "bikes": 5, "status": "OPEN", "update": "2015-11-02T22:20:05"}, "type": "Feature"}, {"geometry": {"coordinates": [-1.550226242563373, 47.21514969516256], "type": "Point"}, "properties": {"lon": -1.550226242563373, "stands": 3, "name": "00050-CHATEAU", "address": "CHATEAU - 2 RUE DES ETATS", "lat": 47.21514969516256, "bikes": 13, "status": "OPEN", "update": "2015-11-02T22:15:50"}, "type": "Feature"}, {"geometry": {"coordinates": [-1.5568245371939, 47.211465063355035], "type": "Point"}, "properties": {"lon": -1.5568245371939, "stands": 21, "name": "00037-FEYDEAU", "address": "FEYDEAU - 1 ALLEE ILE GLORIETTE", "lat": 47.211465063355035, "bikes": 0, "status": "OPEN", "update": "2015-11-02T22:20:23"}, "type": "Feature"}, {"geometry": {"coordinates": [-1.567501842502272, 47.22547062698044], "type": "Point"}, "properties": {"lon": -1.567501842502272, "stands": 9, "name": "00086-HAUTS PAV\u00c9S", "address": "HAUT PAVES - ANGLE RUE DE BERRY/RUE DES HAUTS PAVES", "lat": 47.22547062698044, "bikes": 7, "status": "OPEN", "update": "2015-11-02T22:14:24"}, "type": "Feature"}, {"geometry": {"coordinates": [-1.555233144631466, 47.209406573873714], "type": "Point"}, "properties": {"lon": -1.555233144631466, "stands": 18, "name": "00039-QUAI MONCOUSU", "address": "QUAI MONCOUSU - 11 QUAI MONCOUSU", "lat": 47.209406573873714, "bikes": 0, "status": "OPEN", "update": "2015-11-02T22:15:53"}, "type": "Feature"}, {"geometry": {"coordinates": [-1.565543986075099, 47.212168974412094], "type": "Point"}, "properties": {"lon": -1.565543986075099, "stands": 10, "name": "00035-JEAN V", "address": "JEAN V - 2 PLACE JEAN V", "lat": 47.212168974412094, "bikes": 5, "status": "OPEN", "update": "2015-11-02T22:13:16"}, "type": "Feature"}, {"geometry": {"coordinates": [-1.529959592703474, 47.223508869811994], "type": "Point"}, "properties": {"lon": -1.529959592703474, "stands": 0, "name": "00025-DALBY", "address": "DALBY- 61 BD ERNEST DALBY FACE STATION SERVICE", "lat": 47.223508869811994, "bikes": 15, "status": "OPEN", "update": "2015-11-02T22:20:27"}, "type": "Feature"}, {"geometry": {"coordinates": [-1.561173077989395, 47.20831728844152], "type": "Point"}, "properties": {"lon": -1.561173077989395, "stands": 23, "name": "00044-PALAIS DE JUSTICE", "address": "PALAIS DE JUSTICE - 19 QUAI FRANCOIS MITTERAND", "lat": 47.20831728844152, "bikes": 2, "status": "OPEN", "update": "2015-11-02T22:15:24"}, "type": "Feature"}, {"geometry": {"coordinates": [-1.536540663464699, 47.1958989090141], "type": "Point"}, "properties": {"lon": -1.536540663464699, "stands": 0, "name": "00099-ST JACQUES", "address": "ST JACQUES - RUE ST JACQUES", "lat": 47.1958989090141, "bikes": 14, "status": "OPEN", "update": "2015-11-02T22:12:37"}, "type": "Feature"}, {"geometry": {"coordinates": [-1.551548484803203, 47.204003208491145], "type": "Point"}, "properties": {"lon": -1.551548484803203, "stands": 10, "name": "00080 - VICTOR HUGO", "address": "VICTOR HUGO - BD VICTOR HUGO", "lat": 47.204003208491145, "bikes": 5, "status": "OPEN", "update": "2015-11-02T22:21:53"}, "type": "Feature"}, {"geometry": {"coordinates": [-1.545905939112105, 47.215591463959825], "type": "Point"}, "properties": {"lon": -1.545905939112105, "stands": 11, "name": "00061-LU - LIEU UNIQUE", "address": "LIEU UNIQUE - FACE 23 QUAI FERDINAND FAVRE", "lat": 47.215591463959825, "bikes": 4, "status": "OPEN", "update": "2015-11-02T22:12:43"}, "type": "Feature"}, {"geometry": {"coordinates": [-1.556476339327795, 47.22114332912908], "type": "Point"}, "properties": {"lon": -1.556476339327795, "stands": 6, "name": "00021-MARCHE TALENSAC SUD", "address": "MARCHE TALENSAC SUD - 6 RUE TALENSAC", "lat": 47.22114332912908, "bikes": 9, "status": "OPEN", "update": "2015-11-02T22:14:53"}, "type": "Feature"}, {"geometry": {"coordinates": [-1.558940746690739, 47.22185363818837], "type": "Point"}, "properties": {"lon": -1.558940746690739, "stands": 5, "name": "00071-MARCHE TALENSAC NORD", "address": "MARCHE TALENSAC NORD - 18 RUE TALENSAC", "lat": 47.22185363818837, "bikes": 9, "status": "OPEN", "update": "2015-11-02T22:13:13"}, "type": "Feature"}, {"geometry": {"coordinates": [-1.569524048742154, 47.208357479819504], "type": "Point"}, "properties": {"lon": -1.569524048742154, "stands": 2, "name": "00041-CHANTIER NAVAL", "address": "CHANTIER NAVAL - 87 QUAI DE LA FOSSE", "lat": 47.208357479819504, "bikes": 12, "status": "OPEN", "update": "2015-11-02T22:17:48"}, "type": "Feature"}, {"geometry": {"coordinates": [-1.563900673465861, 47.21515818868574], "type": "Point"}, "properties": {"lon": -1.563900673465861, "stands": 20, "name": "00012-PLACE DELORME", "address": "PLACE DELORME", "lat": 47.21515818868574, "bikes": 0, "status": "OPEN", "update": "2015-11-02T22:21:10"}, "type": "Feature"}, {"geometry": {"coordinates": [-1.550828036456355, 47.18921204751304], "type": "Point"}, "properties": {"lon": -1.550828036456355, "stands": 1, "name": "00098-HUIT MAI", "address": "HUIT MAI - AVENUE DE LA LIBERATION - REZE", "lat": 47.18921204751304, "bikes": 14, "status": "OPEN", "update": "2015-11-02T22:15:11"}, "type": "Feature"}, {"geometry": {"coordinates": [-1.567004526265165, 47.21682795997449], "type": "Point"}, "properties": {"lon": -1.567004526265165, "stands": 14, "name": "00026-GUIST'HAU SUD", "address": "GUIST'HAU SUD - 26 BOULEVARD GUIST'HAU", "lat": 47.21682795997449, "bikes": 1, "status": "OPEN", "update": "2015-11-02T22:18:33"}, "type": "Feature"}, {"geometry": {"coordinates": [-1.548750555741977, 47.214327524589145], "type": "Point"}, "properties": {"lon": -1.548750555741977, "stands": 12, "name": "00052-BACO", "address": "BACO - FACE AU 8 ALLEE BACO", "lat": 47.214327524589145, "bikes": 2, "status": "OPEN", "update": "2015-11-02T22:19:58"}, "type": "Feature"}, {"geometry": {"coordinates": [-1.560675283700123, 47.215578942427136], "type": "Point"}, "properties": {"lon": -1.560675283700123, "stands": 15, "name": "00011-CALVAIRE", "address": "CALVAIRE - PL.DES VOLONTAIRES DE LA DEFENSE PASSIVE", "lat": 47.215578942427136, "bikes": 0, "status": "OPEN", "update": "2015-11-02T22:16:49"}, "type": "Feature"}, {"geometry": {"coordinates": [-1.544718964531585, 47.219834197318974], "type": "Point"}, "properties": {"lon": -1.544718964531585, "stands": 7, "name": "00063-JARDIN DES PLANTES", "address": "JARDIN DES PLANTES - 6 RUE STANILAS BAUDRY", "lat": 47.219834197318974, "bikes": 8, "status": "OPEN", "update": "2015-11-02T22:19:12"}, "type": "Feature"}, {"geometry": {"coordinates": [-1.563419484053747, 47.21902754473837], "type": "Point"}, "properties": {"lon": -1.563419484053747, "stands": 15, "name": "00016-PLACE EDOUARD NORMAND", "address": "PLACE EDOUARD NORMAND - FACE AU 7 PLACE EDOUARD NORMAND", "lat": 47.21902754473837, "bikes": 0, "status": "OPEN", "update": "2015-11-02T22:19:05"}, "type": "Feature"}, {"geometry": {"coordinates": [-1.577175414321782, 47.211501070117826], "type": "Point"}, "properties": {"lon": -1.577175414321782, "stands": 0, "name": "00088-MELLINET", "address": "MELLINET - 1 BD ALLARD", "lat": 47.211501070117826, "bikes": 15, "status": "OPEN", "update": "2015-11-02T22:19:50"}, "type": "Feature"}, {"geometry": {"coordinates": [-1.542844, 47.215505], "type": "Point"}, "properties": {"lon": -1.542844, "stands": 4, "name": "00070-GARE SUD 2", "address": "Quai Malakoff - c\u00f4t\u00e9 canal st F\u00e9lix", "lat": 47.215505, "bikes": 26, "status": "OPEN", "update": "2015-11-02T22:20:15"}, "type": "Feature"}, {"geometry": {"coordinates": [-1.5543847138777, 47.216667582015184], "type": "Point"}, "properties": {"lon": -1.5543847138777, "stands": 5, "name": "00004-MOULIN", "address": "MOULIN - FACE AU 18 RUE DU MOULIN", "lat": 47.216667582015184, "bikes": 8, "status": "OPEN", "update": "2015-11-02T22:20:38"}, "type": "Feature"}, {"geometry": {"coordinates": [-1.549221766809888, 47.235335222208626], "type": "Point"}, "properties": {"lon": -1.549221766809888, "stands": 2, "name": "00096-TORTIERE", "address": "TORTIERE - BD EUGENE ORIEUX", "lat": 47.235335222208626, "bikes": 13, "status": "OPEN", "update": "2015-11-02T22:19:36"}, "type": "Feature"}, {"geometry": {"coordinates": [-1.547099233718495, 47.221785183522634], "type": "Point"}, "properties": {"lon": -1.547099233718495, "stands": 2, "name": "00064-SAINT CLEMENT", "address": "SAINT CLEMENT - FACE AU 37 RUE DU MARECHAL JOFFRE", "lat": 47.221785183522634, "bikes": 12, "status": "OPEN", "update": "2015-11-02T22:15:26"}, "type": "Feature"}, {"geometry": {"coordinates": [-1.559017485167438, 47.215814587139455], "type": "Point"}, "properties": {"lon": -1.559017485167438, "stands": 8, "name": "00009-GUEPIN", "address": "GUEPIN - 8 RUE DE L'ARCHE SECHE", "lat": 47.215814587139455, "bikes": 6, "status": "OPEN", "update": "2015-11-02T22:15:04"}, "type": "Feature"}, {"geometry": {"coordinates": [-1.563140874431397, 47.213522613719896], "type": "Point"}, "properties": {"lon": -1.563140874431397, "stands": 14, "name": "00033-RACINE", "address": "RACINE - 4 RUE RACINE", "lat": 47.213522613719896, "bikes": 1, "status": "OPEN", "update": "2015-11-02T22:13:40"}, "type": "Feature"}, {"geometry": {"coordinates": [-1.542847782057658, 47.215919436013635], "type": "Point"}, "properties": {"lon": -1.542847782057658, "stands": 9, "name": "00060-GARE SUD", "address": "GARE SUD - FACE 12 RUE LOURMEL", "lat": 47.215919436013635, "bikes": 31, "status": "OPEN", "update": "2015-11-02T22:18:48"}, "type": "Feature"}, {"geometry": {"coordinates": [-1.553711961402328, 47.22451490719107], "type": "Point"}, "properties": {"lon": -1.553711961402328, "stands": 3, "name": "00024-VERSAILLES", "address": "VERSAILLES - FACE AU 25 QUAI DE VERSAILLES", "lat": 47.22451490719107, "bikes": 12, "status": "OPEN", "update": "2015-11-02T22:17:45"}, "type": "Feature"}, {"geometry": {"coordinates": [-1.535847443276377, 47.219216380711345], "type": "Point"}, "properties": {"lon": -1.535847443276377, "stands": 0, "name": "00069 - MANUFACTURE", "address": "MANUFACTURE - 11 BIS BD STALINGRAD", "lat": 47.219216380711345, "bikes": 13, "status": "OPEN", "update": "2015-11-02T22:14:48"}, "type": "Feature"}, {"geometry": {"coordinates": [-1.566655339669288, 47.210693859551135], "type": "Point"}, "properties": {"lon": -1.566655339669288, "stands": 2, "name": "00036-ALGER", "address": "ALGER - 5 RUE D'ALGER", "lat": 47.210693859551135, "bikes": 13, "status": "OPEN", "update": "2015-11-02T22:12:32"}, "type": "Feature"}, {"geometry": {"coordinates": [-1.533118244923623, 47.206757512308414], "type": "Point"}, "properties": {"lon": -1.533118244923623, "stands": 16, "name": "00082-SEBILLEAU", "address": "SEBILLEAU - 9 RUE GAETAN RONDEAU", "lat": 47.206757512308414, "bikes": 0, "status": "OPEN", "update": "2015-11-02T22:21:32"}, "type": "Feature"}, {"geometry": {"coordinates": [-1.556749263076553, 47.218837230469425], "type": "Point"}, "properties": {"lon": -1.556749263076553, "stands": 5, "name": "00005-BROSSARD", "address": "BROSSARD - 25 RUE ARMAND BROSSARD", "lat": 47.218837230469425, "bikes": 9, "status": "OPEN", "update": "2015-11-02T22:15:54"}, "type": "Feature"}, {"geometry": {"coordinates": [-1.54156809120326, 47.1965313642396], "type": "Point"}, "properties": {"lon": -1.54156809120326, "stands": 2, "name": "00101 - PIRMIL", "address": "PIRMIL - RUE ESNOUL DES CHATELETS", "lat": 47.1965313642396, "bikes": 25, "status": "OPEN", "update": "2015-11-02T22:21:43"}, "type": "Feature"}, {"geometry": {"coordinates": [-1.534717540470481, 47.199923092905216], "type": "Point"}, "properties": {"lon": -1.534717540470481, "stands": 4, "name": "00100 - GRENERAIE", "address": "GRENERAIE - PARC DE LA GRENERAIE", "lat": 47.199923092905216, "bikes": 14, "status": "OPEN", "update": "2015-11-02T22:20:00"}, "type": "Feature"}, {"geometry": {"coordinates": [-1.544952541668585, 47.213180085527846], "type": "Point"}, "properties": {"lon": -1.544952541668585, "stands": 18, "name": "00054- CITE INTERNATIONALE DES CONGRES", "address": "CITE INTERNATIONAL DES CONGRES - 2 RUE DE JEMMAPES", "lat": 47.213180085527846, "bikes": 12, "status": "OPEN", "update": "2015-11-02T22:12:30"}, "type": "Feature"}, {"geometry": {"coordinates": [-1.567568016663838, 47.21446342738575], "type": "Point"}, "properties": {"lon": -1.567568016663838, "stands": 5, "name": "00028- PLACE DE L'EDIT NANTES", "address": "PLACE DE L'EDIT DE NANTES", "lat": 47.21446342738575, "bikes": 8, "status": "OPEN", "update": "2015-11-02T22:20:42"}, "type": "Feature"}, {"geometry": {"coordinates": [-1.545212434215091, 47.22406787948748], "type": "Point"}, "properties": {"lon": -1.545212434215091, "stands": 10, "name": "00068-LIVET", "address": "LIVET - FACE AU 65 RUE DU FOUR", "lat": 47.22406787948748, "bikes": 5, "status": "OPEN", "update": "2015-11-02T22:14:54"}, "type": "Feature"}, {"geometry": {"coordinates": [-1.551666442545979, 47.222587339906696], "type": "Point"}, "properties": {"lon": -1.551666442545979, "stands": 0, "name": "00065-COURS SULLY", "address": "COURS SULLY - FACE AU 9 COURS SULLY", "lat": 47.222587339906696, "bikes": 15, "status": "OPEN", "update": "2015-11-02T22:17:10"}, "type": "Feature"}, {"geometry": {"coordinates": [-1.559161066618992, 47.216787949913034], "type": "Point"}, "properties": {"lon": -1.559161066618992, "stands": 10, "name": "00013-BRETAGNE SUD", "address": "BRETAGNE SUD - 1 RUE PIERRE CHEREAU", "lat": 47.216787949913034, "bikes": 9, "status": "OPEN", "update": "2015-11-02T22:21:08"}, "type": "Feature"}, {"geometry": {"coordinates": [-1.556937645378872, 47.21759668240601], "type": "Point"}, "properties": {"lon": -1.556937645378872, "stands": 9, "name": "00006-PLACE DU CIRQUE", "address": "PLACE DU CIRQUE - 7 ALLEE DUQUESNE", "lat": 47.21759668240601, "bikes": 6, "status": "OPEN", "update": "2015-11-02T22:17:10"}, "type": "Feature"}], "type": "FeatureCollection"}