{"features": [{"geometry": {"coordinates": [25.28001237, 54.68300406], "type": "Point"}, "properties": {"lon": 25.28001237, "stands": 21, "name": "18-VILNIAUS G.", "address": "Vilniaus g. \u2013 Islandijos g. sankry\u017ea", "lat": 54.68300406, "bikes": 0, "status": "CLOSED", "update": "2015-11-02T22:17:02"}, "type": "Feature"}, {"geometry": {"coordinates": [25.27933285, 54.69221264], "type": "Point"}, "properties": {"lon": 25.27933285, "stands": 13, "name": "27-\u017dALIASIS TILTAS", "address": "Kalvarij\u0173 g. \u2013 \u017dvej\u0173 g. sankry\u017ea", "lat": 54.69221264, "bikes": 5, "status": "CLOSED", "update": "2015-11-02T22:15:35"}, "type": "Feature"}, {"geometry": {"coordinates": [25.28560002, 54.68590826], "type": "Point"}, "properties": {"lon": 25.28560002, "stands": 21, "name": "1-ARKIKATEDRA", "address": "\u0160ventaragio g.", "lat": 54.68590826, "bikes": 0, "status": "CLOSED", "update": "2015-11-02T22:21:06"}, "type": "Feature"}, {"geometry": {"coordinates": [25.26644, 54.698543], "type": "Point"}, "properties": {"lon": 25.26644, "stands": 14, "name": "33-LIETUVOS VAIK\u0172 IR JAUNIMO CENTRAS", "address": "Konstitucijos pr. (\u0161alia Lietuvos vaik\u0173 ir jaunimo centro)", "lat": 54.698543, "bikes": 4, "status": "CLOSED", "update": "2015-11-02T22:18:36"}, "type": "Feature"}, {"geometry": {"coordinates": [25.29316907, 54.68866096], "type": "Point"}, "properties": {"lon": 25.29316907, "stands": 9, "name": "10-KALN\u0172 PARKAS", "address": "T. Kosciu\u0161kos g.", "lat": 54.68866096, "bikes": 0, "status": "CLOSED", "update": "2015-11-02T22:21:10"}, "type": "Feature"}, {"geometry": {"coordinates": [25.304181, 54.705339], "type": "Point"}, "properties": {"lon": 25.304181, "stands": 1, "name": "38-\u0160ILO TILTAS", "address": "\u017dirm\u016bn\u0173 g. - Minties g. sankry\u017ea", "lat": 54.705339, "bikes": 11, "status": "CLOSED", "update": "2015-11-02T22:17:33"}, "type": "Feature"}, {"geometry": {"coordinates": [25.2786606, 54.69546047], "type": "Point"}, "properties": {"lon": 25.2786606, "stands": 16, "name": "23-EUROPOS A.", "address": "Konstitucijos pr. (Europos aik\u0161t\u0117)", "lat": 54.69546047, "bikes": 11, "status": "CLOSED", "update": "2015-11-02T22:17:13"}, "type": "Feature"}, {"geometry": {"coordinates": [25.25819165, 54.69850622], "type": "Point"}, "properties": {"lon": 25.25819165, "stands": 18, "name": "25-PANORAMA", "address": "Saltoni\u0161ki\u0173 g. (PC \u201ePanorama\u201c)", "lat": 54.69850622, "bikes": 0, "status": "CLOSED", "update": "2015-11-02T22:18:41"}, "type": "Feature"}, {"geometry": {"coordinates": [25.28861228, 54.6762269], "type": "Point"}, "properties": {"lon": 25.28861228, "stands": 12, "name": "5-FILHARMONIJA", "address": "Did\u017eioji g. \u2013 Suba\u010diaus g. sankry\u017ea", "lat": 54.6762269, "bikes": 0, "status": "CLOSED", "update": "2015-11-02T22:13:52"}, "type": "Feature"}, {"geometry": {"coordinates": [25.27784234, 54.6791769], "type": "Point"}, "properties": {"lon": 25.27784234, "stands": 21, "name": "20-TRAK\u0172", "address": "Pylimo g. (prie\u0161ais kino teatr\u0105 \u201eLietuva\u201c)", "lat": 54.6791769, "bikes": 0, "status": "CLOSED", "update": "2015-11-02T22:17:36"}, "type": "Feature"}, {"geometry": {"coordinates": [25.27821042, 54.69049166], "type": "Point"}, "properties": {"lon": 25.27821042, "stands": 15, "name": "28-OPEROS IR BALETO TEATRAS", "address": "A. Vienuolio g. \u2013 A. Go\u0161tauto g. sankry\u017ea", "lat": 54.69049166, "bikes": 0, "status": "CLOSED", "update": "2015-11-02T22:23:13"}, "type": "Feature"}, {"geometry": {"coordinates": [25.29664, 54.712375], "type": "Point"}, "properties": {"lon": 25.29664, "stands": 27, "name": "40-OGMIOS MIESTAS", "address": "Luk\u0161io g. (Ogmios miestas)", "lat": 54.712375, "bikes": 0, "status": "CLOSED", "update": "2015-11-02T22:21:41"}, "type": "Feature"}, {"geometry": {"coordinates": [25.28283084, 54.67059724], "type": "Point"}, "properties": {"lon": 25.28283084, "stands": 12, "name": "36-AUTOBUS\u0172 STOTIS", "address": "Gele\u017einkelio g. \u2013 Stoties g. sankry\u017ea (\u0161alia Autobus\u0173 stoties)", "lat": 54.67059724, "bikes": 0, "status": "CLOSED", "update": "2015-11-02T22:20:19"}, "type": "Feature"}, {"geometry": {"coordinates": [25.28903636, 54.69180897], "type": "Point"}, "properties": {"lon": 25.28903636, "stands": 6, "name": "29-\u017dALGIRIO STADIONAS", "address": "Rinktin\u0117s g. \u2013 A. Juozapavi\u010diaus g. sankry\u017e\u0105", "lat": 54.69180897, "bikes": 6, "status": "CLOSED", "update": "2015-11-02T22:23:27"}, "type": "Feature"}, {"geometry": {"coordinates": [25.25728122, 54.695651], "type": "Point"}, "properties": {"lon": 25.25728122, "stands": 18, "name": "26-EDUKOLOGIJOS UNIVERSITETAS", "address": "Up\u0117s g. \u2013 Student\u0173 g. sankry\u017ea", "lat": 54.695651, "bikes": 0, "status": "CLOSED", "update": "2015-11-02T22:15:03"}, "type": "Feature"}, {"geometry": {"coordinates": [25.28745212, 54.67788858], "type": "Point"}, "properties": {"lon": 25.28745212, "stands": 12, "name": "4-\u0160V. KAZIMIERO BA\u017dNY\u010cIA", "address": "Did\u017eioji g.", "lat": 54.67788858, "bikes": 0, "status": "CLOSED", "update": "2015-11-02T22:23:15"}, "type": "Feature"}, {"geometry": {"coordinates": [25.28717553, 54.68870707], "type": "Point"}, "properties": {"lon": 25.28717553, "stands": 9, "name": "11-KARALIAUS MINDAUGO", "address": "\u017dygimant\u0173 g.", "lat": 54.68870707, "bikes": 6, "status": "CLOSED", "update": "2015-11-02T22:21:23"}, "type": "Feature"}, {"geometry": {"coordinates": [25.2711658, 54.69207484], "type": "Point"}, "properties": {"lon": 25.2711658, "stands": 6, "name": "21-VA\u0160INGTONO A.", "address": "J. Tumo-Vai\u017eganto g. \u2013 Luki\u0161ki\u0173 a. sankry\u017ea", "lat": 54.69207484, "bikes": 6, "status": "CLOSED", "update": "2015-11-02T22:14:16"}, "type": "Feature"}, {"geometry": {"coordinates": [25.2855307, 54.67422353], "type": "Point"}, "properties": {"lon": 25.2855307, "stands": 9, "name": "6-HAL\u0116S TURGAVIET\u0116", "address": "Vis\u0173 \u0160vent\u0173j\u0173 g. \u2013 Bazilijon\u0173 g. sankry\u017ea", "lat": 54.67422353, "bikes": 0, "status": "CLOSED", "update": "2015-11-02T22:13:54"}, "type": "Feature"}, {"geometry": {"coordinates": [25.28207902, 54.68094054], "type": "Point"}, "properties": {"lon": 25.28207902, "stands": 24, "name": "19-S. N\u0116RIES GIMNAZIJA", "address": "Vokie\u010di\u0173 g. \u2013 Dominikon\u0173 g. sankry\u017ea", "lat": 54.68094054, "bikes": 0, "status": "CLOSED", "update": "2015-11-02T22:15:45"}, "type": "Feature"}, {"geometry": {"coordinates": [25.26344367, 54.69008355], "type": "Point"}, "properties": {"lon": 25.26344367, "stands": 24, "name": "15-M. MA\u017dVYDO BIBLIOTEKA", "address": "Gedimino pr. \u2013 Gyn\u0117j\u0173 g. sankry\u017ea", "lat": 54.69008355, "bikes": 0, "status": "CLOSED", "update": "2015-11-02T22:18:32"}, "type": "Feature"}, {"geometry": {"coordinates": [25.27496123, 54.6941691], "type": "Point"}, "properties": {"lon": 25.27496123, "stands": 24, "name": "22-VCUP", "address": "Up\u0117s g. (\u0161alia VCUP)", "lat": 54.6941691, "bikes": 0, "status": "CLOSED", "update": "2015-11-02T22:22:07"}, "type": "Feature"}, {"geometry": {"coordinates": [25.27703073, 54.68476062], "type": "Point"}, "properties": {"lon": 25.27703073, "stands": 21, "name": "17-P. CVIRKOS", "address": "Pam\u0117nkalnio g. \u2013 Jogailos g. sankry\u017ea", "lat": 54.68476062, "bikes": 0, "status": "CLOSED", "update": "2015-11-02T22:17:19"}, "type": "Feature"}, {"geometry": {"coordinates": [25.28012935, 54.68727317], "type": "Point"}, "properties": {"lon": 25.28012935, "stands": 15, "name": "12-V. KUDIRKOS A.", "address": "Gedimino pr. (V. Kudirkos aik\u0161t\u0117)", "lat": 54.68727317, "bikes": 0, "status": "CLOSED", "update": "2015-11-02T22:13:47"}, "type": "Feature"}, {"geometry": {"coordinates": [25.27663297, 54.68785091], "type": "Point"}, "properties": {"lon": 25.27663297, "stands": 11, "name": "13-A. VIENUOLIO", "address": "Gedimino pr.", "lat": 54.68785091, "bikes": 7, "status": "CLOSED", "update": "2015-11-02T22:18:27"}, "type": "Feature"}, {"geometry": {"coordinates": [25.26611228, 54.69631647], "type": "Point"}, "properties": {"lon": 25.26611228, "stands": 8, "name": "24-FORUM PALACE", "address": "Up\u0117s g. \u2013 G. Baravyko g. sankry\u017ea", "lat": 54.69631647, "bikes": 4, "status": "CLOSED", "update": "2015-11-02T22:19:02"}, "type": "Feature"}, {"geometry": {"coordinates": [25.2884646, 54.68093041], "type": "Point"}, "properties": {"lon": 25.2884646, "stands": 21, "name": "3-K. SIRVYDO SKV.", "address": "Pilies g. \u2013 Bok\u0161to g. sankry\u017ea", "lat": 54.68093041, "bikes": 0, "status": "CLOSED", "update": "2015-11-02T22:13:50"}, "type": "Feature"}, {"geometry": {"coordinates": [25.27143064, 54.68681715], "type": "Point"}, "properties": {"lon": 25.27143064, "stands": 12, "name": "16-TAURO KALNAS", "address": "Pam\u0117nkalnio g. \u2013 Tauro g. sankry\u017ea", "lat": 54.68681715, "bikes": 0, "status": "CLOSED", "update": "2015-11-02T22:16:22"}, "type": "Feature"}, {"geometry": {"coordinates": [25.28417915, 54.67115499], "type": "Point"}, "properties": {"lon": 25.28417915, "stands": 21, "name": "7-STOTIS", "address": "Sein\u0173 g. \u2013 Gele\u017einkelio st. sankry\u017ea", "lat": 54.67115499, "bikes": 0, "status": "CLOSED", "update": "2015-11-02T22:17:40"}, "type": "Feature"}, {"geometry": {"coordinates": [25.28936958, 54.68447055], "type": "Point"}, "properties": {"lon": 25.28936958, "stands": 18, "name": "2-BARBOROS RADVILAIT\u0116S", "address": "Pilies g. \u2013 Radvilait\u0117s g. sankry\u017ea", "lat": 54.68447055, "bikes": 0, "status": "CLOSED", "update": "2015-11-02T22:17:39"}, "type": "Feature"}, {"geometry": {"coordinates": [25.304477, 54.711402], "type": "Point"}, "properties": {"lon": 25.304477, "stands": 18, "name": "39-\u0160IAUR\u0116S MIESTELIS", "address": "\u017dirm\u016bn\u0173 g. - Luk\u0161io g. sankry\u017ea", "lat": 54.711402, "bikes": 0, "status": "CLOSED", "update": "2015-11-02T22:17:39"}, "type": "Feature"}, {"geometry": {"coordinates": [25.30506775, 54.69332591], "type": "Point"}, "properties": {"lon": 25.30506775, "stands": 21, "name": "31-OLAND\u0172 \u017dIEDAS", "address": "Antakalnio g. \u2013 Oland\u0173 g. \u017eiedin\u0117 sankry\u017ea (\u0161alia \u0160v. Petro ir Povilo ba\u017eny\u010dios)", "lat": 54.69332591, "bikes": 0, "status": "CLOSED", "update": "2015-11-02T22:13:52"}, "type": "Feature"}, {"geometry": {"coordinates": [25.29904378, 54.68114579], "type": "Point"}, "properties": {"lon": 25.29904378, "stands": 12, "name": "9-U\u017dUPIS", "address": "U\u017eupio g. \u2013 Krivi\u0173 g. sankry\u017ea", "lat": 54.68114579, "bikes": 0, "status": "CLOSED", "update": "2015-11-02T22:14:09"}, "type": "Feature"}, {"geometry": {"coordinates": [25.26938954, 54.68907997], "type": "Point"}, "properties": {"lon": 25.26938954, "stands": 21, "name": "14-LUKI\u0160KI\u0172 A.", "address": "Gedimino av. \u2013 J. Tumo-Vai\u017eganto str. crossing", "lat": 54.68907997, "bikes": 0, "status": "CLOSED", "update": "2015-11-02T22:22:24"}, "type": "Feature"}, {"geometry": {"coordinates": [25.29385654, 54.67852], "type": "Point"}, "properties": {"lon": 25.29385654, "stands": 15, "name": "8-MAIRONIO G.", "address": "K\u016bdr\u0173 g. \u2013 Maironio g. sankry\u017ea", "lat": 54.67852, "bikes": 0, "status": "CLOSED", "update": "2015-11-02T22:15:46"}, "type": "Feature"}, {"geometry": {"coordinates": [25.29886217, 54.69678393], "type": "Point"}, "properties": {"lon": 25.29886217, "stands": 21, "name": "30-IKI MINSKAS", "address": "\u017dirm\u016bn\u0173 g. \u2013 Tuskul\u0117n\u0173 g. \u017eiedin\u0117 sankry\u017ea (\u0161alia PC IKI Minskas)", "lat": 54.69678393, "bikes": 0, "status": "CLOSED", "update": "2015-11-02T22:14:24"}, "type": "Feature"}, {"geometry": {"coordinates": [25.26346218, 54.69181762], "type": "Point"}, "properties": {"lon": 25.26346218, "stands": 12, "name": "35-VILNIAUS VARTAI", "address": "A. Tum\u0117no g.", "lat": 54.69181762, "bikes": 0, "status": "CLOSED", "update": "2015-11-02T22:22:39"}, "type": "Feature"}], "type": "FeatureCollection"}