{"type": "FeatureCollection", "features": [{"geometry": {"type": "Point", "coordinates": [-77.0512, 38.8561]}, "type": "Feature", "properties": {"status": "OPEN", "stands": 9, "address": "20th & Bell St", "lat": 38.8561, "name": "20th & Bell St", "bikes": 2, "update": "2015-11-07T11:02:21", "lon": -77.0512}}, {"geometry": {"type": "Point", "coordinates": [-77.05332, 38.85725]}, "type": "Feature", "properties": {"status": "OPEN", "stands": 5, "address": "18th & Eads St.", "lat": 38.85725, "name": "18th & Eads St.", "bikes": 5, "update": "2015-11-07T16:23:21", "lon": -77.05332}}, {"geometry": {"type": "Point", "coordinates": [-77.049828, 38.856214]}, "type": "Feature", "properties": {"status": "OPEN", "stands": 10, "address": "20th & Crystal Dr", "lat": 38.856214, "name": "20th & Crystal Dr", "bikes": 5, "update": "2015-11-07T16:43:11", "lon": -77.049828}}, {"geometry": {"type": "Point", "coordinates": [-77.049593, 38.86017]}, "type": "Feature", "properties": {"status": "OPEN", "stands": 7, "address": "15th & Crystal Dr", "lat": 38.86017, "name": "15th & Crystal Dr", "bikes": 4, "update": "2015-11-07T16:56:02", "lon": -77.049593}}, {"geometry": {"type": "Point", "coordinates": [-77.05949, 38.857866]}, "type": "Feature", "properties": {"status": "OPEN", "stands": 4, "address": "Aurora Hills Community Ctr/18th & Hayes St", "lat": 38.857866, "name": "Aurora Hills Community Ctr/18th & Hayes St", "bikes": 7, "update": "2015-11-07T16:29:56", "lon": -77.05949}}, {"geometry": {"type": "Point", "coordinates": [-77.059936, 38.862303]}, "type": "Feature", "properties": {"status": "OPEN", "stands": 9, "address": "Pentagon City Metro / 12th & S Hayes St", "lat": 38.862303, "name": "Pentagon City Metro / 12th & S Hayes St", "bikes": 10, "update": "2015-11-07T17:01:10", "lon": -77.059936}}, {"geometry": {"type": "Point", "coordinates": [-77.0633, 38.8637]}, "type": "Feature", "properties": {"status": "OPEN", "stands": 0, "address": "S Joyce & Army Navy Dr", "lat": 38.8637, "name": "S Joyce & Army Navy Dr", "bikes": 14, "update": "2015-11-07T16:14:22", "lon": -77.0633}}, {"geometry": {"type": "Point", "coordinates": [-77.051141, 38.857063]}, "type": "Feature", "properties": {"status": "OPEN", "stands": 5, "address": "Crystal City Metro / 18th & Bell St", "lat": 38.857063, "name": "Crystal City Metro / 18th & Bell St", "bikes": 14, "update": "2015-11-07T16:50:00", "lon": -77.051141}}, {"geometry": {"type": "Point", "coordinates": [-77.0528, 38.8629]}, "type": "Feature", "properties": {"status": "OPEN", "stands": 2, "address": "12th & Army Navy Dr", "lat": 38.8629, "name": "12th & Army Navy Dr", "bikes": 8, "update": "2015-11-07T15:30:03", "lon": -77.0528}}, {"geometry": {"type": "Point", "coordinates": [-77.051516, 38.848441]}, "type": "Feature", "properties": {"status": "OPEN", "stands": 13, "address": "27th & Crystal Dr", "lat": 38.848441, "name": "27th & Crystal Dr", "bikes": 5, "update": "2015-11-07T16:28:17", "lon": -77.051516}}, {"geometry": {"type": "Point", "coordinates": [-77.0502, 38.8426]}, "type": "Feature", "properties": {"status": "OPEN", "stands": 3, "address": "S Glebe & Potomac Ave", "lat": 38.8426, "name": "S Glebe & Potomac Ave", "bikes": 6, "update": "2015-11-07T16:59:18", "lon": -77.0502}}, {"geometry": {"type": "Point", "coordinates": [-77.0498, 38.8533]}, "type": "Feature", "properties": {"status": "OPEN", "stands": 13, "address": "23rd & Crystal Dr", "lat": 38.8533, "name": "23rd & Crystal Dr", "bikes": 3, "update": "2015-11-07T16:13:49", "lon": -77.0498}}, {"geometry": {"type": "Point", "coordinates": [-77.05152, 38.850688]}, "type": "Feature", "properties": {"status": "OPEN", "stands": 7, "address": "26th & S Clark St", "lat": 38.850688, "name": "26th & S Clark St", "bikes": 3, "update": "2015-11-07T11:01:06", "lon": -77.05152}}, {"geometry": {"type": "Point", "coordinates": [-77.0429, 38.9003]}, "type": "Feature", "properties": {"status": "OPEN", "stands": 9, "address": "19th St & Pennsylvania Ave NW", "lat": 38.9003, "name": "19th St & Pennsylvania Ave NW", "bikes": 6, "update": "2015-11-07T16:00:01", "lon": -77.0429}}, {"geometry": {"type": "Point", "coordinates": [-77.0321, 38.9176]}, "type": "Feature", "properties": {"status": "OPEN", "stands": 1, "address": "14th & V St NW", "lat": 38.9176, "name": "14th & V St NW", "bikes": 23, "update": "2015-11-07T16:45:27", "lon": -77.0321}}, {"geometry": {"type": "Point", "coordinates": [-77.027822, 38.929464]}, "type": "Feature", "properties": {"status": "OPEN", "stands": 13, "address": "11th & Kenyon St NW", "lat": 38.929464, "name": "11th & Kenyon St NW", "bikes": 14, "update": "2015-11-07T16:24:38", "lon": -77.027822}}, {"geometry": {"type": "Point", "coordinates": [-77.036536, 38.926088]}, "type": "Feature", "properties": {"status": "OPEN", "stands": 23, "address": "16th & Harvard St NW", "lat": 38.926088, "name": "16th & Harvard St NW", "bikes": 8, "update": "2015-11-07T16:56:51", "lon": -77.036536}}, {"geometry": {"type": "Point", "coordinates": [-77.042581, 38.922925]}, "type": "Feature", "properties": {"status": "OPEN", "stands": 12, "address": "Adams Mill & Columbia Rd NW", "lat": 38.922925, "name": "Adams Mill & Columbia Rd NW", "bikes": 2, "update": "2015-11-07T16:01:48", "lon": -77.042581}}, {"geometry": {"type": "Point", "coordinates": [-77.0322, 38.9268]}, "type": "Feature", "properties": {"status": "OPEN", "stands": 11, "address": "14th & Harvard St NW", "lat": 38.9268, "name": "14th & Harvard St NW", "bikes": 5, "update": "2015-11-07T17:03:51", "lon": -77.0322}}, {"geometry": {"type": "Point", "coordinates": [-77.047637, 38.923203]}, "type": "Feature", "properties": {"status": "OPEN", "stands": 14, "address": "Calvert & Biltmore St NW", "lat": 38.923203, "name": "Calvert & Biltmore St NW", "bikes": 6, "update": "2015-11-07T16:31:25", "lon": -77.047637}}, {"geometry": {"type": "Point", "coordinates": [-77.0388, 38.9319]}, "type": "Feature", "properties": {"status": "OPEN", "stands": 14, "address": "Lamont & Mt Pleasant NW", "lat": 38.9319, "name": "Lamont & Mt Pleasant NW", "bikes": 5, "update": "2015-11-07T16:36:12", "lon": -77.0388}}, {"geometry": {"type": "Point", "coordinates": [-77.0178, 38.8767]}, "type": "Feature", "properties": {"status": "OPEN", "stands": 12, "address": "4th & M St SW", "lat": 38.8767, "name": "4th & M St SW", "bikes": 10, "update": "2015-11-07T16:28:45", "lon": -77.0178}}, {"geometry": {"type": "Point", "coordinates": [-77.034438, 38.90985]}, "type": "Feature", "properties": {"status": "OPEN", "stands": 7, "address": "15th & P St NW", "lat": 38.90985, "name": "15th & P St NW", "bikes": 10, "update": "2015-11-07T17:02:22", "lon": -77.034438}}, {"geometry": {"type": "Point", "coordinates": [-77.031681, 38.912682]}, "type": "Feature", "properties": {"status": "OPEN", "stands": 5, "address": "14th & R St NW", "lat": 38.912682, "name": "14th & R St NW", "bikes": 10, "update": "2015-11-07T16:47:36", "lon": -77.031681}}, {"geometry": {"type": "Point", "coordinates": [-77.0323, 38.9086]}, "type": "Feature", "properties": {"status": "OPEN", "stands": 13, "address": "14th & Rhode Island Ave NW", "lat": 38.9086, "name": "14th & Rhode Island Ave NW", "bikes": 10, "update": "2015-11-07T16:46:38", "lon": -77.0323}}, {"geometry": {"type": "Point", "coordinates": [-77.045, 38.8963]}, "type": "Feature", "properties": {"status": "OPEN", "stands": 10, "address": "20th & E St NW", "lat": 38.8963, "name": "20th & E St NW", "bikes": 4, "update": "2015-11-07T17:00:15", "lon": -77.045}}, {"geometry": {"type": "Point", "coordinates": [-77.047, 38.9008]}, "type": "Feature", "properties": {"status": "OPEN", "stands": 29, "address": "21st & I St NW", "lat": 38.9008, "name": "21st & I St NW", "bikes": 5, "update": "2015-11-07T16:40:05", "lon": -77.047}}, {"geometry": {"type": "Point", "coordinates": [-77.024649, 38.936043]}, "type": "Feature", "properties": {"status": "OPEN", "stands": 11, "address": "Georgia & New Hampshire Ave NW", "lat": 38.936043, "name": "Georgia & New Hampshire Ave NW", "bikes": 4, "update": "2015-11-07T16:19:00", "lon": -77.024649}}, {"geometry": {"type": "Point", "coordinates": [-77.0328, 38.9375]}, "type": "Feature", "properties": {"status": "OPEN", "stands": 9, "address": "14th St & Spring Rd NW", "lat": 38.9375, "name": "14th St & Spring Rd NW", "bikes": 2, "update": "2015-11-07T16:33:02", "lon": -77.0328}}, {"geometry": {"type": "Point", "coordinates": [-76.9955, 38.9346]}, "type": "Feature", "properties": {"status": "OPEN", "stands": 4, "address": "John McCormack Dr & Michigan Ave NE", "lat": 38.9346, "name": "John McCormack Dr & Michigan Ave NE", "bikes": 7, "update": "2015-11-07T15:10:55", "lon": -76.9955}}, {"geometry": {"type": "Point", "coordinates": [-77.019027, 38.90304]}, "type": "Feature", "properties": {"status": "OPEN", "stands": 0, "address": "5th & K St NW", "lat": 38.90304, "name": "5th & K St NW", "bikes": 18, "update": "2015-11-07T17:04:27", "lon": -77.019027}}, {"geometry": {"type": "Point", "coordinates": [-76.9769, 38.8896]}, "type": "Feature", "properties": {"status": "OPEN", "stands": 1, "address": "19th & East Capitol St SE", "lat": 38.8896, "name": "19th & East Capitol St SE", "bikes": 13, "update": "2015-11-07T16:02:39", "lon": -76.9769}}, {"geometry": {"type": "Point", "coordinates": [-77.0315, 38.9308]}, "type": "Feature", "properties": {"status": "OPEN", "stands": 8, "address": "Park Rd & Holmead Pl NW", "lat": 38.9308, "name": "Park Rd & Holmead Pl NW", "bikes": 8, "update": "2015-11-07T16:22:15", "lon": -77.0315}}, {"geometry": {"type": "Point", "coordinates": [-76.9672, 38.8601]}, "type": "Feature", "properties": {"status": "OPEN", "stands": 7, "address": "Good Hope & Naylor Rd SE", "lat": 38.8601, "name": "Good Hope & Naylor Rd SE", "bikes": 4, "update": "2015-11-07T11:02:15", "lon": -76.9672}}, {"geometry": {"type": "Point", "coordinates": [-77.057979, 38.934267]}, "type": "Feature", "properties": {"status": "OPEN", "stands": 0, "address": "Connecticut Ave & Newark St NW / Cleveland Park", "lat": 38.934267, "name": "Connecticut Ave & Newark St NW / Cleveland Park", "bikes": 8, "update": "2015-11-07T16:56:15", "lon": -77.057979}}, {"geometry": {"type": "Point", "coordinates": [-76.9607, 38.878]}, "type": "Feature", "properties": {"status": "OPEN", "stands": 6, "address": "Randle Circle & Minnesota Ave SE", "lat": 38.878, "name": "Randle Circle & Minnesota Ave SE", "bikes": 3, "update": "2015-11-07T11:01:22", "lon": -76.9607}}, {"geometry": {"type": "Point", "coordinates": [-76.947446, 38.897063]}, "type": "Feature", "properties": {"status": "OPEN", "stands": 7, "address": "Minnesota Ave Metro/DOES", "lat": 38.897063, "name": "Minnesota Ave Metro/DOES", "bikes": 4, "update": "2015-11-07T11:01:28", "lon": -76.947446}}, {"geometry": {"type": "Point", "coordinates": [-76.941877, 38.901385]}, "type": "Feature", "properties": {"status": "OPEN", "stands": 4, "address": "Nannie Helen Burroughs & Minnesota Ave NE", "lat": 38.901385, "name": "Nannie Helen Burroughs & Minnesota Ave NE", "bikes": 7, "update": "2015-11-07T11:02:18", "lon": -76.941877}}, {"geometry": {"type": "Point", "coordinates": [-76.994637, 38.862669]}, "type": "Feature", "properties": {"status": "OPEN", "stands": 6, "address": "Anacostia Metro", "lat": 38.862669, "name": "Anacostia Metro", "bikes": 4, "update": "2015-11-07T16:06:24", "lon": -76.994637}}, {"geometry": {"type": "Point", "coordinates": [-76.988039, 38.867373]}, "type": "Feature", "properties": {"status": "OPEN", "stands": 3, "address": "Good Hope Rd & MLK Ave SE", "lat": 38.867373, "name": "Good Hope Rd & MLK Ave SE", "bikes": 7, "update": "2015-11-07T16:34:31", "lon": -76.988039}}, {"geometry": {"type": "Point", "coordinates": [-77.0436, 38.8952]}, "type": "Feature", "properties": {"status": "OPEN", "stands": 4, "address": "19th & E Street NW", "lat": 38.8952, "name": "19th & E Street NW", "bikes": 6, "update": "2015-11-07T16:20:07", "lon": -77.0436}}, {"geometry": {"type": "Point", "coordinates": [-77.000648, 38.919077]}, "type": "Feature", "properties": {"status": "OPEN", "stands": 6, "address": "4th & W St NE", "lat": 38.919077, "name": "4th & W St NE", "bikes": 9, "update": "2015-11-07T15:24:04", "lon": -77.000648}}, {"geometry": {"type": "Point", "coordinates": [-77.0259, 38.9172]}, "type": "Feature", "properties": {"status": "OPEN", "stands": 3, "address": "10th & U St NW", "lat": 38.9172, "name": "10th & U St NW", "bikes": 12, "update": "2015-11-07T17:02:54", "lon": -77.0259}}, {"geometry": {"type": "Point", "coordinates": [-77.0222, 38.9249]}, "type": "Feature", "properties": {"status": "OPEN", "stands": 4, "address": "Georgia Ave and Fairmont St NW", "lat": 38.9249, "name": "Georgia Ave and Fairmont St NW", "bikes": 7, "update": "2015-11-07T16:56:12", "lon": -77.0222}}, {"geometry": {"type": "Point", "coordinates": [-77.0057, 38.8743]}, "type": "Feature", "properties": {"status": "OPEN", "stands": 22, "address": "1st & N St  SE", "lat": 38.8743, "name": "1st & N St  SE", "bikes": 16, "update": "2015-11-07T17:00:51", "lon": -77.0057}}, {"geometry": {"type": "Point", "coordinates": [-77.0446, 38.9154]}, "type": "Feature", "properties": {"status": "OPEN", "stands": 4, "address": "20th St & Florida Ave NW", "lat": 38.9154, "name": "20th St & Florida Ave NW", "bikes": 6, "update": "2015-11-07T16:31:35", "lon": -77.0446}}, {"geometry": {"type": "Point", "coordinates": [-77.0222, 38.9155]}, "type": "Feature", "properties": {"status": "OPEN", "stands": 14, "address": "7th & T St NW", "lat": 38.9155, "name": "7th & T St NW", "bikes": 0, "update": "2015-11-07T16:55:14", "lon": -77.0222}}, {"geometry": {"type": "Point", "coordinates": [-77.053509, 38.853531]}, "type": "Feature", "properties": {"status": "OPEN", "stands": 3, "address": "23rd & Eads St", "lat": 38.853531, "name": "23rd & Eads St", "bikes": 9, "update": "2015-11-07T15:22:48", "lon": -77.053509}}, {"geometry": {"type": "Point", "coordinates": [-77.0037, 38.8763]}, "type": "Feature", "properties": {"status": "OPEN", "stands": 9, "address": "M St & New Jersey Ave SE", "lat": 38.8763, "name": "M St & New Jersey Ave SE", "bikes": 7, "update": "2015-11-07T16:10:57", "lon": -77.0037}}, {"geometry": {"type": "Point", "coordinates": [-77.0444, 38.9101]}, "type": "Feature", "properties": {"status": "OPEN", "stands": 18, "address": "Massachusetts Ave & Dupont Circle NW", "lat": 38.9101, "name": "Massachusetts Ave & Dupont Circle NW", "bikes": 19, "update": "2015-11-07T16:58:18", "lon": -77.0444}}, {"geometry": {"type": "Point", "coordinates": [-77.0056, 38.9057]}, "type": "Feature", "properties": {"status": "OPEN", "stands": 7, "address": "1st & M St NE", "lat": 38.9057, "name": "1st & M St NE", "bikes": 8, "update": "2015-11-07T16:50:16", "lon": -77.0056}}, {"geometry": {"type": "Point", "coordinates": [-77.046774, 38.90534]}, "type": "Feature", "properties": {"status": "OPEN", "stands": 16, "address": "21st & M St NW", "lat": 38.90534, "name": "21st & M St NW", "bikes": 1, "update": "2015-11-07T16:45:58", "lon": -77.046774}}, {"geometry": {"type": "Point", "coordinates": [-77.03863, 38.90276]}, "type": "Feature", "properties": {"status": "OPEN", "stands": 17, "address": "17th & K St NW", "lat": 38.90276, "name": "17th & K St NW", "bikes": 5, "update": "2015-11-07T16:44:42", "lon": -77.03863}}, {"geometry": {"type": "Point", "coordinates": [-77.015289, 38.899408]}, "type": "Feature", "properties": {"status": "OPEN", "stands": 9, "address": "3rd & H St NW", "lat": 38.899408, "name": "3rd & H St NW", "bikes": 6, "update": "2015-11-07T16:55:13", "lon": -77.015289}}, {"geometry": {"type": "Point", "coordinates": [-77.0023, 38.8851]}, "type": "Feature", "properties": {"status": "OPEN", "stands": 5, "address": "3rd & D St SE", "lat": 38.8851, "name": "3rd & D St SE", "bikes": 6, "update": "2015-11-07T16:20:21", "lon": -77.0023}}, {"geometry": {"type": "Point", "coordinates": [-76.9862, 38.8803]}, "type": "Feature", "properties": {"status": "OPEN", "stands": 4, "address": "Potomac & Pennsylvania Ave SE", "lat": 38.8803, "name": "Potomac & Pennsylvania Ave SE", "bikes": 10, "update": "2015-11-07T16:04:10", "lon": -76.9862}}, {"geometry": {"type": "Point", "coordinates": [-76.9861, 38.884]}, "type": "Feature", "properties": {"status": "OPEN", "stands": 7, "address": "14th & D St SE", "lat": 38.884, "name": "14th & D St SE", "bikes": 8, "update": "2015-11-07T16:15:32", "lon": -76.9861}}, {"geometry": {"type": "Point", "coordinates": [-77.0387, 38.9121]}, "type": "Feature", "properties": {"status": "OPEN", "stands": 2, "address": "17th & Corcoran St NW", "lat": 38.9121, "name": "17th & Corcoran St NW", "bikes": 17, "update": "2015-11-07T16:56:42", "lon": -77.0387}}, {"geometry": {"type": "Point", "coordinates": [-77.063896, 38.944551]}, "type": "Feature", "properties": {"status": "OPEN", "stands": 4, "address": "Van Ness Metro / UDC", "lat": 38.944551, "name": "Van Ness Metro / UDC", "bikes": 10, "update": "2015-11-07T16:58:28", "lon": -77.063896}}, {"geometry": {"type": "Point", "coordinates": [-77.0135, 38.9126]}, "type": "Feature", "properties": {"status": "OPEN", "stands": 6, "address": "Florida Ave & R St NW", "lat": 38.9126, "name": "Florida Ave & R St NW", "bikes": 9, "update": "2015-11-07T16:42:29", "lon": -77.0135}}, {"geometry": {"type": "Point", "coordinates": [-76.9953, 38.8792]}, "type": "Feature", "properties": {"status": "OPEN", "stands": 4, "address": "8th & Eye St SE / Barracks Row", "lat": 38.8792, "name": "8th & Eye St SE / Barracks Row", "bikes": 6, "update": "2015-11-07T16:19:47", "lon": -76.9953}}, {"geometry": {"type": "Point", "coordinates": [-77.087171, 38.938736]}, "type": "Feature", "properties": {"status": "OPEN", "stands": 11, "address": "Ward Circle / American University", "lat": 38.938736, "name": "Ward Circle / American University", "bikes": 4, "update": "2015-11-07T16:31:10", "lon": -77.087171}}, {"geometry": {"type": "Point", "coordinates": [-77.072755, 38.934881]}, "type": "Feature", "properties": {"status": "OPEN", "stands": 17, "address": "Wisconsin Ave & Newark St NW", "lat": 38.934881, "name": "Wisconsin Ave & Newark St NW", "bikes": 1, "update": "2015-11-07T15:59:23", "lon": -77.072755}}, {"geometry": {"type": "Point", "coordinates": [-77.032818, 38.947774]}, "type": "Feature", "properties": {"status": "OPEN", "stands": 2, "address": "14th St Heights / 14th & Crittenden St NW", "lat": 38.947774, "name": "14th St Heights / 14th & Crittenden St NW", "bikes": 9, "update": "2015-11-07T15:12:12", "lon": -77.032818}}, {"geometry": {"type": "Point", "coordinates": [-76.9784, 38.865784]}, "type": "Feature", "properties": {"status": "OPEN", "stands": 5, "address": "Anacostia Library", "lat": 38.865784, "name": "Anacostia Library", "bikes": 6, "update": "2015-11-07T11:01:23", "lon": -76.9784}}, {"geometry": {"type": "Point", "coordinates": [-76.971015, 38.873057]}, "type": "Feature", "properties": {"status": "OPEN", "stands": 8, "address": "Pennsylvania & Minnesota Ave SE", "lat": 38.873057, "name": "Pennsylvania & Minnesota Ave SE", "bikes": 3, "update": "2015-11-07T11:02:02", "lon": -76.971015}}, {"geometry": {"type": "Point", "coordinates": [-76.996806, 38.886952]}, "type": "Feature", "properties": {"status": "OPEN", "stands": 4, "address": "Eastern Market / 7th & North Carolina Ave SE", "lat": 38.886952, "name": "Eastern Market / 7th & North Carolina Ave SE", "bikes": 11, "update": "2015-11-07T16:48:54", "lon": -76.996806}}, {"geometry": {"type": "Point", "coordinates": [-77.031686, 38.899632]}, "type": "Feature", "properties": {"status": "OPEN", "stands": 17, "address": "14th St & New York Ave NW", "lat": 38.899632, "name": "14th St & New York Ave NW", "bikes": 6, "update": "2015-11-07T15:47:08", "lon": -77.031686}}, {"geometry": {"type": "Point", "coordinates": [-76.947974, 38.894]}, "type": "Feature", "properties": {"status": "OPEN", "stands": 2, "address": "Benning Branch Library", "lat": 38.894, "name": "Benning Branch Library", "bikes": 8, "update": "2015-11-07T11:02:48", "lon": -76.947974}}, {"geometry": {"type": "Point", "coordinates": [-77.028226, 38.887237]}, "type": "Feature", "properties": {"status": "OPEN", "stands": 35, "address": "USDA / 12th & Independence Ave SW", "lat": 38.887237, "name": "USDA / 12th & Independence Ave SW", "bikes": 3, "update": "2015-11-07T15:20:20", "lon": -77.028226}}, {"geometry": {"type": "Point", "coordinates": [-77.059219, 38.9022212]}, "type": "Feature", "properties": {"status": "OPEN", "stands": 16, "address": "Georgetown Harbor / 30th St NW", "lat": 38.9022212, "name": "Georgetown Harbor / 30th St NW", "bikes": 2, "update": "2015-11-07T16:25:23", "lon": -77.059219}}, {"geometry": {"type": "Point", "coordinates": [-76.991016, 38.933668]}, "type": "Feature", "properties": {"status": "OPEN", "stands": 6, "address": "12th & Newton St NE", "lat": 38.933668, "name": "12th & Newton St NE", "bikes": 4, "update": "2015-11-07T15:18:54", "lon": -76.991016}}, {"geometry": {"type": "Point", "coordinates": [-77.046587, 38.894919]}, "type": "Feature", "properties": {"status": "OPEN", "stands": 11, "address": "US Dept of State / Virginia Ave & 21st St NW", "lat": 38.894919, "name": "US Dept of State / Virginia Ave & 21st St NW", "bikes": 4, "update": "2015-11-07T16:35:59", "lon": -77.046587}}, {"geometry": {"type": "Point", "coordinates": [-77.022241, 38.886266]}, "type": "Feature", "properties": {"status": "OPEN", "stands": 3, "address": "L'Enfant Plaza / 7th & C St SW", "lat": 38.886266, "name": "L'Enfant Plaza / 7th & C St SW", "bikes": 11, "update": "2015-11-07T16:47:13", "lon": -77.022241}}, {"geometry": {"type": "Point", "coordinates": [-77.026013, 38.893028]}, "type": "Feature", "properties": {"status": "OPEN", "stands": 18, "address": "10th St & Constitution Ave NW", "lat": 38.893028, "name": "10th St & Constitution Ave NW", "bikes": 11, "update": "2015-11-07T16:41:00", "lon": -77.026013}}, {"geometry": {"type": "Point", "coordinates": [-77.05557, 38.897293]}, "type": "Feature", "properties": {"status": "OPEN", "stands": 11, "address": "Kennedy Center", "lat": 38.897293, "name": "Kennedy Center", "bikes": 8, "update": "2015-11-07T15:30:54", "lon": -77.05557}}, {"geometry": {"type": "Point", "coordinates": [-76.995397, 38.884]}, "type": "Feature", "properties": {"status": "OPEN", "stands": 1, "address": "Eastern Market Metro / Pennsylvania Ave & 7th St SE", "lat": 38.884, "name": "Eastern Market Metro / Pennsylvania Ave & 7th St SE", "bikes": 18, "update": "2015-11-07T16:51:39", "lon": -76.995397}}, {"geometry": {"type": "Point", "coordinates": [-77.041606, 38.904742]}, "type": "Feature", "properties": {"status": "OPEN", "stands": 13, "address": "18th & M St NW", "lat": 38.904742, "name": "18th & M St NW", "bikes": 5, "update": "2015-11-07T16:43:25", "lon": -77.041606}}, {"geometry": {"type": "Point", "coordinates": [-77.079382, 38.947607]}, "type": "Feature", "properties": {"status": "OPEN", "stands": 3, "address": "Tenleytown / Wisconsin Ave & Albemarle St NW", "lat": 38.947607, "name": "Tenleytown / Wisconsin Ave & Albemarle St NW", "bikes": 12, "update": "2015-11-07T16:28:42", "lon": -77.079382}}, {"geometry": {"type": "Point", "coordinates": [-76.9882, 38.9003]}, "type": "Feature", "properties": {"status": "OPEN", "stands": 2, "address": "13th & H St NE", "lat": 38.9003, "name": "13th & H St NE", "bikes": 25, "update": "2015-11-07T16:24:30", "lon": -76.9882}}, {"geometry": {"type": "Point", "coordinates": [-77.019347, 38.897222]}, "type": "Feature", "properties": {"status": "OPEN", "stands": 27, "address": "5th & F St NW", "lat": 38.897222, "name": "5th & F St NW", "bikes": 4, "update": "2015-11-07T16:28:01", "lon": -77.019347}}, {"geometry": {"type": "Point", "coordinates": [-77.0337, 38.8991]}, "type": "Feature", "properties": {"status": "OPEN", "stands": 7, "address": "New York Ave & 15th St NW", "lat": 38.8991, "name": "New York Ave & 15th St NW", "bikes": 12, "update": "2015-11-07T16:30:41", "lon": -77.0337}}, {"geometry": {"type": "Point", "coordinates": [-77.022264, 38.90572]}, "type": "Feature", "properties": {"status": "OPEN", "stands": 0, "address": "Convention Center / 7th & M St NW", "lat": 38.90572, "name": "Convention Center / 7th & M St NW", "bikes": 17, "update": "2015-11-07T16:46:48", "lon": -77.022264}}, {"geometry": {"type": "Point", "coordinates": [-77.043358, 38.927872]}, "type": "Feature", "properties": {"status": "OPEN", "stands": 7, "address": "Harvard St & Adams Mill Rd NW", "lat": 38.927872, "name": "Harvard St & Adams Mill Rd NW", "bikes": 7, "update": "2015-11-07T16:43:40", "lon": -77.043358}}, {"geometry": {"type": "Point", "coordinates": [-77.043648, 38.903407]}, "type": "Feature", "properties": {"status": "OPEN", "stands": 6, "address": "19th & L St NW", "lat": 38.903407, "name": "19th & L St NW", "bikes": 8, "update": "2015-11-07T17:02:01", "lon": -77.043648}}, {"geometry": {"type": "Point", "coordinates": [-77.06269, 38.90375]}, "type": "Feature", "properties": {"status": "OPEN", "stands": 10, "address": "C & O Canal & Wisconsin Ave NW", "lat": 38.90375, "name": "C & O Canal & Wisconsin Ave NW", "bikes": 10, "update": "2015-11-07T16:41:44", "lon": -77.06269}}, {"geometry": {"type": "Point", "coordinates": [-77.02127, 38.87675]}, "type": "Feature", "properties": {"status": "OPEN", "stands": 9, "address": "6th & Water St SW / SW Waterfront", "lat": 38.87675, "name": "6th & Water St SW / SW Waterfront", "bikes": 10, "update": "2015-11-07T16:18:21", "lon": -77.02127}}, {"geometry": {"type": "Point", "coordinates": [-76.997114, 38.894758]}, "type": "Feature", "properties": {"status": "OPEN", "stands": 3, "address": "D St & Maryland Ave NE", "lat": 38.894758, "name": "D St & Maryland Ave NE", "bikes": 18, "update": "2015-11-07T16:13:39", "lon": -76.997114}}, {"geometry": {"type": "Point", "coordinates": [-77.0682, 38.916442]}, "type": "Feature", "properties": {"status": "OPEN", "stands": 10, "address": "34th St & Wisconsin Ave NW", "lat": 38.916442, "name": "34th St & Wisconsin Ave NW", "bikes": 1, "update": "2015-11-07T16:32:44", "lon": -77.0682}}, {"geometry": {"type": "Point", "coordinates": [-77.029822, 38.900283]}, "type": "Feature", "properties": {"status": "OPEN", "stands": 18, "address": "13th St & New York Ave NW", "lat": 38.900283, "name": "13th St & New York Ave NW", "bikes": 4, "update": "2015-11-07T15:25:35", "lon": -77.029822}}, {"geometry": {"type": "Point", "coordinates": [-77.023086, 38.8997]}, "type": "Feature", "properties": {"status": "OPEN", "stands": 22, "address": "8th & H St NW", "lat": 38.8997, "name": "8th & H St NW", "bikes": 9, "update": "2015-11-07T16:29:21", "lon": -77.023086}}, {"geometry": {"type": "Point", "coordinates": [-76.992889, 38.932514]}, "type": "Feature", "properties": {"status": "OPEN", "stands": 4, "address": "10th & Monroe St NE", "lat": 38.932514, "name": "10th & Monroe St NE", "bikes": 7, "update": "2015-11-07T16:50:02", "lon": -76.992889}}, {"geometry": {"type": "Point", "coordinates": [-77.00495, 38.910972]}, "type": "Feature", "properties": {"status": "OPEN", "stands": 3, "address": "Eckington Pl & Q St NE", "lat": 38.910972, "name": "Eckington Pl & Q St NE", "bikes": 8, "update": "2015-11-07T16:37:35", "lon": -77.00495}}, {"geometry": {"type": "Point", "coordinates": [-76.998347, 38.899972]}, "type": "Feature", "properties": {"status": "OPEN", "stands": 6, "address": "6th & H St NE", "lat": 38.899972, "name": "6th & H St NE", "bikes": 17, "update": "2015-11-07T16:22:25", "lon": -76.998347}}, {"geometry": {"type": "Point", "coordinates": [-77.001949, 38.900412]}, "type": "Feature", "properties": {"status": "OPEN", "stands": 8, "address": "3rd & H St NE", "lat": 38.900412, "name": "3rd & H St NE", "bikes": 6, "update": "2015-11-07T16:57:02", "lon": -77.001949}}, {"geometry": {"type": "Point", "coordinates": [-76.982872, 38.900413]}, "type": "Feature", "properties": {"status": "OPEN", "stands": 9, "address": "Bladensburg Rd & Benning Rd NE", "lat": 38.900413, "name": "Bladensburg Rd & Benning Rd NE", "bikes": 6, "update": "2015-11-07T17:02:59", "lon": -76.982872}}, {"geometry": {"type": "Point", "coordinates": [-77.000349, 38.889955]}, "type": "Feature", "properties": {"status": "OPEN", "stands": 9, "address": "4th & East Capitol St NE", "lat": 38.889955, "name": "4th & East Capitol St NE", "bikes": 2, "update": "2015-11-07T16:45:34", "lon": -77.000349}}, {"geometry": {"type": "Point", "coordinates": [-76.988355, 38.890461]}, "type": "Feature", "properties": {"status": "OPEN", "stands": 11, "address": "Lincoln Park / 13th & East Capitol St NE ", "lat": 38.890461, "name": "Lincoln Park / 13th & East Capitol St NE ", "bikes": 14, "update": "2015-11-07T16:46:30", "lon": -76.988355}}, {"geometry": {"type": "Point", "coordinates": [-76.9599, 38.8692]}, "type": "Feature", "properties": {"status": "OPEN", "stands": 5, "address": "Branch & Pennsylvania Ave SE", "lat": 38.8692, "name": "Branch & Pennsylvania Ave SE", "bikes": 6, "update": "2015-11-07T11:01:29", "lon": -76.9599}}, {"geometry": {"type": "Point", "coordinates": [-76.987633, 38.894832]}, "type": "Feature", "properties": {"status": "OPEN", "stands": 17, "address": "13th & D St NE", "lat": 38.894832, "name": "13th & D St NE", "bikes": 13, "update": "2015-11-07T16:56:04", "lon": -76.987633}}, {"geometry": {"type": "Point", "coordinates": [-77.03818, 38.91554]}, "type": "Feature", "properties": {"status": "OPEN", "stands": 7, "address": "New Hampshire Ave & T St NW", "lat": 38.91554, "name": "New Hampshire Ave & T St NW", "bikes": 10, "update": "2015-11-07T16:56:44", "lon": -77.03818}}, {"geometry": {"type": "Point", "coordinates": [-77.027869, 38.898364]}, "type": "Feature", "properties": {"status": "OPEN", "stands": 18, "address": "Metro Center / 12th & G St NW", "lat": 38.898364, "name": "Metro Center / 12th & G St NW", "bikes": 10, "update": "2015-11-07T16:45:03", "lon": -77.027869}}, {"geometry": {"type": "Point", "coordinates": [-77.031617, 38.894514]}, "type": "Feature", "properties": {"status": "OPEN", "stands": 18, "address": "14th & D St NW / Ronald Reagan Building", "lat": 38.894514, "name": "14th & D St NW / Ronald Reagan Building", "bikes": 4, "update": "2015-11-07T16:34:33", "lon": -77.031617}}, {"geometry": {"type": "Point", "coordinates": [-77.022322, 38.897324]}, "type": "Feature", "properties": {"status": "OPEN", "stands": 20, "address": "7th & F St NW / National Portrait Gallery", "lat": 38.897324, "name": "7th & F St NW / National Portrait Gallery", "bikes": 6, "update": "2015-11-07T15:53:52", "lon": -77.022322}}, {"geometry": {"type": "Point", "coordinates": [-77.038322, 38.902061]}, "type": "Feature", "properties": {"status": "OPEN", "stands": 29, "address": "17th & K St NW / Farragut Square", "lat": 38.902061, "name": "17th & K St NW / Farragut Square", "bikes": 2, "update": "2015-11-07T16:43:16", "lon": -77.038322}}, {"geometry": {"type": "Point", "coordinates": [-77.04478, 38.908905]}, "type": "Feature", "properties": {"status": "OPEN", "stands": 9, "address": "20th & O St NW / Dupont South", "lat": 38.908905, "name": "20th & O St NW / Dupont South", "bikes": 10, "update": "2015-11-07T16:51:40", "lon": -77.04478}}, {"geometry": {"type": "Point", "coordinates": [-77.016106, 38.895344]}, "type": "Feature", "properties": {"status": "OPEN", "stands": 7, "address": "4th & D St NW / Judiciary Square", "lat": 38.895344, "name": "4th & D St NW / Judiciary Square", "bikes": 6, "update": "2015-11-07T15:25:37", "lon": -77.016106}}, {"geometry": {"type": "Point", "coordinates": [-77.0436, 38.8923]}, "type": "Feature", "properties": {"status": "OPEN", "stands": 30, "address": "19th St & Constitution Ave NW", "lat": 38.8923, "name": "19th St & Constitution Ave NW", "bikes": 5, "update": "2015-11-07T16:09:37", "lon": -77.0436}}, {"geometry": {"type": "Point", "coordinates": [-77.071652, 38.90774]}, "type": "Feature", "properties": {"status": "OPEN", "stands": 13, "address": "37th & O St NW / Georgetown University", "lat": 38.90774, "name": "37th & O St NW / Georgetown University", "bikes": 9, "update": "2015-11-07T16:14:08", "lon": -77.071652}}, {"geometry": {"type": "Point", "coordinates": [-76.991383, 38.899983]}, "type": "Feature", "properties": {"status": "OPEN", "stands": 10, "address": "11th & H St NE", "lat": 38.899983, "name": "11th & H St NE", "bikes": 9, "update": "2015-11-07T16:33:38", "lon": -76.991383}}, {"geometry": {"type": "Point", "coordinates": [-77.053485, 38.903827]}, "type": "Feature", "properties": {"status": "OPEN", "stands": 13, "address": "25th St & Pennsylvania Ave NW", "lat": 38.903827, "name": "25th St & Pennsylvania Ave NW", "bikes": 0, "update": "2015-11-07T16:36:23", "lon": -77.053485}}, {"geometry": {"type": "Point", "coordinates": [-77.00493, 38.89696]}, "type": "Feature", "properties": {"status": "OPEN", "stands": 6, "address": "Columbus Circle / Union Station", "lat": 38.89696, "name": "Columbus Circle / Union Station", "bikes": 27, "update": "2015-11-07T16:55:09", "lon": -77.00493}}, {"geometry": {"type": "Point", "coordinates": [-77.009888, 38.897446]}, "type": "Feature", "properties": {"status": "OPEN", "stands": 14, "address": "North Capitol St & F St NW", "lat": 38.897446, "name": "North Capitol St & F St NW", "bikes": 7, "update": "2015-11-07T16:02:27", "lon": -77.009888}}, {"geometry": {"type": "Point", "coordinates": [-77.027137, 38.905607]}, "type": "Feature", "properties": {"status": "OPEN", "stands": 14, "address": "11th & M St NW", "lat": 38.905607, "name": "11th & M St NW", "bikes": 4, "update": "2015-11-07T17:01:57", "lon": -77.027137}}, {"geometry": {"type": "Point", "coordinates": [-77.070334, 38.922581]}, "type": "Feature", "properties": {"status": "OPEN", "stands": 8, "address": "36th & Calvert St NW / Glover Park", "lat": 38.922581, "name": "36th & Calvert St NW / Glover Park", "bikes": 7, "update": "2015-11-07T14:56:24", "lon": -77.070334}}, {"geometry": {"type": "Point", "coordinates": [-77.031823, 38.898069]}, "type": "Feature", "properties": {"status": "OPEN", "stands": 16, "address": "14th & G St NW", "lat": 38.898069, "name": "14th & G St NW", "bikes": 5, "update": "2015-11-07T16:07:42", "lon": -77.031823}}, {"geometry": {"type": "Point", "coordinates": [-77.050537, 38.844015]}, "type": "Feature", "properties": {"status": "OPEN", "stands": 4, "address": "Potomac Ave & 35th St S", "lat": 38.844015, "name": "Potomac Ave & 35th St S", "bikes": 18, "update": "2015-11-07T15:15:43", "lon": -77.050537}}, {"geometry": {"type": "Point", "coordinates": [-77.04657, 38.88412]}, "type": "Feature", "properties": {"status": "OPEN", "stands": 19, "address": "Ohio Dr & West Basin Dr SW / MLK & FDR Memorials", "lat": 38.88412, "name": "Ohio Dr & West Basin Dr SW / MLK & FDR Memorials", "bikes": 4, "update": "2015-11-07T16:43:16", "lon": -77.04657}}, {"geometry": {"type": "Point", "coordinates": [-77.026975, 38.897857]}, "type": "Feature", "properties": {"status": "OPEN", "stands": 3, "address": "11th & F St NW", "lat": 38.897857, "name": "11th & F St NW", "bikes": 12, "update": "2015-11-07T16:55:48", "lon": -77.026975}}, {"geometry": {"type": "Point", "coordinates": [-77.049882, 38.896104]}, "type": "Feature", "properties": {"status": "OPEN", "stands": 14, "address": "23rd & E St NW ", "lat": 38.896104, "name": "23rd & E St NW ", "bikes": 4, "update": "2015-11-07T14:43:50", "lon": -77.049882}}, {"geometry": {"type": "Point", "coordinates": [-77.070993, 38.897315]}, "type": "Feature", "properties": {"status": "OPEN", "stands": 19, "address": "Lynn & 19th St North", "lat": 38.897315, "name": "Lynn & 19th St North", "bikes": 8, "update": "2015-11-07T16:07:22", "lon": -77.070993}}, {"geometry": {"type": "Point", "coordinates": [-77.072305, 38.8946]}, "type": "Feature", "properties": {"status": "OPEN", "stands": 9, "address": "Rosslyn Metro / Wilson Blvd & Ft Myer Dr", "lat": 38.8946, "name": "Rosslyn Metro / Wilson Blvd & Ft Myer Dr", "bikes": 4, "update": "2015-11-07T16:23:34", "lon": -77.072305}}, {"geometry": {"type": "Point", "coordinates": [-77.076701, 38.893648]}, "type": "Feature", "properties": {"status": "OPEN", "stands": 7, "address": "Clarendon Blvd & Pierce St", "lat": 38.893648, "name": "Clarendon Blvd & Pierce St", "bikes": 3, "update": "2015-11-07T14:59:17", "lon": -77.076701}}, {"geometry": {"type": "Point", "coordinates": [-77.0846, 38.891696]}, "type": "Feature", "properties": {"status": "OPEN", "stands": 15, "address": "Wilson Blvd & N Uhle St", "lat": 38.891696, "name": "Wilson Blvd & N Uhle St", "bikes": 0, "update": "2015-11-07T17:01:39", "lon": -77.0846}}, {"geometry": {"type": "Point", "coordinates": [-77.079375, 38.892164]}, "type": "Feature", "properties": {"status": "OPEN", "stands": 5, "address": "N Rhodes & 16th St N", "lat": 38.892164, "name": "N Rhodes & 16th St N", "bikes": 6, "update": "2015-11-07T16:39:56", "lon": -77.079375}}, {"geometry": {"type": "Point", "coordinates": [-76.952103, 38.86559]}, "type": "Feature", "properties": {"status": "OPEN", "stands": 5, "address": "Fairfax Village", "lat": 38.86559, "name": "Fairfax Village", "bikes": 9, "update": "2015-11-07T11:02:55", "lon": -76.952103}}, {"geometry": {"type": "Point", "coordinates": [-77.046567, 38.892459]}, "type": "Feature", "properties": {"status": "OPEN", "stands": 13, "address": "21st St & Constitution Ave NW", "lat": 38.892459, "name": "21st St & Constitution Ave NW", "bikes": 2, "update": "2015-11-07T11:01:52", "lon": -77.046567}}, {"geometry": {"type": "Point", "coordinates": [-77.0925, 38.889]}, "type": "Feature", "properties": {"status": "OPEN", "stands": 9, "address": "Wilson Blvd & N Edgewood St", "lat": 38.889, "name": "Wilson Blvd & N Edgewood St", "bikes": 6, "update": "2015-11-07T16:46:14", "lon": -77.0925}}, {"geometry": {"type": "Point", "coordinates": [-77.04368, 38.920669]}, "type": "Feature", "properties": {"status": "OPEN", "stands": 15, "address": "Columbia Rd & Belmont St NW", "lat": 38.920669, "name": "Columbia Rd & Belmont St NW", "bikes": 4, "update": "2015-11-07T16:52:16", "lon": -77.04368}}, {"geometry": {"type": "Point", "coordinates": [-77.038785, 38.906602]}, "type": "Feature", "properties": {"status": "OPEN", "stands": 12, "address": "17th & Rhode Island Ave NW", "lat": 38.906602, "name": "17th & Rhode Island Ave NW", "bikes": 11, "update": "2015-11-07T16:56:39", "lon": -77.038785}}, {"geometry": {"type": "Point", "coordinates": [-77.0325, 38.9059]}, "type": "Feature", "properties": {"status": "OPEN", "stands": 6, "address": "Thomas Circle", "lat": 38.9059, "name": "Thomas Circle", "bikes": 25, "update": "2015-11-07T17:01:03", "lon": -77.0325}}, {"geometry": {"type": "Point", "coordinates": [-77.0889, 38.8904]}, "type": "Feature", "properties": {"status": "OPEN", "stands": 3, "address": "Wilson Blvd & Franklin Rd", "lat": 38.8904, "name": "Wilson Blvd & Franklin Rd", "bikes": 7, "update": "2015-11-07T17:03:55", "lon": -77.0889}}, {"geometry": {"type": "Point", "coordinates": [-77.09308, 38.8881]}, "type": "Feature", "properties": {"status": "OPEN", "stands": 12, "address": "Clarendon Blvd & N Fillmore St", "lat": 38.8881, "name": "Clarendon Blvd & N Fillmore St", "bikes": 3, "update": "2015-11-07T14:27:45", "lon": -77.09308}}, {"geometry": {"type": "Point", "coordinates": [-77.094875, 38.88786]}, "type": "Feature", "properties": {"status": "OPEN", "stands": 15, "address": "Clarendon Metro / Wilson Blvd & N Highland St", "lat": 38.88786, "name": "Clarendon Metro / Wilson Blvd & N Highland St", "bikes": 2, "update": "2015-11-07T16:36:17", "lon": -77.094875}}, {"geometry": {"type": "Point", "coordinates": [-77.041539, 38.89968]}, "type": "Feature", "properties": {"status": "OPEN", "stands": 22, "address": "18th St & Pennsylvania Ave NW", "lat": 38.89968, "name": "18th St & Pennsylvania Ave NW", "bikes": 4, "update": "2015-11-07T11:01:29", "lon": -77.041539}}, {"geometry": {"type": "Point", "coordinates": [-77.018939, 38.887299]}, "type": "Feature", "properties": {"status": "OPEN", "stands": 10, "address": "Maryland & Independence Ave SW", "lat": 38.887299, "name": "Maryland & Independence Ave SW", "bikes": 25, "update": "2015-11-07T16:54:10", "lon": -77.018939}}, {"geometry": {"type": "Point", "coordinates": [-77.017445, 38.88412]}, "type": "Feature", "properties": {"status": "OPEN", "stands": 13, "address": "4th & E St SW", "lat": 38.88412, "name": "4th & E St SW", "bikes": 6, "update": "2015-11-07T17:00:14", "lon": -77.017445}}, {"geometry": {"type": "Point", "coordinates": [-77.001828, 38.881185]}, "type": "Feature", "properties": {"status": "OPEN", "stands": 11, "address": "3rd & G St SE", "lat": 38.881185, "name": "3rd & G St SE", "bikes": 7, "update": "2015-11-07T15:57:38", "lon": -77.001828}}, {"geometry": {"type": "Point", "coordinates": [-77.022155, 38.912719]}, "type": "Feature", "properties": {"status": "OPEN", "stands": 2, "address": "7th & R St NW / Shaw Library", "lat": 38.912719, "name": "7th & R St NW / Shaw Library", "bikes": 13, "update": "2015-11-07T16:16:29", "lon": -77.022155}}, {"geometry": {"type": "Point", "coordinates": [-77.0251, 38.9418]}, "type": "Feature", "properties": {"status": "OPEN", "stands": 5, "address": "9th & Upshur St NW", "lat": 38.9418, "name": "9th & Upshur St NW", "bikes": 9, "update": "2015-11-07T14:58:26", "lon": -77.0251}}, {"geometry": {"type": "Point", "coordinates": [-77.012289, 38.915417]}, "type": "Feature", "properties": {"status": "OPEN", "stands": 2, "address": "1st & Rhode Island Ave NW", "lat": 38.915417, "name": "1st & Rhode Island Ave NW", "bikes": 13, "update": "2015-11-07T16:48:30", "lon": -77.012289}}, {"geometry": {"type": "Point", "coordinates": [-77.02344, 38.928156]}, "type": "Feature", "properties": {"status": "OPEN", "stands": 8, "address": "Columbia Rd & Georgia Ave NW", "lat": 38.928156, "name": "Columbia Rd & Georgia Ave NW", "bikes": 10, "update": "2015-11-07T17:03:34", "lon": -77.02344}}, {"geometry": {"type": "Point", "coordinates": [-77.04062, 38.917761]}, "type": "Feature", "properties": {"status": "OPEN", "stands": 0, "address": "California St & Florida Ave NW", "lat": 38.917761, "name": "California St & Florida Ave NW", "bikes": 19, "update": "2015-11-07T16:56:44", "lon": -77.04062}}, {"geometry": {"type": "Point", "coordinates": [-76.93723, 38.889935]}, "type": "Feature", "properties": {"status": "OPEN", "stands": 16, "address": "Benning Rd & East Capitol St NE / Benning Rd Metro", "lat": 38.889935, "name": "Benning Rd & East Capitol St NE / Benning Rd Metro", "bikes": 3, "update": "2015-11-07T11:01:17", "lon": -76.93723}}, {"geometry": {"type": "Point", "coordinates": [-77.055599, 38.930282]}, "type": "Feature", "properties": {"status": "OPEN", "stands": 10, "address": "3000 Connecticut Ave NW / National Zoo", "lat": 38.930282, "name": "3000 Connecticut Ave NW / National Zoo", "bikes": 5, "update": "2015-11-07T16:54:13", "lon": -77.055599}}, {"geometry": {"type": "Point", "coordinates": [-76.96012, 38.896544]}, "type": "Feature", "properties": {"status": "OPEN", "stands": 7, "address": "Anacostia Ave & Benning Rd NE / River Terrace ", "lat": 38.896544, "name": "Anacostia Ave & Benning Rd NE / River Terrace ", "bikes": 8, "update": "2015-11-07T11:01:18", "lon": -76.96012}}, {"geometry": {"type": "Point", "coordinates": [-77.056887, 38.905126]}, "type": "Feature", "properties": {"status": "OPEN", "stands": 11, "address": "M St & Pennsylvania Ave NW", "lat": 38.905126, "name": "M St & Pennsylvania Ave NW", "bikes": 7, "update": "2015-11-07T16:52:47", "lon": -77.056887}}, {"geometry": {"type": "Point", "coordinates": [-76.983569, 38.88732]}, "type": "Feature", "properties": {"status": "OPEN", "stands": 2, "address": "15th St & Massachusetts Ave SE", "lat": 38.88732, "name": "15th St & Massachusetts Ave SE", "bikes": 13, "update": "2015-11-07T16:45:53", "lon": -76.983569}}, {"geometry": {"type": "Point", "coordinates": [-76.987823, 38.844711]}, "type": "Feature", "properties": {"status": "OPEN", "stands": 7, "address": "Congress Heights Metro", "lat": 38.844711, "name": "Congress Heights Metro", "bikes": 8, "update": "2015-11-07T11:03:21", "lon": -76.987823}}, {"geometry": {"type": "Point", "coordinates": [-77.107735, 38.876393]}, "type": "Feature", "properties": {"status": "OPEN", "stands": 5, "address": "N Quincy St & Glebe Rd", "lat": 38.876393, "name": "N Quincy St & Glebe Rd", "bikes": 6, "update": "2015-11-07T11:02:06", "lon": -77.107735}}, {"geometry": {"type": "Point", "coordinates": [-77.10396, 38.8815]}, "type": "Feature", "properties": {"status": "OPEN", "stands": 9, "address": "Wilson Blvd & N Oakland St", "lat": 38.8815, "name": "Wilson Blvd & N Oakland St", "bikes": 2, "update": "2015-11-07T16:07:11", "lon": -77.10396}}, {"geometry": {"type": "Point", "coordinates": [-77.086502, 38.896923]}, "type": "Feature", "properties": {"status": "OPEN", "stands": 11, "address": "N Veitch  & 20th St N", "lat": 38.896923, "name": "N Veitch  & 20th St N", "bikes": 4, "update": "2015-11-07T14:19:32", "lon": -77.086502}}, {"geometry": {"type": "Point", "coordinates": [-77.02622, 38.9024]}, "type": "Feature", "properties": {"status": "OPEN", "stands": 13, "address": "10th & K St NW", "lat": 38.9024, "name": "10th & K St NW", "bikes": 9, "update": "2015-11-07T17:00:50", "lon": -77.02622}}, {"geometry": {"type": "Point", "coordinates": [-77.097745, 38.885801]}, "type": "Feature", "properties": {"status": "OPEN", "stands": 8, "address": "Fairfax Dr & Wilson Blvd", "lat": 38.885801, "name": "Fairfax Dr & Wilson Blvd", "bikes": 2, "update": "2015-11-07T15:02:15", "lon": -77.097745}}, {"geometry": {"type": "Point", "coordinates": [-77.078107, 38.896015]}, "type": "Feature", "properties": {"status": "OPEN", "stands": 8, "address": "Key Blvd & N Quinn St", "lat": 38.896015, "name": "Key Blvd & N Quinn St", "bikes": 3, "update": "2015-11-07T15:51:06", "lon": -77.078107}}, {"geometry": {"type": "Point", "coordinates": [-77.006004, 38.87861]}, "type": "Feature", "properties": {"status": "OPEN", "stands": 1, "address": "1st & K St SE", "lat": 38.87861, "name": "1st & K St SE", "bikes": 14, "update": "2015-11-07T16:28:52", "lon": -77.006004}}, {"geometry": {"type": "Point", "coordinates": [-77.077271, 38.922649]}, "type": "Feature", "properties": {"status": "OPEN", "stands": 11, "address": "39th & Calvert St NW / Stoddert", "lat": 38.922649, "name": "39th & Calvert St NW / Stoddert", "bikes": 6, "update": "2015-11-07T16:11:15", "lon": -77.077271}}, {"geometry": {"type": "Point", "coordinates": [-77.012457, 38.928743]}, "type": "Feature", "properties": {"status": "OPEN", "stands": 7, "address": "1st & Washington Hospital Center NW", "lat": 38.928743, "name": "1st & Washington Hospital Center NW", "bikes": 8, "update": "2015-11-07T15:29:00", "lon": -77.012457}}, {"geometry": {"type": "Point", "coordinates": [-77.103148, 38.882788]}, "type": "Feature", "properties": {"status": "OPEN", "stands": 14, "address": "Virginia Square Metro / N Monroe St & 9th St N", "lat": 38.882788, "name": "Virginia Square Metro / N Monroe St & 9th St N", "bikes": 5, "update": "2015-11-07T16:17:28", "lon": -77.103148}}, {"geometry": {"type": "Point", "coordinates": [-77.10783, 38.88397]}, "type": "Feature", "properties": {"status": "OPEN", "stands": 5, "address": "Central Library / N Quincy St & 10th St N", "lat": 38.88397, "name": "Central Library / N Quincy St & 10th St N", "bikes": 5, "update": "2015-11-07T15:54:18", "lon": -77.10783}}, {"geometry": {"type": "Point", "coordinates": [-77.093485, 38.884734]}, "type": "Feature", "properties": {"status": "OPEN", "stands": 10, "address": "Washington Blvd & 10th St N", "lat": 38.884734, "name": "Washington Blvd & 10th St N", "bikes": 3, "update": "2015-11-07T17:02:59", "lon": -77.093485}}, {"geometry": {"type": "Point", "coordinates": [-77.032429, 38.888553]}, "type": "Feature", "properties": {"status": "OPEN", "stands": 4, "address": "Jefferson Dr & 14th St SW", "lat": 38.888553, "name": "Jefferson Dr & 14th St SW", "bikes": 16, "update": "2015-11-07T17:02:40", "lon": -77.032429}}, {"geometry": {"type": "Point", "coordinates": [-77.02858, 38.888767]}, "type": "Feature", "properties": {"status": "OPEN", "stands": 3, "address": "Smithsonian / Jefferson Dr & 12th St SW", "lat": 38.888767, "name": "Smithsonian / Jefferson Dr & 12th St SW", "bikes": 19, "update": "2015-11-07T16:50:32", "lon": -77.02858}}, {"geometry": {"type": "Point", "coordinates": [-77.1207, 38.87887]}, "type": "Feature", "properties": {"status": "OPEN", "stands": 4, "address": "George Mason Dr & Wilson Blvd", "lat": 38.87887, "name": "George Mason Dr & Wilson Blvd", "bikes": 11, "update": "2015-11-07T16:07:52", "lon": -77.1207}}, {"geometry": {"type": "Point", "coordinates": [-77.01994, 38.894573]}, "type": "Feature", "properties": {"status": "OPEN", "stands": 3, "address": "6th St & Indiana Ave NW", "lat": 38.894573, "name": "6th St & Indiana Ave NW", "bikes": 15, "update": "2015-11-07T16:58:01", "lon": -77.01994}}, {"geometry": {"type": "Point", "coordinates": [-77.086045, 38.893241]}, "type": "Feature", "properties": {"status": "OPEN", "stands": 10, "address": "N Veitch & Key Blvd", "lat": 38.893241, "name": "N Veitch & Key Blvd", "bikes": 0, "update": "2015-11-07T15:41:30", "lon": -77.086045}}, {"geometry": {"type": "Point", "coordinates": [-77.089006, 38.89593]}, "type": "Feature", "properties": {"status": "OPEN", "stands": 17, "address": "N Adams St & Lee Hwy", "lat": 38.89593, "name": "N Adams St & Lee Hwy", "bikes": 5, "update": "2015-11-07T15:49:39", "lon": -77.089006}}, {"geometry": {"type": "Point", "coordinates": [-77.08095, 38.89054]}, "type": "Feature", "properties": {"status": "OPEN", "stands": 5, "address": "15th & N Scott St", "lat": 38.89054, "name": "15th & N Scott St", "bikes": 4, "update": "2015-11-07T15:41:51", "lon": -77.08095}}, {"geometry": {"type": "Point", "coordinates": [-77.091129, 38.880834]}, "type": "Feature", "properties": {"status": "OPEN", "stands": 6, "address": "Washington Blvd & 7th St N", "lat": 38.880834, "name": "Washington Blvd & 7th St N", "bikes": 5, "update": "2015-11-07T11:01:46", "lon": -77.091129}}, {"geometry": {"type": "Point", "coordinates": [-77.111768, 38.881044]}, "type": "Feature", "properties": {"status": "OPEN", "stands": 13, "address": "Ballston Metro / N Stuart & 9th St N", "lat": 38.881044, "name": "Ballston Metro / N Stuart & 9th St N", "bikes": 6, "update": "2015-11-07T16:59:30", "lon": -77.111768}}, {"geometry": {"type": "Point", "coordinates": [-77.109366, 38.882629]}, "type": "Feature", "properties": {"status": "OPEN", "stands": 6, "address": "N Randolph St & Fairfax Dr", "lat": 38.882629, "name": "N Randolph St & Fairfax Dr", "bikes": 5, "update": "2015-11-07T17:01:19", "lon": -77.109366}}, {"geometry": {"type": "Point", "coordinates": [-77.037413, 38.879819]}, "type": "Feature", "properties": {"status": "OPEN", "stands": 20, "address": "Jefferson Memorial", "lat": 38.879819, "name": "Jefferson Memorial", "bikes": 3, "update": "2015-11-07T16:56:46", "lon": -77.037413}}, {"geometry": {"type": "Point", "coordinates": [-76.985238, 38.866611]}, "type": "Feature", "properties": {"status": "OPEN", "stands": 7, "address": "Good Hope Rd & 14th St SE", "lat": 38.866611, "name": "Good Hope Rd & 14th St SE", "bikes": 8, "update": "2015-11-07T15:36:20", "lon": -76.985238}}, {"geometry": {"type": "Point", "coordinates": [-77.116817, 38.883921]}, "type": "Feature", "properties": {"status": "OPEN", "stands": 7, "address": "Glebe Rd & 11th St N", "lat": 38.883921, "name": "Glebe Rd & 11th St N", "bikes": 4, "update": "2015-11-07T14:56:54", "lon": -77.116817}}, {"geometry": {"type": "Point", "coordinates": [-77.107673, 38.880151]}, "type": "Feature", "properties": {"status": "OPEN", "stands": 12, "address": "N Quincy St & Wilson Blvd", "lat": 38.880151, "name": "N Quincy St & Wilson Blvd", "bikes": 2, "update": "2015-11-07T14:38:29", "lon": -77.107673}}, {"geometry": {"type": "Point", "coordinates": [-77.10108, 38.884616]}, "type": "Feature", "properties": {"status": "OPEN", "stands": 6, "address": "Fairfax Dr & Kenmore St", "lat": 38.884616, "name": "Fairfax Dr & Kenmore St", "bikes": 5, "update": "2015-11-07T16:19:05", "lon": -77.10108}}, {"geometry": {"type": "Point", "coordinates": [-76.9941, 38.90509]}, "type": "Feature", "properties": {"status": "OPEN", "stands": 8, "address": "Gallaudet / 8th St & Florida Ave NE", "lat": 38.90509, "name": "Gallaudet / 8th St & Florida Ave NE", "bikes": 9, "update": "2015-11-07T14:49:13", "lon": -76.9941}}, {"geometry": {"type": "Point", "coordinates": [-77.044789, 38.903584]}, "type": "Feature", "properties": {"status": "OPEN", "stands": 15, "address": "20th & L St NW", "lat": 38.903584, "name": "20th & L St NW", "bikes": 4, "update": "2015-11-07T11:02:35", "lon": -77.044789}}, {"geometry": {"type": "Point", "coordinates": [-77.0284, 38.903819]}, "type": "Feature", "properties": {"status": "OPEN", "stands": 8, "address": "12th & L St NW", "lat": 38.903819, "name": "12th & L St NW", "bikes": 10, "update": "2015-11-07T15:55:23", "lon": -77.0284}}, {"geometry": {"type": "Point", "coordinates": [-77.046564, 38.901539]}, "type": "Feature", "properties": {"status": "OPEN", "stands": 10, "address": "21st St & Pennsylvania Ave NW", "lat": 38.901539, "name": "21st St & Pennsylvania Ave NW", "bikes": 8, "update": "2015-11-07T16:34:08", "lon": -77.046564}}, {"geometry": {"type": "Point", "coordinates": [-77.04337, 38.902204]}, "type": "Feature", "properties": {"status": "OPEN", "stands": 17, "address": "19th & K St NW", "lat": 38.902204, "name": "19th & K St NW", "bikes": 4, "update": "2015-11-07T14:43:42", "lon": -77.04337}}, {"geometry": {"type": "Point", "coordinates": [-77.040363, 38.803124]}, "type": "Feature", "properties": {"status": "OPEN", "stands": 10, "address": "Prince St & Union St", "lat": 38.803124, "name": "Prince St & Union St", "bikes": 9, "update": "2015-11-07T14:19:38", "lon": -77.040363}}, {"geometry": {"type": "Point", "coordinates": [-77.043363, 38.804718]}, "type": "Feature", "properties": {"status": "OPEN", "stands": 7, "address": "Market Square / King St & Royal St", "lat": 38.804718, "name": "Market Square / King St & Royal St", "bikes": 6, "update": "2015-11-07T14:27:49", "lon": -77.043363}}, {"geometry": {"type": "Point", "coordinates": [-77.044664, 38.810743]}, "type": "Feature", "properties": {"status": "OPEN", "stands": 6, "address": "Saint Asaph St & Pendleton  St", "lat": 38.810743, "name": "Saint Asaph St & Pendleton  St", "bikes": 8, "update": "2015-11-07T14:32:01", "lon": -77.044664}}, {"geometry": {"type": "Point", "coordinates": [-77.049883, 38.805317]}, "type": "Feature", "properties": {"status": "OPEN", "stands": 8, "address": "King St & Patrick St", "lat": 38.805317, "name": "King St & Patrick St", "bikes": 6, "update": "2015-11-07T16:30:57", "lon": -77.049883}}, {"geometry": {"type": "Point", "coordinates": [-77.03353, 38.902]}, "type": "Feature", "properties": {"status": "OPEN", "stands": 22, "address": "15th & K St NW", "lat": 38.902, "name": "15th & K St NW", "bikes": 5, "update": "2015-11-07T16:30:59", "lon": -77.03353}}, {"geometry": {"type": "Point", "coordinates": [-77.05293, 38.805648]}, "type": "Feature", "properties": {"status": "OPEN", "stands": 11, "address": "Commerce St & Fayette St", "lat": 38.805648, "name": "Commerce St & Fayette St", "bikes": 3, "update": "2015-11-07T11:01:40", "lon": -77.05293}}, {"geometry": {"type": "Point", "coordinates": [-77.050276, 38.811456]}, "type": "Feature", "properties": {"status": "OPEN", "stands": 9, "address": "Henry St & Pendleton St", "lat": 38.811456, "name": "Henry St & Pendleton St", "bikes": 8, "update": "2015-11-07T14:09:14", "lon": -77.050276}}, {"geometry": {"type": "Point", "coordinates": [-77.052808, 38.814577]}, "type": "Feature", "properties": {"status": "OPEN", "stands": 12, "address": "Braddock Rd Metro", "lat": 38.814577, "name": "Braddock Rd Metro", "bikes": 7, "update": "2015-11-07T16:55:57", "lon": -77.052808}}, {"geometry": {"type": "Point", "coordinates": [-77.06072, 38.805767]}, "type": "Feature", "properties": {"status": "OPEN", "stands": 7, "address": "King St Metro", "lat": 38.805767, "name": "King St Metro", "bikes": 15, "update": "2015-11-07T13:01:41", "lon": -77.06072}}, {"geometry": {"type": "Point", "coordinates": [-77.05152, 38.9066]}, "type": "Feature", "properties": {"status": "OPEN", "stands": 9, "address": "24th & N St NW", "lat": 38.9066, "name": "24th & N St NW", "bikes": 4, "update": "2015-11-07T17:03:25", "lon": -77.05152}}, {"geometry": {"type": "Point", "coordinates": [-77.026064, 38.895914]}, "type": "Feature", "properties": {"status": "OPEN", "stands": 2, "address": "10th & E St NW", "lat": 38.895914, "name": "10th & E St NW", "bikes": 11, "update": "2015-11-07T16:33:16", "lon": -77.026064}}, {"geometry": {"type": "Point", "coordinates": [-77.048911, 38.90088]}, "type": "Feature", "properties": {"status": "OPEN", "stands": 6, "address": "22nd & I St NW / Foggy Bottom", "lat": 38.90088, "name": "22nd & I St NW / Foggy Bottom", "bikes": 9, "update": "2015-11-07T17:02:04", "lon": -77.048911}}, {"geometry": {"type": "Point", "coordinates": [-77.113905, 38.883669]}, "type": "Feature", "properties": {"status": "OPEN", "stands": 3, "address": "Utah St & 11th St N ", "lat": 38.883669, "name": "Utah St & 11th St N ", "bikes": 8, "update": "2015-11-07T15:58:09", "lon": -77.113905}}, {"geometry": {"type": "Point", "coordinates": [-77.08777, 38.884961]}, "type": "Feature", "properties": {"status": "OPEN", "stands": 7, "address": "Barton St & 10th St N", "lat": 38.884961, "name": "Barton St & 10th St N", "bikes": 4, "update": "2015-11-07T16:31:01", "lon": -77.08777}}, {"geometry": {"type": "Point", "coordinates": [-77.077294, 38.889365]}, "type": "Feature", "properties": {"status": "OPEN", "stands": 9, "address": "Arlington Blvd & N Queen St", "lat": 38.889365, "name": "Arlington Blvd & N Queen St", "bikes": 2, "update": "2015-11-07T13:57:31", "lon": -77.077294}}, {"geometry": {"type": "Point", "coordinates": [-77.049426, 38.888251]}, "type": "Feature", "properties": {"status": "OPEN", "stands": 10, "address": "Lincoln Memorial", "lat": 38.888251, "name": "Lincoln Memorial", "bikes": 11, "update": "2015-11-07T17:01:06", "lon": -77.049426}}, {"geometry": {"type": "Point", "coordinates": [-77.045128, 38.894722]}, "type": "Feature", "properties": {"status": "OPEN", "stands": 8, "address": "20th St & Virginia Ave NW", "lat": 38.894722, "name": "20th St & Virginia Ave NW", "bikes": 6, "update": "2015-11-07T11:01:50", "lon": -77.045128}}, {"geometry": {"type": "Point", "coordinates": [-77.018677, 38.90093]}, "type": "Feature", "properties": {"status": "OPEN", "stands": 2, "address": "5th St & Massachusetts Ave NW", "lat": 38.90093, "name": "5th St & Massachusetts Ave NW", "bikes": 16, "update": "2015-11-07T16:29:37", "lon": -77.018677}}, {"geometry": {"type": "Point", "coordinates": [-77.077078, 38.943837]}, "type": "Feature", "properties": {"status": "OPEN", "stands": 8, "address": "39th & Veazey St NW", "lat": 38.943837, "name": "39th & Veazey St NW", "bikes": 7, "update": "2015-11-07T16:21:04", "lon": -77.077078}}, {"geometry": {"type": "Point", "coordinates": [-77.082426, 38.954812]}, "type": "Feature", "properties": {"status": "OPEN", "stands": 6, "address": "Fessenden St & Wisconsin Ave NW", "lat": 38.954812, "name": "Fessenden St & Wisconsin Ave NW", "bikes": 8, "update": "2015-11-07T11:02:36", "lon": -77.082426}}, {"geometry": {"type": "Point", "coordinates": [-77.003041, 38.905707]}, "type": "Feature", "properties": {"status": "OPEN", "stands": 2, "address": "M St & Delaware Ave NE", "lat": 38.905707, "name": "M St & Delaware Ave NE", "bikes": 21, "update": "2015-11-07T16:54:43", "lon": -77.003041}}, {"geometry": {"type": "Point", "coordinates": [-77.080319, 38.863833]}, "type": "Feature", "properties": {"status": "OPEN", "stands": 7, "address": "Columbia Pike & S Courthouse Rd", "lat": 38.863833, "name": "Columbia Pike & S Courthouse Rd", "bikes": 8, "update": "2015-11-07T11:02:50", "lon": -77.080319}}, {"geometry": {"type": "Point", "coordinates": [-77.086733, 38.857803]}, "type": "Feature", "properties": {"status": "OPEN", "stands": 2, "address": "Walter Reed Community Center / Walter Reed Dr & 16th St S", "lat": 38.857803, "name": "Walter Reed Community Center / Walter Reed Dr & 16th St S", "bikes": 9, "update": "2015-11-07T14:45:53", "lon": -77.086733}}, {"geometry": {"type": "Point", "coordinates": [-77.069275, 38.846222]}, "type": "Feature", "properties": {"status": "OPEN", "stands": 5, "address": "28th St S & S Meade St", "lat": 38.846222, "name": "28th St S & S Meade St", "bikes": 9, "update": "2015-11-07T17:04:48", "lon": -77.069275}}, {"geometry": {"type": "Point", "coordinates": [-77.041571, 38.918809]}, "type": "Feature", "properties": {"status": "OPEN", "stands": 12, "address": "18th St & Wyoming Ave NW", "lat": 38.918809, "name": "18th St & Wyoming Ave NW", "bikes": 8, "update": "2015-11-07T17:03:43", "lon": -77.041571}}, {"geometry": {"type": "Point", "coordinates": [-77.019815, 38.956595]}, "type": "Feature", "properties": {"status": "OPEN", "stands": 6, "address": "5th & Kennedy St NW", "lat": 38.956595, "name": "5th & Kennedy St NW", "bikes": 7, "update": "2015-11-07T16:31:14", "lon": -77.019815}}, {"geometry": {"type": "Point", "coordinates": [-77.027333, 38.949662]}, "type": "Feature", "properties": {"status": "OPEN", "stands": 10, "address": "Georgia Ave & Emerson St NW", "lat": 38.949662, "name": "Georgia Ave & Emerson St NW", "bikes": 9, "update": "2015-11-07T16:12:36", "lon": -77.027333}}, {"geometry": {"type": "Point", "coordinates": [-77.032652, 38.942016]}, "type": "Feature", "properties": {"status": "OPEN", "stands": 10, "address": "14th & Upshur St NW", "lat": 38.942016, "name": "14th & Upshur St NW", "bikes": 9, "update": "2015-11-07T11:01:31", "lon": -77.032652}}, {"geometry": {"type": "Point", "coordinates": [-77.032947, 38.956432]}, "type": "Feature", "properties": {"status": "OPEN", "stands": 12, "address": "14th St & Colorado Ave NW", "lat": 38.956432, "name": "14th St & Colorado Ave NW", "bikes": 7, "update": "2015-11-07T16:12:33", "lon": -77.032947}}, {"geometry": {"type": "Point", "coordinates": [-77.075104, 38.847977]}, "type": "Feature", "properties": {"status": "OPEN", "stands": 6, "address": "S Troy St & 26th St S", "lat": 38.847977, "name": "S Troy St & 26th St S", "bikes": 5, "update": "2015-11-07T16:54:13", "lon": -77.075104}}, {"geometry": {"type": "Point", "coordinates": [-77.085931, 38.8444]}, "type": "Feature", "properties": {"status": "OPEN", "stands": 5, "address": "S Four Mile Run Dr & S Shirlington Rd", "lat": 38.8444, "name": "S Four Mile Run Dr & S Shirlington Rd", "bikes": 6, "update": "2015-11-07T11:35:16", "lon": -77.085931}}, {"geometry": {"type": "Point", "coordinates": [-77.09586, 38.860789]}, "type": "Feature", "properties": {"status": "OPEN", "stands": 8, "address": "S Oakland St & Columbia Pike", "lat": 38.860789, "name": "S Oakland St & Columbia Pike", "bikes": 3, "update": "2015-11-07T14:14:28", "lon": -77.09586}}, {"geometry": {"type": "Point", "coordinates": [-77.095431, 38.84736]}, "type": "Feature", "properties": {"status": "OPEN", "stands": 4, "address": "S Four Mile Run & Walter Reed Dr", "lat": 38.84736, "name": "S Four Mile Run & Walter Reed Dr", "bikes": 7, "update": "2015-11-07T11:31:55", "lon": -77.095431}}, {"geometry": {"type": "Point", "coordinates": [-77.089555, 38.84232]}, "type": "Feature", "properties": {"status": "OPEN", "stands": 5, "address": "S Arlington Mill Dr & Campbell Ave", "lat": 38.84232, "name": "S Arlington Mill Dr & Campbell Ave", "bikes": 10, "update": "2015-11-07T11:02:10", "lon": -77.089555}}, {"geometry": {"type": "Point", "coordinates": [-77.084918, 38.848454]}, "type": "Feature", "properties": {"status": "OPEN", "stands": 2, "address": "S Kenmore & 24th St S", "lat": 38.848454, "name": "S Kenmore & 24th St S", "bikes": 9, "update": "2015-11-07T11:51:39", "lon": -77.084918}}, {"geometry": {"type": "Point", "coordinates": [-77.029417, 38.987]}, "type": "Feature", "properties": {"status": "OPEN", "stands": 8, "address": "13th St & Eastern Ave", "lat": 38.987, "name": "13th St & Eastern Ave", "bikes": 7, "update": "2015-11-07T14:06:05", "lon": -77.029417}}, {"geometry": {"type": "Point", "coordinates": [-77.063586, 38.90849]}, "type": "Feature", "properties": {"status": "OPEN", "stands": 13, "address": "Wisconsin Ave & O St NW", "lat": 38.90849, "name": "Wisconsin Ave & O St NW", "bikes": 5, "update": "2015-11-07T17:00:32", "lon": -77.063586}}, {"geometry": {"type": "Point", "coordinates": [-77.100555, 38.854691]}, "type": "Feature", "properties": {"status": "OPEN", "stands": 6, "address": "S George Mason Dr & 13th St S", "lat": 38.854691, "name": "S George Mason Dr & 13th St S", "bikes": 5, "update": "2015-11-07T11:00:56", "lon": -77.100555}}, {"geometry": {"type": "Point", "coordinates": [-77.069956, 38.955016]}, "type": "Feature", "properties": {"status": "OPEN", "stands": 8, "address": "Connecticut & Nebraska Ave NW", "lat": 38.955016, "name": "Connecticut & Nebraska Ave NW", "bikes": 14, "update": "2015-11-07T16:03:41", "lon": -77.069956}}, {"geometry": {"type": "Point", "coordinates": [-77.038359, 38.908142]}, "type": "Feature", "properties": {"status": "OPEN", "stands": 15, "address": "17th St & Massachusetts Ave NW", "lat": 38.908142, "name": "17th St & Massachusetts Ave NW", "bikes": 0, "update": "2015-11-07T16:39:09", "lon": -77.038359}}, {"geometry": {"type": "Point", "coordinates": [-77.0352, 38.92333]}, "type": "Feature", "properties": {"status": "OPEN", "stands": 14, "address": "15th & Euclid St  NW", "lat": 38.92333, "name": "15th & Euclid St  NW", "bikes": 0, "update": "2015-11-07T16:43:30", "lon": -77.0352}}, {"geometry": {"type": "Point", "coordinates": [-76.995193, 38.889988]}, "type": "Feature", "properties": {"status": "OPEN", "stands": 3, "address": "8th & East Capitol St NE", "lat": 38.889988, "name": "8th & East Capitol St NE", "bikes": 8, "update": "2015-11-07T17:02:21", "lon": -76.995193}}, {"geometry": {"type": "Point", "coordinates": [-77.017669, 38.912659]}, "type": "Feature", "properties": {"status": "OPEN", "stands": 8, "address": "New Jersey Ave & R St NW", "lat": 38.912659, "name": "New Jersey Ave & R St NW", "bikes": 6, "update": "2015-11-07T16:59:21", "lon": -77.017669}}, {"geometry": {"type": "Point", "coordinates": [-76.983326, 38.889908]}, "type": "Feature", "properties": {"status": "OPEN", "stands": 2, "address": "15th & East Capitol St NE", "lat": 38.889908, "name": "15th & East Capitol St NE", "bikes": 9, "update": "2015-11-07T16:04:37", "lon": -76.983326}}, {"geometry": {"type": "Point", "coordinates": [-76.994749, 38.897274]}, "type": "Feature", "properties": {"status": "OPEN", "stands": 12, "address": "8th & F St NE", "lat": 38.897274, "name": "8th & F St NE", "bikes": 2, "update": "2015-11-07T17:03:55", "lon": -76.994749}}, {"geometry": {"type": "Point", "coordinates": [-76.978924, 38.927095]}, "type": "Feature", "properties": {"status": "OPEN", "stands": 5, "address": "18th St & Rhode Island Ave NE", "lat": 38.927095, "name": "18th St & Rhode Island Ave NE", "bikes": 10, "update": "2015-11-07T11:02:46", "lon": -76.978924}}, {"geometry": {"type": "Point", "coordinates": [-76.983575, 38.897195]}, "type": "Feature", "properties": {"status": "OPEN", "stands": 5, "address": "15th & F St NE", "lat": 38.897195, "name": "15th & F St NE", "bikes": 13, "update": "2015-11-07T16:06:55", "lon": -76.983575}}, {"geometry": {"type": "Point", "coordinates": [-76.990955, 38.928644]}, "type": "Feature", "properties": {"status": "OPEN", "stands": 9, "address": "12th & Irving St NE", "lat": 38.928644, "name": "12th & Irving St NE", "bikes": 5, "update": "2015-11-07T11:00:59", "lon": -76.990955}}, {"geometry": {"type": "Point", "coordinates": [-76.957461, 38.884085]}, "type": "Feature", "properties": {"status": "OPEN", "stands": 8, "address": "34th St & Minnesota Ave SE", "lat": 38.884085, "name": "34th St & Minnesota Ave SE", "bikes": 2, "update": "2015-11-07T11:01:15", "lon": -76.957461}}, {"geometry": {"type": "Point", "coordinates": [-76.999388, 38.843222]}, "type": "Feature", "properties": {"status": "OPEN", "stands": 5, "address": "Alabama & MLK Ave SE", "lat": 38.843222, "name": "Alabama & MLK Ave SE", "bikes": 4, "update": "2015-11-07T11:01:02", "lon": -76.999388}}, {"geometry": {"type": "Point", "coordinates": [-76.990037, 38.863897]}, "type": "Feature", "properties": {"status": "OPEN", "stands": 8, "address": "Pleasant St & MLK Ave SE", "lat": 38.863897, "name": "Pleasant St & MLK Ave SE", "bikes": 3, "update": "2015-11-07T11:02:53", "lon": -76.990037}}, {"geometry": {"type": "Point", "coordinates": [-76.987211, 38.903732]}, "type": "Feature", "properties": {"status": "OPEN", "stands": 11, "address": "Neal St & Trinidad Ave NE", "lat": 38.903732, "name": "Neal St & Trinidad Ave NE", "bikes": 4, "update": "2015-11-07T16:15:14", "lon": -76.987211}}, {"geometry": {"type": "Point", "coordinates": [-77.028139, 38.916787]}, "type": "Feature", "properties": {"status": "OPEN", "stands": 22, "address": "12th & U St NW", "lat": 38.916787, "name": "12th & U St NW", "bikes": 8, "update": "2015-11-07T17:00:15", "lon": -77.028139}}, {"geometry": {"type": "Point", "coordinates": [-77.105022, 38.852248]}, "type": "Feature", "properties": {"status": "OPEN", "stands": 5, "address": "S George Mason Dr & Four Mile Run", "lat": 38.852248, "name": "S George Mason Dr & Four Mile Run", "bikes": 6, "update": "2015-11-07T16:30:25", "lon": -77.105022}}, {"geometry": {"type": "Point", "coordinates": [-77.087323, 38.834108]}, "type": "Feature", "properties": {"status": "OPEN", "stands": 5, "address": "S Stafford & 34th St S", "lat": 38.834108, "name": "S Stafford & 34th St S", "bikes": 6, "update": "2015-11-07T11:01:16", "lon": -77.087323}}, {"geometry": {"type": "Point", "coordinates": [-77.08596, 38.880705]}, "type": "Feature", "properties": {"status": "OPEN", "stands": 4, "address": "N Pershing Dr & Wayne St", "lat": 38.880705, "name": "N Pershing Dr & Wayne St", "bikes": 7, "update": "2015-11-07T13:33:00", "lon": -77.08596}}, {"geometry": {"type": "Point", "coordinates": [-77.072315, 38.867262]}, "type": "Feature", "properties": {"status": "OPEN", "stands": 7, "address": "Columbia Pike & S Orme St", "lat": 38.867262, "name": "Columbia Pike & S Orme St", "bikes": 3, "update": "2015-11-07T14:50:58", "lon": -77.072315}}, {"geometry": {"type": "Point", "coordinates": [-77.001955, 38.887378]}, "type": "Feature", "properties": {"status": "OPEN", "stands": 7, "address": "3rd St & Pennsylvania Ave SE", "lat": 38.887378, "name": "3rd St & Pennsylvania Ave SE", "bikes": 7, "update": "2015-11-07T16:42:40", "lon": -77.001955}}, {"geometry": {"type": "Point", "coordinates": [-77.02324, 38.894851]}, "type": "Feature", "properties": {"status": "OPEN", "stands": 6, "address": "8th & D St NW", "lat": 38.894851, "name": "8th & D St NW", "bikes": 7, "update": "2015-11-07T16:59:06", "lon": -77.02324}}, {"geometry": {"type": "Point", "coordinates": [-77.01597, 38.917622]}, "type": "Feature", "properties": {"status": "OPEN", "stands": 5, "address": "3rd & Elm St NW", "lat": 38.917622, "name": "3rd & Elm St NW", "bikes": 10, "update": "2015-11-07T16:19:31", "lon": -77.01597}}, {"geometry": {"type": "Point", "coordinates": [-77.004746, 38.918155]}, "type": "Feature", "properties": {"status": "OPEN", "stands": 6, "address": "Rhode Island Ave & V St NE", "lat": 38.918155, "name": "Rhode Island Ave & V St NE", "bikes": 12, "update": "2015-11-07T16:16:29", "lon": -77.004746}}, {"geometry": {"type": "Point", "coordinates": [-77.013917, 38.892275]}, "type": "Feature", "properties": {"status": "OPEN", "stands": 10, "address": "Constitution Ave & 2nd St NW/DOL", "lat": 38.892275, "name": "Constitution Ave & 2nd St NW/DOL", "bikes": 13, "update": "2015-11-07T16:34:05", "lon": -77.013917}}, {"geometry": {"type": "Point", "coordinates": [-77.01397, 38.88731]}, "type": "Feature", "properties": {"status": "OPEN", "stands": 6, "address": "Washington & Independence Ave SW/HHS", "lat": 38.88731, "name": "Washington & Independence Ave SW/HHS", "bikes": 18, "update": "2015-11-07T17:04:45", "lon": -77.01397}}, {"geometry": {"type": "Point", "coordinates": [-77.025762, 38.887312]}, "type": "Feature", "properties": {"status": "OPEN", "stands": 7, "address": "Independence Ave & L'Enfant Plaza SW/DOE", "lat": 38.887312, "name": "Independence Ave & L'Enfant Plaza SW/DOE", "bikes": 8, "update": "2015-11-07T15:42:50", "lon": -77.025762}}, {"geometry": {"type": "Point", "coordinates": [-76.997194, 38.927497]}, "type": "Feature", "properties": {"status": "OPEN", "stands": 7, "address": "Hamlin & 7th St NE", "lat": 38.927497, "name": "Hamlin & 7th St NE", "bikes": 8, "update": "2015-11-07T14:03:39", "lon": -76.997194}}, {"geometry": {"type": "Point", "coordinates": [-77.086599, 38.862478]}, "type": "Feature", "properties": {"status": "OPEN", "stands": 4, "address": "Columbia Pike & S Walter Reed Dr", "lat": 38.862478, "name": "Columbia Pike & S Walter Reed Dr", "bikes": 8, "update": "2015-11-07T16:19:54", "lon": -77.086599}}, {"geometry": {"type": "Point", "coordinates": [-77.11153, 38.856319]}, "type": "Feature", "properties": {"status": "OPEN", "stands": 4, "address": "Columbia Pike & S Dinwiddie St / Arlington Mill Community Center", "lat": 38.856319, "name": "Columbia Pike & S Dinwiddie St / Arlington Mill Community Center", "bikes": 9, "update": "2015-11-07T15:30:36", "lon": -77.11153}}, {"geometry": {"type": "Point", "coordinates": [-77.107906, 38.871822]}, "type": "Feature", "properties": {"status": "OPEN", "stands": 6, "address": "Pershing & N George Mason Dr", "lat": 38.871822, "name": "Pershing & N George Mason Dr", "bikes": 5, "update": "2015-11-07T15:46:13", "lon": -77.107906}}, {"geometry": {"type": "Point", "coordinates": [-77.023082, 38.985404]}, "type": "Feature", "properties": {"status": "OPEN", "stands": 7, "address": "Fenton St & New York Ave ", "lat": 38.985404, "name": "Fenton St & New York Ave ", "bikes": 8, "update": "2015-11-07T16:53:37", "lon": -77.023082}}, {"geometry": {"type": "Point", "coordinates": [-77.097426, 38.981103]}, "type": "Feature", "properties": {"status": "OPEN", "stands": 4, "address": "Bethesda Ave & Arlington Rd", "lat": 38.981103, "name": "Bethesda Ave & Arlington Rd", "bikes": 15, "update": "2015-11-07T14:55:04", "lon": -77.097426}}, {"geometry": {"type": "Point", "coordinates": [-77.09221, 38.983838]}, "type": "Feature", "properties": {"status": "OPEN", "stands": 4, "address": "Montgomery Ave & Waverly St ", "lat": 38.983838, "name": "Montgomery Ave & Waverly St ", "bikes": 7, "update": "2015-11-07T11:02:20", "lon": -77.09221}}, {"geometry": {"type": "Point", "coordinates": [-77.192672, 39.096312]}, "type": "Feature", "properties": {"status": "OPEN", "stands": 7, "address": "Fallsgrove Blvd & Fallsgrove Dr", "lat": 39.096312, "name": "Fallsgrove Blvd & Fallsgrove Dr", "bikes": 12, "update": "2015-11-07T11:01:46", "lon": -77.192672}}, {"geometry": {"type": "Point", "coordinates": [-77.202501, 39.093783]}, "type": "Feature", "properties": {"status": "OPEN", "stands": 7, "address": "Traville Gateway Dr & Gudelsky Dr", "lat": 39.093783, "name": "Traville Gateway Dr & Gudelsky Dr", "bikes": 12, "update": "2015-11-07T11:01:28", "lon": -77.202501}}, {"geometry": {"type": "Point", "coordinates": [-77.096539, 38.988562]}, "type": "Feature", "properties": {"status": "OPEN", "stands": 1, "address": "Norfolk Ave & Fairmont St", "lat": 38.988562, "name": "Norfolk Ave & Fairmont St", "bikes": 9, "update": "2015-11-07T14:27:40", "lon": -77.096539}}, {"geometry": {"type": "Point", "coordinates": [-77.151291, 39.084125]}, "type": "Feature", "properties": {"status": "OPEN", "stands": 12, "address": "E Montgomery Ave & Maryland Ave", "lat": 39.084125, "name": "E Montgomery Ave & Maryland Ave", "bikes": 3, "update": "2015-11-07T11:02:35", "lon": -77.151291}}, {"geometry": {"type": "Point", "coordinates": [-77.098029, 38.98954]}, "type": "Feature", "properties": {"status": "OPEN", "stands": 5, "address": "Cordell & Norfolk Ave", "lat": 38.98954, "name": "Cordell & Norfolk Ave", "bikes": 6, "update": "2015-11-07T14:50:03", "lon": -77.098029}}, {"geometry": {"type": "Point", "coordinates": [-77.145213, 39.094772]}, "type": "Feature", "properties": {"status": "OPEN", "stands": 5, "address": "Frederick Ave & Horners Ln", "lat": 39.094772, "name": "Frederick Ave & Horners Ln", "bikes": 5, "update": "2015-11-07T16:56:55", "lon": -77.145213}}, {"geometry": {"type": "Point", "coordinates": [-77.011336, 38.98128]}, "type": "Feature", "properties": {"status": "OPEN", "stands": 8, "address": "Philadelphia & Maple Ave", "lat": 38.98128, "name": "Philadelphia & Maple Ave", "bikes": 7, "update": "2015-11-07T14:30:40", "lon": -77.011336}}, {"geometry": {"type": "Point", "coordinates": [-77.006311, 38.983627]}, "type": "Feature", "properties": {"status": "OPEN", "stands": 9, "address": "Maple & Ritchie Ave", "lat": 38.983627, "name": "Maple & Ritchie Ave", "bikes": 10, "update": "2015-11-07T11:03:04", "lon": -77.006311}}, {"geometry": {"type": "Point", "coordinates": [-77.02918, 38.99521]}, "type": "Feature", "properties": {"status": "OPEN", "stands": 6, "address": "Silver Spring Metro/Colesville Rd & Wayne Ave", "lat": 38.99521, "name": "Silver Spring Metro/Colesville Rd & Wayne Ave", "bikes": 12, "update": "2015-11-07T11:02:53", "lon": -77.02918}}, {"geometry": {"type": "Point", "coordinates": [-77.095367, 38.983525]}, "type": "Feature", "properties": {"status": "OPEN", "stands": 5, "address": "Montgomery & East Ln", "lat": 38.983525, "name": "Montgomery & East Ln", "bikes": 6, "update": "2015-11-07T11:02:15", "lon": -77.095367}}, {"geometry": {"type": "Point", "coordinates": [-77.085998, 38.961763]}, "type": "Feature", "properties": {"status": "OPEN", "stands": 9, "address": "Friendship Hts Metro/Wisconsin Ave & Wisconsin Cir", "lat": 38.961763, "name": "Friendship Hts Metro/Wisconsin Ave & Wisconsin Cir", "bikes": 10, "update": "2015-11-07T11:02:13", "lon": -77.085998}}, {"geometry": {"type": "Point", "coordinates": [-77.031887, 38.921074]}, "type": "Feature", "properties": {"status": "OPEN", "stands": 1, "address": "14th & Belmont St NW", "lat": 38.921074, "name": "14th & Belmont St NW", "bikes": 14, "update": "2015-11-07T16:58:10", "lon": -77.031887}}, {"geometry": {"type": "Point", "coordinates": [-77.0024, 38.87501]}, "type": "Feature", "properties": {"status": "OPEN", "stands": 9, "address": "3rd & Tingey St SE", "lat": 38.87501, "name": "3rd & Tingey St SE", "bikes": 9, "update": "2015-11-07T17:03:03", "lon": -77.0024}}, {"geometry": {"type": "Point", "coordinates": [-77.025672, 38.920387]}, "type": "Feature", "properties": {"status": "OPEN", "stands": 6, "address": "10th & Florida Ave NW", "lat": 38.920387, "name": "10th & Florida Ave NW", "bikes": 12, "update": "2015-11-07T15:01:03", "lon": -77.025672}}, {"geometry": {"type": "Point", "coordinates": [-76.994468, 38.876737]}, "type": "Feature", "properties": {"status": "OPEN", "stands": 12, "address": "Potomac Ave & 8th St SE", "lat": 38.876737, "name": "Potomac Ave & 8th St SE", "bikes": 3, "update": "2015-11-07T13:15:32", "lon": -76.994468}}, {"geometry": {"type": "Point", "coordinates": [-77.156985, 39.120045]}, "type": "Feature", "properties": {"status": "OPEN", "stands": 3, "address": "Crabbs Branch Way & Redland Rd", "lat": 39.120045, "name": "Crabbs Branch Way & Redland Rd", "bikes": 12, "update": "2015-11-07T11:01:08", "lon": -77.156985}}, {"geometry": {"type": "Point", "coordinates": [-77.188014, 39.099376]}, "type": "Feature", "properties": {"status": "OPEN", "stands": 7, "address": "Fallsgrove Dr & W Montgomery Ave", "lat": 39.099376, "name": "Fallsgrove Dr & W Montgomery Ave", "bikes": 8, "update": "2015-11-07T11:01:44", "lon": -77.188014}}, {"geometry": {"type": "Point", "coordinates": [-77.148827, 39.082779]}, "type": "Feature", "properties": {"status": "OPEN", "stands": 3, "address": "Monroe St & Monroe Pl", "lat": 39.082779, "name": "Monroe St & Monroe Pl", "bikes": 12, "update": "2015-11-07T11:02:42", "lon": -77.148827}}, {"geometry": {"type": "Point", "coordinates": [-77.15741, 39.123513]}, "type": "Feature", "properties": {"status": "OPEN", "stands": 7, "address": "Needwood Rd & Eagles Head Ct", "lat": 39.123513, "name": "Needwood Rd & Eagles Head Ct", "bikes": 8, "update": "2015-11-07T11:01:26", "lon": -77.15741}}, {"geometry": {"type": "Point", "coordinates": [-77.02935, 38.990249]}, "type": "Feature", "properties": {"status": "OPEN", "stands": 6, "address": "East West Hwy & Blair Mill Rd", "lat": 38.990249, "name": "East West Hwy & Blair Mill Rd", "bikes": 9, "update": "2015-11-07T11:02:25", "lon": -77.02935}}, {"geometry": {"type": "Point", "coordinates": [-77.152072, 39.107709]}, "type": "Feature", "properties": {"status": "OPEN", "stands": 9, "address": "Crabbs Branch Way & Calhoun Pl", "lat": 39.107709, "name": "Crabbs Branch Way & Calhoun Pl", "bikes": 6, "update": "2015-11-07T11:01:31", "lon": -77.152072}}, {"geometry": {"type": "Point", "coordinates": [-77.091991, 38.982456]}, "type": "Feature", "properties": {"status": "OPEN", "stands": 7, "address": "47th & Elm St", "lat": 38.982456, "name": "47th & Elm St", "bikes": 7, "update": "2015-11-07T11:02:03", "lon": -77.091991}}, {"geometry": {"type": "Point", "coordinates": [-77.00149, 39.000578]}, "type": "Feature", "properties": {"status": "OPEN", "stands": 8, "address": "Garland Ave & Walden Rd", "lat": 39.000578, "name": "Garland Ave & Walden Rd", "bikes": 7, "update": "2015-11-07T11:02:29", "lon": -77.00149}}, {"geometry": {"type": "Point", "coordinates": [-77.159048, 39.095661]}, "type": "Feature", "properties": {"status": "OPEN", "stands": 7, "address": "Montgomery College/W Campus Dr & Mannakee St", "lat": 39.095661, "name": "Montgomery College/W Campus Dr & Mannakee St", "bikes": 14, "update": "2015-11-07T11:02:50", "lon": -77.159048}}, {"geometry": {"type": "Point", "coordinates": [-77.023854, 38.989724]}, "type": "Feature", "properties": {"status": "OPEN", "stands": 6, "address": "Fenton St & Gist Ave", "lat": 38.989724, "name": "Fenton St & Gist Ave", "bikes": 5, "update": "2015-11-07T16:20:16", "lon": -77.023854}}, {"geometry": {"type": "Point", "coordinates": [-77.01121, 38.975]}, "type": "Feature", "properties": {"status": "OPEN", "stands": 9, "address": "Carroll & Westmoreland Ave", "lat": 38.975, "name": "Carroll & Westmoreland Ave", "bikes": 6, "update": "2015-11-07T11:01:39", "lon": -77.01121}}, {"geometry": {"type": "Point", "coordinates": [-77.006472, 38.977933]}, "type": "Feature", "properties": {"status": "OPEN", "stands": 8, "address": "Carroll & Ethan Allen Ave", "lat": 38.977933, "name": "Carroll & Ethan Allen Ave", "bikes": 7, "update": "2015-11-07T15:21:59", "lon": -77.006472}}, {"geometry": {"type": "Point", "coordinates": [-77.100104, 38.992375]}, "type": "Feature", "properties": {"status": "OPEN", "stands": 7, "address": "Battery Ln & Trolley Trail", "lat": 38.992375, "name": "Battery Ln & Trolley Trail", "bikes": 8, "update": "2015-11-07T11:01:49", "lon": -77.100104}}, {"geometry": {"type": "Point", "coordinates": [-77.100239, 38.990639]}, "type": "Feature", "properties": {"status": "OPEN", "stands": 6, "address": "Norfolk & Rugby Ave", "lat": 38.990639, "name": "Norfolk & Rugby Ave", "bikes": 4, "update": "2015-11-07T11:01:45", "lon": -77.100239}}, {"geometry": {"type": "Point", "coordinates": [-77.094589, 38.977093]}, "type": "Feature", "properties": {"status": "OPEN", "stands": 3, "address": "Offutt Ln & Chevy Chase Dr", "lat": 38.977093, "name": "Offutt Ln & Chevy Chase Dr", "bikes": 7, "update": "2015-11-07T14:38:16", "lon": -77.094589}}, {"geometry": {"type": "Point", "coordinates": [-77.200322, 39.102099]}, "type": "Feature", "properties": {"status": "OPEN", "stands": 8, "address": "Broschart & Blackwell Rd", "lat": 39.102099, "name": "Broschart & Blackwell Rd", "bikes": 7, "update": "2015-11-07T11:03:02", "lon": -77.200322}}, {"geometry": {"type": "Point", "coordinates": [-77.132954, 39.094103]}, "type": "Feature", "properties": {"status": "OPEN", "stands": 5, "address": "Taft St & E Gude Dr", "lat": 39.094103, "name": "Taft St & E Gude Dr", "bikes": 10, "update": "2015-11-07T11:01:39", "lon": -77.132954}}, {"geometry": {"type": "Point", "coordinates": [-77.141378, 39.076331]}, "type": "Feature", "properties": {"status": "OPEN", "stands": 6, "address": "Fleet St & Ritchie Pkwy", "lat": 39.076331, "name": "Fleet St & Ritchie Pkwy", "bikes": 9, "update": "2015-11-07T11:03:01", "lon": -77.141378}}, {"geometry": {"type": "Point", "coordinates": [-77.177091, 39.102212]}, "type": "Feature", "properties": {"status": "OPEN", "stands": 5, "address": "Piccard & W Gude Dr", "lat": 39.102212, "name": "Piccard & W Gude Dr", "bikes": 14, "update": "2015-11-07T11:00:48", "lon": -77.177091}}, {"geometry": {"type": "Point", "coordinates": [-77.029457, 38.992679]}, "type": "Feature", "properties": {"status": "OPEN", "stands": 9, "address": "Ripley & Bonifant St", "lat": 38.992679, "name": "Ripley & Bonifant St", "bikes": 6, "update": "2015-11-07T11:02:02", "lon": -77.029457}}, {"geometry": {"type": "Point", "coordinates": [-77.031555, 38.999388]}, "type": "Feature", "properties": {"status": "OPEN", "stands": 6, "address": "Georgia Ave & Spring St", "lat": 38.999388, "name": "Georgia Ave & Spring St", "bikes": 5, "update": "2015-11-07T11:01:42", "lon": -77.031555}}, {"geometry": {"type": "Point", "coordinates": [-77.025608, 38.997033]}, "type": "Feature", "properties": {"status": "OPEN", "stands": 10, "address": "Fenton St & Ellsworth Dr ", "lat": 38.997033, "name": "Fenton St & Ellsworth Dr ", "bikes": 5, "update": "2015-11-07T16:14:32", "lon": -77.025608}}, {"geometry": {"type": "Point", "coordinates": [-77.171487, 39.114688]}, "type": "Feature", "properties": {"status": "OPEN", "stands": 4, "address": "King Farm Blvd & Pleasant Dr", "lat": 39.114688, "name": "King Farm Blvd & Pleasant Dr", "bikes": 14, "update": "2015-11-07T11:01:01", "lon": -77.171487}}, {"geometry": {"type": "Point", "coordinates": [-77.182669, 39.110314]}, "type": "Feature", "properties": {"status": "OPEN", "stands": 9, "address": "King Farm Blvd & Piccard Dr", "lat": 39.110314, "name": "King Farm Blvd & Piccard Dr", "bikes": 6, "update": "2015-11-07T11:00:59", "lon": -77.182669}}, {"geometry": {"type": "Point", "coordinates": [-77.050046, 38.923583]}, "type": "Feature", "properties": {"status": "OPEN", "stands": 18, "address": "Calvert St & Woodley Pl NW", "lat": 38.923583, "name": "Calvert St & Woodley Pl NW", "bikes": 1, "update": "2015-11-07T16:28:24", "lon": -77.050046}}, {"geometry": {"type": "Point", "coordinates": [-77.015231, 38.90706]}, "type": "Feature", "properties": {"status": "OPEN", "stands": 7, "address": "New Jersey Ave & N St NW/Dunbar HS", "lat": 38.90706, "name": "New Jersey Ave & N St NW/Dunbar HS", "bikes": 12, "update": "2015-11-07T16:19:04", "lon": -77.015231}}, {"geometry": {"type": "Point", "coordinates": [-76.931862, 38.898536]}, "type": "Feature", "properties": {"status": "OPEN", "stands": 8, "address": "Nannie Helen Burroughs Ave & 49th St NE", "lat": 38.898536, "name": "Nannie Helen Burroughs Ave & 49th St NE", "bikes": 2, "update": "2015-11-07T11:01:01", "lon": -76.931862}}, {"geometry": {"type": "Point", "coordinates": [-76.933099, 38.908473]}, "type": "Feature", "properties": {"status": "OPEN", "stands": 8, "address": "Deanwood Rec Center", "lat": 38.908473, "name": "Deanwood Rec Center", "bikes": 6, "update": "2015-11-07T11:01:14", "lon": -76.933099}}, {"geometry": {"type": "Point", "coordinates": [-77.03023, 38.878433]}, "type": "Feature", "properties": {"status": "OPEN", "stands": 6, "address": "Hains Point/Buckeye & Ohio Dr SW", "lat": 38.878433, "name": "Hains Point/Buckeye & Ohio Dr SW", "bikes": 11, "update": "2015-11-07T15:11:39", "lon": -77.03023}}, {"geometry": {"type": "Point", "coordinates": [-77.089233, 38.873755]}, "type": "Feature", "properties": {"status": "OPEN", "stands": 4, "address": "Arlington Blvd & Fillmore St", "lat": 38.873755, "name": "Arlington Blvd & Fillmore St", "bikes": 6, "update": "2015-11-07T17:03:20", "lon": -77.089233}}, {"geometry": {"type": "Point", "coordinates": [-77.04826, 38.86646]}, "type": "Feature", "properties": {"status": "OPEN", "stands": 4, "address": "Long Bridge Park/Long Bridge Dr & 6th St S", "lat": 38.86646, "name": "Long Bridge Park/Long Bridge Dr & 6th St S", "bikes": 10, "update": "2015-11-07T11:02:22", "lon": -77.04826}}, {"geometry": {"type": "Point", "coordinates": [-77.109647, 38.999634]}, "type": "Feature", "properties": {"status": "OPEN", "stands": 9, "address": "Old Georgetown Rd & Southwick St", "lat": 38.999634, "name": "Old Georgetown Rd & Southwick St", "bikes": 10, "update": "2015-11-07T11:02:10", "lon": -77.109647}}, {"geometry": {"type": "Point", "coordinates": [-77.088659, 38.96115]}, "type": "Feature", "properties": {"status": "OPEN", "stands": 8, "address": "Friendship Blvd & Willard Ave", "lat": 38.96115, "name": "Friendship Blvd & Willard Ave", "bikes": 9, "update": "2015-11-07T11:02:26", "lon": -77.088659}}, {"geometry": {"type": "Point", "coordinates": [-77.008911, 38.899703]}, "type": "Feature", "properties": {"status": "OPEN", "stands": 16, "address": "North Capitol St & G Pl NE", "lat": 38.899703, "name": "North Capitol St & G Pl NE", "bikes": 2, "update": "2015-11-07T17:02:59", "lon": -77.008911}}, {"geometry": {"type": "Point", "coordinates": [-77.09482, 38.837666]}, "type": "Feature", "properties": {"status": "OPEN", "stands": 6, "address": "31st & Woodrow St S", "lat": 38.837666, "name": "31st & Woodrow St S", "bikes": 5, "update": "2015-11-07T11:01:30", "lon": -77.09482}}, {"geometry": {"type": "Point", "coordinates": [-77.082104, 38.873219]}, "type": "Feature", "properties": {"status": "OPEN", "stands": 6, "address": "Washington Blvd & Walter Reed Dr ", "lat": 38.873219, "name": "Washington Blvd & Walter Reed Dr ", "bikes": 7, "update": "2015-11-07T17:03:34", "lon": -77.082104}}, {"geometry": {"type": "Point", "coordinates": [-77.095596, 38.869418]}, "type": "Feature", "properties": {"status": "OPEN", "stands": 5, "address": "TJ Cmty Ctr / 2nd St & S Old Glebe Rd", "lat": 38.869418, "name": "TJ Cmty Ctr / 2nd St & S Old Glebe Rd", "bikes": 10, "update": "2015-11-07T11:02:09", "lon": -77.095596}}, {"geometry": {"type": "Point", "coordinates": [-77.062036, 38.941154]}, "type": "Feature", "properties": {"status": "OPEN", "stands": 8, "address": "Connecticut Ave & Tilden St NW", "lat": 38.941154, "name": "Connecticut Ave & Tilden St NW", "bikes": 7, "update": "2015-11-07T17:00:29", "lon": -77.062036}}, {"geometry": {"type": "Point", "coordinates": [-77.196442, 39.103091]}, "type": "Feature", "properties": {"status": "OPEN", "stands": 6, "address": "Medical Center Dr & Key West Ave", "lat": 39.103091, "name": "Medical Center Dr & Key West Ave", "bikes": 9, "update": "2015-11-07T11:01:25", "lon": -77.196442}}, {"geometry": {"type": "Point", "coordinates": [-77.196636, 39.097636]}, "type": "Feature", "properties": {"status": "OPEN", "stands": 12, "address": "Shady Grove Hospital", "lat": 39.097636, "name": "Shady Grove Hospital", "bikes": 7, "update": "2015-11-07T11:02:07", "lon": -77.196636}}, {"geometry": {"type": "Point", "coordinates": [-77.023894, 38.997445]}, "type": "Feature", "properties": {"status": "OPEN", "stands": 4, "address": "Veterans Pl & Pershing Dr ", "lat": 38.997445, "name": "Veterans Pl & Pershing Dr ", "bikes": 7, "update": "2015-11-07T14:40:40", "lon": -77.023894}}, {"geometry": {"type": "Point", "coordinates": [-77.145803, 39.085394]}, "type": "Feature", "properties": {"status": "OPEN", "stands": 7, "address": "Rockville Metro East", "lat": 39.085394, "name": "Rockville Metro East", "bikes": 6, "update": "2015-11-07T11:07:09", "lon": -77.145803}}, {"geometry": {"type": "Point", "coordinates": [-77.012108, 38.900358]}, "type": "Feature", "properties": {"status": "OPEN", "stands": 8, "address": "1st & H St NW", "lat": 38.900358, "name": "1st & H St NW", "bikes": 7, "update": "2015-11-07T16:46:32", "lon": -77.012108}}, {"geometry": {"type": "Point", "coordinates": [-77.002721, 38.952369]}, "type": "Feature", "properties": {"status": "OPEN", "stands": 12, "address": "Fort Totten Metro", "lat": 38.952369, "name": "Fort Totten Metro", "bikes": 7, "update": "2015-11-07T11:01:02", "lon": -77.002721}}, {"geometry": {"type": "Point", "coordinates": [-77.016855, 38.975219]}, "type": "Feature", "properties": {"status": "OPEN", "stands": 4, "address": "Takoma Metro", "lat": 38.975219, "name": "Takoma Metro", "bikes": 15, "update": "2015-11-07T16:58:29", "lon": -77.016855}}, {"geometry": {"type": "Point", "coordinates": [-76.995876, 38.920682]}, "type": "Feature", "properties": {"status": "OPEN", "stands": 2, "address": "Rhode Island Ave Metro", "lat": 38.920682, "name": "Rhode Island Ave Metro", "bikes": 14, "update": "2015-11-07T15:46:50", "lon": -76.995876}}, {"geometry": {"type": "Point", "coordinates": [-77.076131, 38.866471]}, "type": "Feature", "properties": {"status": "OPEN", "stands": 3, "address": "Rolfe St & 9th St S", "lat": 38.866471, "name": "Rolfe St & 9th St S", "bikes": 8, "update": "2015-11-07T11:00:48", "lon": -77.076131}}, {"geometry": {"type": "Point", "coordinates": [-77.087083, 38.839912]}, "type": "Feature", "properties": {"status": "OPEN", "stands": 6, "address": "Shirlington Transit Center / S Quincy & Randolph St", "lat": 38.839912, "name": "Shirlington Transit Center / S Quincy & Randolph St", "bikes": 9, "update": "2015-11-07T15:07:54", "lon": -77.087083}}, {"geometry": {"type": "Point", "coordinates": [-77.166093, 39.119765]}, "type": "Feature", "properties": {"status": "OPEN", "stands": 7, "address": "Shady Grove Metro West", "lat": 39.119765, "name": "Shady Grove Metro West", "bikes": 11, "update": "2015-11-07T11:00:25", "lon": -77.166093}}, {"geometry": {"type": "Point", "coordinates": [-77.103381, 38.964992]}, "type": "Feature", "properties": {"status": "OPEN", "stands": 5, "address": "River Rd & Landy Ln", "lat": 38.964992, "name": "River Rd & Landy Ln", "bikes": 14, "update": "2015-11-07T11:01:00", "lon": -77.103381}}, {"geometry": {"type": "Point", "coordinates": [-77.146866, 39.084379]}, "type": "Feature", "properties": {"status": "OPEN", "stands": 8, "address": "Rockville Metro West", "lat": 39.084379, "name": "Rockville Metro West", "bikes": 11, "update": "2015-11-07T11:01:17", "lon": -77.146866}}, {"geometry": {"type": "Point", "coordinates": [-77.094537, 38.984691]}, "type": "Feature", "properties": {"status": "OPEN", "stands": 8, "address": "Bethesda Metro", "lat": 38.984691, "name": "Bethesda Metro", "bikes": 4, "update": "2015-11-07T11:01:20", "lon": -77.094537}}, {"geometry": {"type": "Point", "coordinates": [-77.071301, 38.88992]}, "type": "Feature", "properties": {"status": "OPEN", "stands": 6, "address": "Iwo Jima Memorial/N Meade & 14th St N", "lat": 38.88992, "name": "Iwo Jima Memorial/N Meade & 14th St N", "bikes": 12, "update": "2015-11-07T16:31:21", "lon": -77.071301}}, {"geometry": {"type": "Point", "coordinates": [-77.067786, 38.903582]}, "type": "Feature", "properties": {"status": "OPEN", "stands": 15, "address": "34th & Water St NW", "lat": 38.903582, "name": "34th & Water St NW", "bikes": 2, "update": "2015-11-07T16:57:43", "lon": -77.067786}}, {"geometry": {"type": "Point", "coordinates": [-77.060866, 38.804378]}, "type": "Feature", "properties": {"status": "OPEN", "stands": 11, "address": "Duke St & John Carlyle St", "lat": 38.804378, "name": "Duke St & John Carlyle St", "bikes": 4, "update": "2015-11-07T16:25:49", "lon": -77.060866}}, {"geometry": {"type": "Point", "coordinates": [-77.09169, 38.894941]}, "type": "Feature", "properties": {"status": "OPEN", "stands": 7, "address": "Lee Hwy & N Cleveland St", "lat": 38.894941, "name": "Lee Hwy & N Cleveland St", "bikes": 8, "update": "2015-11-07T15:50:06", "lon": -77.09169}}, {"geometry": {"type": "Point", "coordinates": [-77.104503, 38.869442]}, "type": "Feature", "properties": {"status": "OPEN", "stands": 6, "address": "Arlington Blvd & S George Mason Dr/NFATC", "lat": 38.869442, "name": "Arlington Blvd & S George Mason Dr/NFATC", "bikes": 4, "update": "2015-11-07T11:01:42", "lon": -77.104503}}, {"geometry": {"type": "Point", "coordinates": [-77.024281, 38.898404]}, "type": "Feature", "properties": {"status": "OPEN", "stands": 11, "address": "MLK Library/9th & G St NW", "lat": 38.898404, "name": "MLK Library/9th & G St NW", "bikes": 11, "update": "2015-11-07T15:51:31", "lon": -77.024281}}, {"geometry": {"type": "Point", "coordinates": [-77.080851, 38.897612]}, "type": "Feature", "properties": {"status": "OPEN", "stands": 10, "address": "Lee Hwy & N Scott St", "lat": 38.897612, "name": "Lee Hwy & N Scott St", "bikes": 5, "update": "2015-11-07T15:44:11", "lon": -77.080851}}, {"geometry": {"type": "Point", "coordinates": [-77.051084, 38.901755]}, "type": "Feature", "properties": {"status": "OPEN", "stands": 11, "address": "New Hampshire Ave & 24th St NW", "lat": 38.901755, "name": "New Hampshire Ave & 24th St NW", "bikes": 5, "update": "2015-11-07T17:04:23", "lon": -77.051084}}, {"geometry": {"type": "Point", "coordinates": [-77.068952, 38.801111]}, "type": "Feature", "properties": {"status": "OPEN", "stands": 5, "address": "Eisenhower Ave & Mill Race Ln", "lat": 38.801111, "name": "Eisenhower Ave & Mill Race Ln", "bikes": 9, "update": "2015-11-07T14:25:11", "lon": -77.068952}}, {"geometry": {"type": "Point", "coordinates": [-77.047494, 38.82175]}, "type": "Feature", "properties": {"status": "OPEN", "stands": 2, "address": "Potomac Greens Dr & Slaters Ln", "lat": 38.82175, "name": "Potomac Greens Dr & Slaters Ln", "bikes": 9, "update": "2015-11-07T16:49:56", "lon": -77.047494}}, {"geometry": {"type": "Point", "coordinates": [-77.063562, 38.802677]}, "type": "Feature", "properties": {"status": "OPEN", "stands": 18, "address": "Ballenger Ave & Dulaney St", "lat": 38.802677, "name": "Ballenger Ave & Dulaney St", "bikes": 1, "update": "2015-11-07T16:27:53", "lon": -77.063562}}, {"geometry": {"type": "Point", "coordinates": [-77.057619, 38.820064]}, "type": "Feature", "properties": {"status": "OPEN", "stands": 4, "address": "Mount Vernon Ave & E Nelson Ave", "lat": 38.820064, "name": "Mount Vernon Ave & E Nelson Ave", "bikes": 6, "update": "2015-11-07T14:40:34", "lon": -77.057619}}, {"geometry": {"type": "Point", "coordinates": [-77.058541, 38.82595]}, "type": "Feature", "properties": {"status": "OPEN", "stands": 2, "address": "Mount Vernon Ave & E Del Ray Ave", "lat": 38.82595, "name": "Mount Vernon Ave & E Del Ray Ave", "bikes": 13, "update": "2015-11-07T16:05:55", "lon": -77.058541}}, {"geometry": {"type": "Point", "coordinates": [-77.053096, 38.820932]}, "type": "Feature", "properties": {"status": "OPEN", "stands": 10, "address": "Monroe Ave & Leslie Ave", "lat": 38.820932, "name": "Monroe Ave & Leslie Ave", "bikes": 5, "update": "2015-11-07T14:48:58", "lon": -77.053096}}, {"geometry": {"type": "Point", "coordinates": [-77.059821, 38.833077]}, "type": "Feature", "properties": {"status": "OPEN", "stands": 4, "address": "Mount Vernon Ave & Kennedy St", "lat": 38.833077, "name": "Mount Vernon Ave & Kennedy St", "bikes": 10, "update": "2015-11-07T14:58:34", "lon": -77.059821}}, {"geometry": {"type": "Point", "coordinates": [-77.084801, 38.890612]}, "type": "Feature", "properties": {"status": "OPEN", "stands": 17, "address": "Court House Metro / 15th & N Uhle St ", "lat": 38.890612, "name": "Court House Metro / 15th & N Uhle St ", "bikes": 3, "update": "2015-11-07T16:49:42", "lon": -77.084801}}, {"geometry": {"type": "Point", "coordinates": [-77.000035, 38.986743]},