{"features": [{"geometry": {"coordinates": [-77.0512, 38.8561], "type": "Point"}, "properties": {"lon": -77.0512, "stands": 6, "name": "20th & Bell St", "address": "20th & Bell St", "lat": 38.8561, "bikes": 4, "status": "OPEN", "update": "2015-11-02T19:17:50"}, "type": "Feature"}, {"geometry": {"coordinates": [-77.05332, 38.85725], "type": "Point"}, "properties": {"lon": -77.05332, "stands": 7, "name": "18th & Eads St.", "address": "18th & Eads St.", "lat": 38.85725, "bikes": 3, "status": "OPEN", "update": "2015-11-02T22:09:24"}, "type": "Feature"}, {"geometry": {"coordinates": [-77.049828, 38.856214], "type": "Point"}, "properties": {"lon": -77.049828, "stands": 5, "name": "20th & Crystal Dr", "address": "20th & Crystal Dr", "lat": 38.856214, "bikes": 9, "status": "OPEN", "update": "2015-11-02T21:10:47"}, "type": "Feature"}, {"geometry": {"coordinates": [-77.049593, 38.86017], "type": "Point"}, "properties": {"lon": -77.049593, "stands": 1, "name": "15th & Crystal Dr", "address": "15th & Crystal Dr", "lat": 38.86017, "bikes": 10, "status": "OPEN", "update": "2015-11-02T21:49:04"}, "type": "Feature"}, {"geometry": {"coordinates": [-77.05949, 38.857866], "type": "Point"}, "properties": {"lon": -77.05949, "stands": 7, "name": "Aurora Hills Community Ctr/18th & Hayes St", "address": "Aurora Hills Community Ctr/18th & Hayes St", "lat": 38.857866, "bikes": 4, "status": "OPEN", "update": "2015-11-02T19:17:47"}, "type": "Feature"}, {"geometry": {"coordinates": [-77.059936, 38.862303], "type": "Point"}, "properties": {"lon": -77.059936, "stands": 10, "name": "Pentagon City Metro / 12th & S Hayes St", "address": "Pentagon City Metro / 12th & S Hayes St", "lat": 38.862303, "bikes": 9, "status": "OPEN", "update": "2015-11-02T21:59:24"}, "type": "Feature"}, {"geometry": {"coordinates": [-77.0633, 38.8637], "type": "Point"}, "properties": {"lon": -77.0633, "stands": 4, "name": "S Joyce & Army Navy Dr", "address": "S Joyce & Army Navy Dr", "lat": 38.8637, "bikes": 11, "status": "OPEN", "update": "2015-11-02T19:40:28"}, "type": "Feature"}, {"geometry": {"coordinates": [-77.051141, 38.857063], "type": "Point"}, "properties": {"lon": -77.051141, "stands": 10, "name": "Crystal City Metro / 18th & Bell St", "address": "Crystal City Metro / 18th & Bell St", "lat": 38.857063, "bikes": 8, "status": "OPEN", "update": "2015-11-02T21:16:13"}, "type": "Feature"}, {"geometry": {"coordinates": [-77.0528, 38.8629], "type": "Point"}, "properties": {"lon": -77.0528, "stands": 6, "name": "12th & Army Navy Dr", "address": "12th & Army Navy Dr", "lat": 38.8629, "bikes": 5, "status": "OPEN", "update": "2015-11-02T20:13:20"}, "type": "Feature"}, {"geometry": {"coordinates": [-77.051516, 38.848441], "type": "Point"}, "properties": {"lon": -77.051516, "stands": 6, "name": "27th & Crystal Dr", "address": "27th & Crystal Dr", "lat": 38.848441, "bikes": 11, "status": "OPEN", "update": "2015-11-02T22:15:55"}, "type": "Feature"}, {"geometry": {"coordinates": [-77.0502, 38.8426], "type": "Point"}, "properties": {"lon": -77.0502, "stands": 1, "name": "S Glebe & Potomac Ave", "address": "S Glebe & Potomac Ave", "lat": 38.8426, "bikes": 9, "status": "OPEN", "update": "2015-11-02T22:19:57"}, "type": "Feature"}, {"geometry": {"coordinates": [-77.0498, 38.8533], "type": "Point"}, "properties": {"lon": -77.0498, "stands": 6, "name": "23rd & Crystal Dr", "address": "23rd & Crystal Dr", "lat": 38.8533, "bikes": 11, "status": "OPEN", "update": "2015-11-02T21:37:02"}, "type": "Feature"}, {"geometry": {"coordinates": [-77.05152, 38.850688], "type": "Point"}, "properties": {"lon": -77.05152, "stands": 10, "name": "26th & S Clark St", "address": "26th & S Clark St", "lat": 38.850688, "bikes": 1, "status": "OPEN", "update": "2015-11-02T21:47:03"}, "type": "Feature"}, {"geometry": {"coordinates": [-77.0429, 38.9003], "type": "Point"}, "properties": {"lon": -77.0429, "stands": 1, "name": "19th St & Pennsylvania Ave NW", "address": "19th St & Pennsylvania Ave NW", "lat": 38.9003, "bikes": 14, "status": "OPEN", "update": "2015-11-02T22:12:42"}, "type": "Feature"}, {"geometry": {"coordinates": [-77.0321, 38.9176], "type": "Point"}, "properties": {"lon": -77.0321, "stands": 16, "name": "14th & V St NW", "address": "14th & V St NW", "lat": 38.9176, "bikes": 9, "status": "OPEN", "update": "2015-11-02T22:18:26"}, "type": "Feature"}, {"geometry": {"coordinates": [-77.027822, 38.929464], "type": "Point"}, "properties": {"lon": -77.027822, "stands": 27, "name": "11th & Kenyon St NW", "address": "11th & Kenyon St NW", "lat": 38.929464, "bikes": 0, "status": "OPEN", "update": "2015-11-02T22:21:05"}, "type": "Feature"}, {"geometry": {"coordinates": [-77.036536, 38.926088], "type": "Point"}, "properties": {"lon": -77.036536, "stands": 33, "name": "16th & Harvard St NW", "address": "16th & Harvard St NW", "lat": 38.926088, "bikes": 0, "status": "OPEN", "update": "2015-11-02T20:59:52"}, "type": "Feature"}, {"geometry": {"coordinates": [-77.042581, 38.922925], "type": "Point"}, "properties": {"lon": -77.042581, "stands": 13, "name": "Adams Mill & Columbia Rd NW", "address": "Adams Mill & Columbia Rd NW", "lat": 38.922925, "bikes": 1, "status": "OPEN", "update": "2015-11-02T22:20:27"}, "type": "Feature"}, {"geometry": {"coordinates": [-77.0322, 38.9268], "type": "Point"}, "properties": {"lon": -77.0322, "stands": 19, "name": "14th & Harvard St NW", "address": "14th & Harvard St NW", "lat": 38.9268, "bikes": 0, "status": "OPEN", "update": "2015-11-02T22:12:47"}, "type": "Feature"}, {"geometry": {"coordinates": [-77.047637, 38.923203], "type": "Point"}, "properties": {"lon": -77.047637, "stands": 22, "name": "Calvert & Biltmore St NW", "address": "Calvert & Biltmore St NW", "lat": 38.923203, "bikes": 1, "status": "OPEN", "update": "2015-11-02T22:17:56"}, "type": "Feature"}, {"geometry": {"coordinates": [-77.0388, 38.9319], "type": "Point"}, "properties": {"lon": -77.0388, "stands": 17, "name": "Lamont & Mt Pleasant NW", "address": "Lamont & Mt Pleasant NW", "lat": 38.9319, "bikes": 1, "status": "OPEN", "update": "2015-11-02T22:11:44"}, "type": "Feature"}, {"geometry": {"coordinates": [-77.0178, 38.8767], "type": "Point"}, "properties": {"lon": -77.0178, "stands": 18, "name": "4th & M St SW", "address": "4th & M St SW", "lat": 38.8767, "bikes": 5, "status": "OPEN", "update": "2015-11-02T22:17:19"}, "type": "Feature"}, {"geometry": {"coordinates": [-77.034438, 38.90985], "type": "Point"}, "properties": {"lon": -77.034438, "stands": 12, "name": "15th & P St NW", "address": "15th & P St NW", "lat": 38.90985, "bikes": 7, "status": "OPEN", "update": "2015-11-02T22:21:08"}, "type": "Feature"}, {"geometry": {"coordinates": [-77.031681, 38.912682], "type": "Point"}, "properties": {"lon": -77.031681, "stands": 4, "name": "14th & R St NW", "address": "14th & R St NW", "lat": 38.912682, "bikes": 11, "status": "OPEN", "update": "2015-11-02T22:19:52"}, "type": "Feature"}, {"geometry": {"coordinates": [-77.0323, 38.9086], "type": "Point"}, "properties": {"lon": -77.0323, "stands": 17, "name": "14th & Rhode Island Ave NW", "address": "14th & Rhode Island Ave NW", "lat": 38.9086, "bikes": 6, "status": "OPEN", "update": "2015-11-02T22:21:02"}, "type": "Feature"}, {"geometry": {"coordinates": [-77.045, 38.8963], "type": "Point"}, "properties": {"lon": -77.045, "stands": 7, "name": "20th & E St NW", "address": "20th & E St NW", "lat": 38.8963, "bikes": 7, "status": "OPEN", "update": "2015-11-02T22:16:27"}, "type": "Feature"}, {"geometry": {"coordinates": [-77.047, 38.9008], "type": "Point"}, "properties": {"lon": -77.047, "stands": 0, "name": "21st & I St NW", "address": "21st & I St NW", "lat": 38.9008, "bikes": 34, "status": "OPEN", "update": "2015-11-02T21:34:18"}, "type": "Feature"}, {"geometry": {"coordinates": [-77.024649, 38.936043], "type": "Point"}, "properties": {"lon": -77.024649, "stands": 12, "name": "Georgia & New Hampshire Ave NW", "address": "Georgia & New Hampshire Ave NW", "lat": 38.936043, "bikes": 2, "status": "OPEN", "update": "2015-11-02T22:10:43"}, "type": "Feature"}, {"geometry": {"coordinates": [-77.0328, 38.9375], "type": "Point"}, "properties": {"lon": -77.0328, "stands": 8, "name": "14th St & Spring Rd NW", "address": "14th St & Spring Rd NW", "lat": 38.9375, "bikes": 3, "status": "OPEN", "update": "2015-11-02T22:02:06"}, "type": "Feature"}, {"geometry": {"coordinates": [-76.9955, 38.9346], "type": "Point"}, "properties": {"lon": -76.9955, "stands": 5, "name": "John McCormack Dr & Michigan Ave NE", "address": "John McCormack Dr & Michigan Ave NE", "lat": 38.9346, "bikes": 5, "status": "OPEN", "update": "2015-11-02T22:17:17"}, "type": "Feature"}, {"geometry": {"coordinates": [-77.019027, 38.90304], "type": "Point"}, "properties": {"lon": -77.019027, "stands": 15, "name": "5th & K St NW", "address": "5th & K St NW", "lat": 38.90304, "bikes": 3, "status": "OPEN", "update": "2015-11-02T22:17:39"}, "type": "Feature"}, {"geometry": {"coordinates": [-76.9769, 38.8896], "type": "Point"}, "properties": {"lon": -76.9769, "stands": 12, "name": "19th & East Capitol St SE", "address": "19th & East Capitol St SE", "lat": 38.8896, "bikes": 3, "status": "OPEN", "update": "2015-11-02T21:49:25"}, "type": "Feature"}, {"geometry": {"coordinates": [-77.0315, 38.9308], "type": "Point"}, "properties": {"lon": -77.0315, "stands": 19, "name": "Park Rd & Holmead Pl NW", "address": "Park Rd & Holmead Pl NW", "lat": 38.9308, "bikes": 0, "status": "OPEN", "update": "2015-11-02T22:00:37"}, "type": "Feature"}, {"geometry": {"coordinates": [-76.9672, 38.8601], "type": "Point"}, "properties": {"lon": -76.9672, "stands": 6, "name": "Good Hope & Naylor Rd SE", "address": "Good Hope & Naylor Rd SE", "lat": 38.8601, "bikes": 5, "status": "OPEN", "update": "2015-11-02T11:00:31"}, "type": "Feature"}, {"geometry": {"coordinates": [-77.057979, 38.934267], "type": "Point"}, "properties": {"lon": -77.057979, "stands": 5, "name": "Connecticut Ave & Newark St NW / Cleveland Park", "address": "Connecticut Ave & Newark St NW / Cleveland Park", "lat": 38.934267, "bikes": 4, "status": "OPEN", "update": "2015-11-02T19:02:11"}, "type": "Feature"}, {"geometry": {"coordinates": [-76.9607, 38.878], "type": "Point"}, "properties": {"lon": -76.9607, "stands": 6, "name": "Randle Circle & Minnesota Ave SE", "address": "Randle Circle & Minnesota Ave SE", "lat": 38.878, "bikes": 5, "status": "OPEN", "update": "2015-11-02T11:03:16"}, "type": "Feature"}, {"geometry": {"coordinates": [-76.947446, 38.897063], "type": "Point"}, "properties": {"lon": -76.947446, "stands": 3, "name": "Minnesota Ave Metro/DOES", "address": "Minnesota Ave Metro/DOES", "lat": 38.897063, "bikes": 6, "status": "OPEN", "update": "2015-11-02T19:17:31"}, "type": "Feature"}, {"geometry": {"coordinates": [-76.941877, 38.901385], "type": "Point"}, "properties": {"lon": -76.941877, "stands": 4, "name": "Nannie Helen Burroughs & Minnesota Ave NE", "address": "Nannie Helen Burroughs & Minnesota Ave NE", "lat": 38.901385, "bikes": 7, "status": "OPEN", "update": "2015-11-02T11:01:36"}, "type": "Feature"}, {"geometry": {"coordinates": [-76.994637, 38.862669], "type": "Point"}, "properties": {"lon": -76.994637, "stands": 2, "name": "Anacostia Metro", "address": "Anacostia Metro", "lat": 38.862669, "bikes": 9, "status": "OPEN", "update": "2015-11-02T21:18:27"}, "type": "Feature"}, {"geometry": {"coordinates": [-76.988039, 38.867373], "type": "Point"}, "properties": {"lon": -76.988039, "stands": 5, "name": "Good Hope Rd & MLK Ave SE", "address": "Good Hope Rd & MLK Ave SE", "lat": 38.867373, "bikes": 6, "status": "OPEN", "update": "2015-11-02T15:56:31"}, "type": "Feature"}, {"geometry": {"coordinates": [-77.0436, 38.8952], "type": "Point"}, "properties": {"lon": -77.0436, "stands": 9, "name": "19th & E Street NW", "address": "19th & E Street NW", "lat": 38.8952, "bikes": 1, "status": "OPEN", "update": "2015-11-02T22:01:27"}, "type": "Feature"}, {"geometry": {"coordinates": [-77.000648, 38.919077], "type": "Point"}, "properties": {"lon": -77.000648, "stands": 13, "name": "4th & W St NE", "address": "4th & W St NE", "lat": 38.919077, "bikes": 2, "status": "OPEN", "update": "2015-11-02T20:35:00"}, "type": "Feature"}, {"geometry": {"coordinates": [-77.0259, 38.9172], "type": "Point"}, "properties": {"lon": -77.0259, "stands": 11, "name": "10th & U St NW", "address": "10th & U St NW", "lat": 38.9172, "bikes": 3, "status": "OPEN", "update": "2015-11-02T21:51:21"}, "type": "Feature"}, {"geometry": {"coordinates": [-77.0222, 38.9249], "type": "Point"}, "properties": {"lon": -77.0222, "stands": 10, "name": "Georgia Ave and Fairmont St NW", "address": "Georgia Ave and Fairmont St NW", "lat": 38.9249, "bikes": 1, "status": "OPEN", "update": "2015-11-02T21:02:54"}, "type": "Feature"}, {"geometry": {"coordinates": [-77.0057, 38.8743], "type": "Point"}, "properties": {"lon": -77.0057, "stands": 39, "name": "1st & N St  SE", "address": "1st & N St  SE", "lat": 38.8743, "bikes": 0, "status": "OPEN", "update": "2015-11-02T21:36:47"}, "type": "Feature"}, {"geometry": {"coordinates": [-77.0446, 38.9154], "type": "Point"}, "properties": {"lon": -77.0446, "stands": 9, "name": "20th St & Florida Ave NW", "address": "20th St & Florida Ave NW", "lat": 38.9154, "bikes": 5, "status": "OPEN", "update": "2015-11-02T22:16:44"}, "type": "Feature"}, {"geometry": {"coordinates": [-77.0222, 38.9155], "type": "Point"}, "properties": {"lon": -77.0222, "stands": 12, "name": "7th & T St NW", "address": "7th & T St NW", "lat": 38.9155, "bikes": 2, "status": "OPEN", "update": "2015-11-02T22:17:35"}, "type": "Feature"}, {"geometry": {"coordinates": [-77.053509, 38.853531], "type": "Point"}, "properties": {"lon": -77.053509, "stands": 9, "name": "23rd & Eads St", "address": "23rd & Eads St", "lat": 38.853531, "bikes": 4, "status": "OPEN", "update": "2015-11-02T21:13:54"}, "type": "Feature"}, {"geometry": {"coordinates": [-77.0037, 38.8763], "type": "Point"}, "properties": {"lon": -77.0037, "stands": 13, "name": "M St & New Jersey Ave SE", "address": "M St & New Jersey Ave SE", "lat": 38.8763, "bikes": 2, "status": "OPEN", "update": "2015-11-02T22:18:10"}, "type": "Feature"}, {"geometry": {"coordinates": [-77.0444, 38.9101], "type": "Point"}, "properties": {"lon": -77.0444, "stands": 39, "name": "Massachusetts Ave & Dupont Circle NW", "address": "Massachusetts Ave & Dupont Circle NW", "lat": 38.9101, "bikes": 5, "status": "OPEN", "update": "2015-11-02T22:20:17"}, "type": "Feature"}, {"geometry": {"coordinates": [-77.0056, 38.9057], "type": "Point"}, "properties": {"lon": -77.0056, "stands": 13, "name": "1st & M St NE", "address": "1st & M St NE", "lat": 38.9057, "bikes": 0, "status": "OPEN", "update": "2015-11-02T21:37:02"}, "type": "Feature"}, {"geometry": {"coordinates": [-77.046774, 38.90534], "type": "Point"}, "properties": {"lon": -77.046774, "stands": 3, "name": "21st & M St NW", "address": "21st & M St NW", "lat": 38.90534, "bikes": 16, "status": "OPEN", "update": "2015-11-02T22:16:19"}, "type": "Feature"}, {"geometry": {"coordinates": [-77.03863, 38.90276], "type": "Point"}, "properties": {"lon": -77.03863, "stands": 5, "name": "17th & K St NW", "address": "17th & K St NW", "lat": 38.90276, "bikes": 17, "status": "OPEN", "update": "2015-11-02T22:16:16"}, "type": "Feature"}, {"geometry": {"coordinates": [-77.015289, 38.899408], "type": "Point"}, "properties": {"lon": -77.015289, "stands": 3, "name": "3rd & H St NW", "address": "3rd & H St NW", "lat": 38.899408, "bikes": 11, "status": "OPEN", "update": "2015-11-02T21:28:02"}, "type": "Feature"}, {"geometry": {"coordinates": [-77.0023, 38.8851], "type": "Point"}, "properties": {"lon": -77.0023, "stands": 11, "name": "3rd & D St SE", "address": "3rd & D St SE", "lat": 38.8851, "bikes": 0, "status": "OPEN", "update": "2015-11-02T22:18:03"}, "type": "Feature"}, {"geometry": {"coordinates": [-76.9862, 38.8803], "type": "Point"}, "properties": {"lon": -76.9862, "stands": 10, "name": "Potomac & Pennsylvania Ave SE", "address": "Potomac & Pennsylvania Ave SE", "lat": 38.8803, "bikes": 5, "status": "OPEN", "update": "2015-11-02T22:02:15"}, "type": "Feature"}, {"geometry": {"coordinates": [-76.9861, 38.884], "type": "Point"}, "properties": {"lon": -76.9861, "stands": 12, "name": "14th & D St SE", "address": "14th & D St SE", "lat": 38.884, "bikes": 3, "status": "OPEN", "update": "2015-11-02T22:19:56"}, "type": "Feature"}, {"geometry": {"coordinates": [-77.0387, 38.9121], "type": "Point"}, "properties": {"lon": -77.0387, "stands": 15, "name": "17th & Corcoran St NW", "address": "17th & Corcoran St NW", "lat": 38.9121, "bikes": 4, "status": "OPEN", "update": "2015-11-02T22:18:30"}, "type": "Feature"}, {"geometry": {"coordinates": [-77.063896, 38.944551], "type": "Point"}, "properties": {"lon": -77.063896, "stands": 13, "name": "Van Ness Metro / UDC", "address": "Van Ness Metro / UDC", "lat": 38.944551, "bikes": 1, "status": "OPEN", "update": "2015-11-02T22:07:46"}, "type": "Feature"}, {"geometry": {"coordinates": [-77.0135, 38.9126], "type": "Point"}, "properties": {"lon": -77.0135, "stands": 13, "name": "Florida Ave & R St NW", "address": "Florida Ave & R St NW", "lat": 38.9126, "bikes": 1, "status": "OPEN", "update": "2015-11-02T21:57:20"}, "type": "Feature"}, {"geometry": {"coordinates": [-76.9953, 38.8792], "type": "Point"}, "properties": {"lon": -76.9953, "stands": 7, "name": "8th & Eye St SE / Barracks Row", "address": "8th & Eye St SE / Barracks Row", "lat": 38.8792, "bikes": 4, "status": "OPEN", "update": "2015-11-02T21:21:49"}, "type": "Feature"}, {"geometry": {"coordinates": [-77.087171, 38.938736], "type": "Point"}, "properties": {"lon": -77.087171, "stands": 10, "name": "Ward Circle / American University", "address": "Ward Circle / American University", "lat": 38.938736, "bikes": 5, "status": "OPEN", "update": "2015-11-02T22:17:49"}, "type": "Feature"}, {"geometry": {"coordinates": [-77.072755, 38.934881], "type": "Point"}, "properties": {"lon": -77.072755, "stands": 19, "name": "Wisconsin Ave & Newark St NW", "address": "Wisconsin Ave & Newark St NW", "lat": 38.934881, "bikes": 0, "status": "OPEN", "update": "2015-11-02T19:40:46"}, "type": "Feature"}, {"geometry": {"coordinates": [-77.032818, 38.947774], "type": "Point"}, "properties": {"lon": -77.032818, "stands": 8, "name": "14th St Heights / 14th & Crittenden St NW", "address": "14th St Heights / 14th & Crittenden St NW", "lat": 38.947774, "bikes": 3, "status": "OPEN", "update": "2015-11-02T19:16:11"}, "type": "Feature"}, {"geometry": {"coordinates": [-76.9784, 38.865784], "type": "Point"}, "properties": {"lon": -76.9784, "stands": 5, "name": "Anacostia Library", "address": "Anacostia Library", "lat": 38.865784, "bikes": 6, "status": "OPEN", "update": "2015-11-02T19:46:50"}, "type": "Feature"}, {"geometry": {"coordinates": [-76.971015, 38.873057], "type": "Point"}, "properties": {"lon": -76.971015, "stands": 5, "name": "Pennsylvania & Minnesota Ave SE", "address": "Pennsylvania & Minnesota Ave SE", "lat": 38.873057, "bikes": 6, "status": "OPEN", "update": "2015-11-02T13:06:53"}, "type": "Feature"}, {"geometry": {"coordinates": [-76.996806, 38.886952], "type": "Point"}, "properties": {"lon": -76.996806, "stands": 14, "name": "Eastern Market / 7th & North Carolina Ave SE", "address": "Eastern Market / 7th & North Carolina Ave SE", "lat": 38.886952, "bikes": 1, "status": "OPEN", "update": "2015-11-02T21:56:49"}, "type": "Feature"}, {"geometry": {"coordinates": [-77.031686, 38.899632], "type": "Point"}, "properties": {"lon": -77.031686, "stands": 0, "name": "14th St & New York Ave NW", "address": "14th St & New York Ave NW", "lat": 38.899632, "bikes": 21, "status": "OPEN", "update": "2015-11-02T21:21:21"}, "type": "Feature"}, {"geometry": {"coordinates": [-76.947974, 38.894], "type": "Point"}, "properties": {"lon": -76.947974, "stands": 3, "name": "Benning Branch Library", "address": "Benning Branch Library", "lat": 38.894, "bikes": 8, "status": "OPEN", "update": "2015-11-02T19:17:12"}, "type": "Feature"}, {"geometry": {"coordinates": [-77.028226, 38.887237], "type": "Point"}, "properties": {"lon": -77.028226, "stands": 12, "name": "USDA / 12th & Independence Ave SW", "address": "USDA / 12th & Independence Ave SW", "lat": 38.887237, "bikes": 27, "status": "OPEN", "update": "2015-11-02T22:16:08"}, "type": "Feature"}, {"geometry": {"coordinates": [-77.059219, 38.9022212], "type": "Point"}, "properties": {"lon": -77.059219, "stands": 4, "name": "Georgetown Harbor / 30th St NW", "address": "Georgetown Harbor / 30th St NW", "lat": 38.9022212, "bikes": 13, "status": "OPEN", "update": "2015-11-02T22:08:26"}, "type": "Feature"}, {"geometry": {"coordinates": [-76.991016, 38.933668], "type": "Point"}, "properties": {"lon": -76.991016, "stands": 8, "name": "12th & Newton St NE", "address": "12th & Newton St NE", "lat": 38.933668, "bikes": 3, "status": "OPEN", "update": "2015-11-02T21:19:09"}, "type": "Feature"}, {"geometry": {"coordinates": [-77.046587, 38.894919], "type": "Point"}, "properties": {"lon": -77.046587, "stands": 4, "name": "US Dept of State / Virginia Ave & 21st St NW", "address": "US Dept of State / Virginia Ave & 21st St NW", "lat": 38.894919, "bikes": 11, "status": "OPEN", "update": "2015-11-02T22:05:35"}, "type": "Feature"}, {"geometry": {"coordinates": [-77.022241, 38.886266], "type": "Point"}, "properties": {"lon": -77.022241, "stands": 4, "name": "L'Enfant Plaza / 7th & C St SW", "address": "L'Enfant Plaza / 7th & C St SW", "lat": 38.886266, "bikes": 10, "status": "OPEN", "update": "2015-11-02T22:20:55"}, "type": "Feature"}, {"geometry": {"coordinates": [-77.026013, 38.893028], "type": "Point"}, "properties": {"lon": -77.026013, "stands": 3, "name": "10th St & Constitution Ave NW", "address": "10th St & Constitution Ave NW", "lat": 38.893028, "bikes": 25, "status": "OPEN", "update": "2015-11-02T22:15:41"}, "type": "Feature"}, {"geometry": {"coordinates": [-77.05557, 38.897293], "type": "Point"}, "properties": {"lon": -77.05557, "stands": 13, "name": "Kennedy Center", "address": "Kennedy Center", "lat": 38.897293, "bikes": 6, "status": "OPEN", "update": "2015-11-02T22:19:44"}, "type": "Feature"}, {"geometry": {"coordinates": [-76.995397, 38.884], "type": "Point"}, "properties": {"lon": -76.995397, "stands": 17, "name": "Eastern Market Metro / Pennsylvania Ave & 7th St SE", "address": "Eastern Market Metro / Pennsylvania Ave & 7th St SE", "lat": 38.884, "bikes": 2, "status": "OPEN", "update": "2015-11-02T22:19:06"}, "type": "Feature"}, {"geometry": {"coordinates": [-77.041606, 38.904742], "type": "Point"}, "properties": {"lon": -77.041606, "stands": 5, "name": "18th & M St NW", "address": "18th & M St NW", "lat": 38.904742, "bikes": 13, "status": "OPEN", "update": "2015-11-02T22:15:09"}, "type": "Feature"}, {"geometry": {"coordinates": [-77.079382, 38.947607], "type": "Point"}, "properties": {"lon": -77.079382, "stands": 10, "name": "Tenleytown / Wisconsin Ave & Albemarle St NW", "address": "Tenleytown / Wisconsin Ave & Albemarle St NW", "lat": 38.947607, "bikes": 3, "status": "OPEN", "update": "2015-11-02T22:19:38"}, "type": "Feature"}, {"geometry": {"coordinates": [-76.9882, 38.9003], "type": "Point"}, "properties": {"lon": -76.9882, "stands": 25, "name": "13th & H St NE", "address": "13th & H St NE", "lat": 38.9003, "bikes": 2, "status": "OPEN", "update": "2015-11-02T22:04:33"}, "type": "Feature"}, {"geometry": {"coordinates": [-77.019347, 38.897222], "type": "Point"}, "properties": {"lon": -77.019347, "stands": 8, "name": "5th & F St NW", "address": "5th & F St NW", "lat": 38.897222, "bikes": 23, "status": "OPEN", "update": "2015-11-02T22:07:54"}, "type": "Feature"}, {"geometry": {"coordinates": [-77.0337, 38.8991], "type": "Point"}, "properties": {"lon": -77.0337, "stands": 3, "name": "New York Ave & 15th St NW", "address": "New York Ave & 15th St NW", "lat": 38.8991, "bikes": 14, "status": "OPEN", "update": "2015-11-02T22:19:29"}, "type": "Feature"}, {"geometry": {"coordinates": [-77.022264, 38.90572], "type": "Point"}, "properties": {"lon": -77.022264, "stands": 15, "name": "Convention Center / 7th & M St NW", "address": "Convention Center / 7th & M St NW", "lat": 38.90572, "bikes": 4, "status": "OPEN", "update": "2015-11-02T22:05:13"}, "type": "Feature"}, {"geometry": {"coordinates": [-77.043358, 38.927872], "type": "Point"}, "properties": {"lon": -77.043358, "stands": 10, "name": "Harvard St & Adams Mill Rd NW", "address": "Harvard St & Adams Mill Rd NW", "lat": 38.927872, "bikes": 4, "status": "OPEN", "update": "2015-11-02T18:49:51"}, "type": "Feature"}, {"geometry": {"coordinates": [-77.043648, 38.903407], "type": "Point"}, "properties": {"lon": -77.043648, "stands": 1, "name": "19th & L St NW", "address": "19th & L St NW", "lat": 38.903407, "bikes": 12, "status": "OPEN", "update": "2015-11-02T22:12:27"}, "type": "Feature"}, {"geometry": {"coordinates": [-77.06269, 38.90375], "type": "Point"}, "properties": {"lon": -77.06269, "stands": 4, "name": "C & O Canal & Wisconsin Ave NW", "address": "C & O Canal & Wisconsin Ave NW", "lat": 38.90375, "bikes": 17, "status": "OPEN", "update": "2015-11-02T22:09:48"}, "type": "Feature"}, {"geometry": {"coordinates": [-77.02127, 38.87675], "type": "Point"}, "properties": {"lon": -77.02127, "stands": 16, "name": "6th & Water St SW / SW Waterfront", "address": "6th & Water St SW / SW Waterfront", "lat": 38.87675, "bikes": 3, "status": "OPEN", "update": "2015-11-02T21:32:52"}, "type": "Feature"}, {"geometry": {"coordinates": [-76.997114, 38.894758], "type": "Point"}, "properties": {"lon": -76.997114, "stands": 19, "name": "D St & Maryland Ave NE", "address": "D St & Maryland Ave NE", "lat": 38.894758, "bikes": 2, "status": "OPEN", "update": "2015-11-02T22:10:32"}, "type": "Feature"}, {"geometry": {"coordinates": [-77.0682, 38.916442], "type": "Point"}, "properties": {"lon": -77.0682, "stands": 9, "name": "34th St & Wisconsin Ave NW", "address": "34th St & Wisconsin Ave NW", "lat": 38.916442, "bikes": 1, "status": "OPEN", "update": "2015-11-02T20:53:52"}, "type": "Feature"}, {"geometry": {"coordinates": [-77.029822, 38.900283], "type": "Point"}, "properties": {"lon": -77.029822, "stands": 3, "name": "13th St & New York Ave NW", "address": "13th St & New York Ave NW", "lat": 38.900283, "bikes": 16, "status": "OPEN", "update": "2015-11-02T22:06:46"}, "type": "Feature"}, {"geometry": {"coordinates": [-77.023086, 38.8997], "type": "Point"}, "properties": {"lon": -77.023086, "stands": 3, "name": "8th & H St NW", "address": "8th & H St NW", "lat": 38.8997, "bikes": 28, "status": "OPEN", "update": "2015-11-02T22:15:28"}, "type": "Feature"}, {"geometry": {"coordinates": [-76.992889, 38.932514], "type": "Point"}, "properties": {"lon": -76.992889, "stands": 6, "name": "10th & Monroe St NE", "address": "10th & Monroe St NE", "lat": 38.932514, "bikes": 5, "status": "OPEN", "update": "2015-11-02T20:08:47"}, "type": "Feature"}, {"geometry": {"coordinates": [-77.00495, 38.910972], "type": "Point"}, "properties": {"lon": -77.00495, "stands": 10, "name": "Eckington Pl & Q St NE", "address": "Eckington Pl & Q St NE", "lat": 38.910972, "bikes": 1, "status": "OPEN", "update": "2015-11-02T21:51:09"}, "type": "Feature"}, {"geometry": {"coordinates": [-76.998347, 38.899972], "type": "Point"}, "properties": {"lon": -76.998347, "stands": 19, "name": "6th & H St NE", "address": "6th & H St NE", "lat": 38.899972, "bikes": 4, "status": "OPEN", "update": "2015-11-02T22:02:13"}, "type": "Feature"}, {"geometry": {"coordinates": [-77.001949, 38.900412], "type": "Point"}, "properties": {"lon": -77.001949, "stands": 15, "name": "3rd & H St NE", "address": "3rd & H St NE", "lat": 38.900412, "bikes": 2, "status": "OPEN", "update": "2015-11-02T22:05:09"}, "type": "Feature"}, {"geometry": {"coordinates": [-76.982872, 38.900413], "type": "Point"}, "properties": {"lon": -76.982872, "stands": 15, "name": "Bladensburg Rd & Benning Rd NE", "address": "Bladensburg Rd & Benning Rd NE", "lat": 38.900413, "bikes": 0, "status": "OPEN", "update": "2015-11-02T21:56:48"}, "type": "Feature"}, {"geometry": {"coordinates": [-77.000349, 38.889955], "type": "Point"}, "properties": {"lon": -77.000349, "stands": 8, "name": "4th & East Capitol St NE", "address": "4th & East Capitol St NE", "lat": 38.889955, "bikes": 2, "status": "OPEN", "update": "2015-11-02T22:18:05"}, "type": "Feature"}, {"geometry": {"coordinates": [-76.988355, 38.890461], "type": "Point"}, "properties": {"lon": -76.988355, "stands": 23, "name": "Lincoln Park / 13th & East Capitol St NE ", "address": "Lincoln Park / 13th & East Capitol St NE ", "lat": 38.890461, "bikes": 2, "status": "OPEN", "update": "2015-11-02T22:19:54"}, "type": "Feature"}, {"geometry": {"coordinates": [-76.9599, 38.8692], "type": "Point"}, "properties": {"lon": -76.9599, "stands": 5, "name": "Branch & Pennsylvania Ave SE", "address": "Branch & Pennsylvania Ave SE", "lat": 38.8692, "bikes": 6, "status": "OPEN", "update": "2015-11-02T11:00:31"}, "type": "Feature"}, {"geometry": {"coordinates": [-76.987633, 38.894832], "type": "Point"}, "properties": {"lon": -76.987633, "stands": 31, "name": "13th & D St NE", "address": "13th & D St NE", "lat": 38.894832, "bikes": 0, "status": "OPEN", "update": "2015-11-02T22:06:28"}, "type": "Feature"}, {"geometry": {"coordinates": [-77.03818, 38.91554], "type": "Point"}, "properties": {"lon": -77.03818, "stands": 17, "name": "New Hampshire Ave & T St NW", "address": "New Hampshire Ave & T St NW", "lat": 38.91554, "bikes": 4, "status": "OPEN", "update": "2015-11-02T22:18:38"}, "type": "Feature"}, {"geometry": {"coordinates": [-77.027869, 38.898364], "type": "Point"}, "properties": {"lon": -77.027869, "stands": 3, "name": "Metro Center / 12th & G St NW", "address": "Metro Center / 12th & G St NW", "lat": 38.898364, "bikes": 26, "status": "OPEN", "update": "2015-11-02T22:16:04"}, "type": "Feature"}, {"geometry": {"coordinates": [-77.031617, 38.894514], "type": "Point"}, "properties": {"lon": -77.031617, "stands": 1, "name": "14th & D St NW / Ronald Reagan Building", "address": "14th & D St NW / Ronald Reagan Building", "lat": 38.894514, "bikes": 20, "status": "OPEN", "update": "2015-11-02T22:19:46"}, "type": "Feature"}, {"geometry": {"coordinates": [-77.022322, 38.897324], "type": "Point"}, "properties": {"lon": -77.022322, "stands": 2, "name": "7th & F St NW / National Portrait Gallery", "address": "7th & F St NW / National Portrait Gallery", "lat": 38.897324, "bikes": 23, "status": "OPEN", "update": "2015-11-02T22:00:30"}, "type": "Feature"}, {"geometry": {"coordinates": [-77.038322, 38.902061], "type": "Point"}, "properties": {"lon": -77.038322, "stands": 5, "name": "17th & K St NW / Farragut Square", "address": "17th & K St NW / Farragut Square", "lat": 38.902061, "bikes": 29, "status": "OPEN", "update": "2015-11-02T22:14:04"}, "type": "Feature"}, {"geometry": {"coordinates": [-77.04478, 38.908905], "type": "Point"}, "properties": {"lon": -77.04478, "stands": 8, "name": "20th & O St NW / Dupont South", "address": "20th & O St NW / Dupont South", "lat": 38.908905, "bikes": 11, "status": "OPEN", "update": "2015-11-02T22:13:03"}, "type": "Feature"}, {"geometry": {"coordinates": [-77.016106, 38.895344], "type": "Point"}, "properties": {"lon": -77.016106, "stands": 2, "name": "4th & D St NW / Judiciary Square", "address": "4th & D St NW / Judiciary Square", "lat": 38.895344, "bikes": 10, "status": "OPEN", "update": "2015-11-02T22:00:26"}, "type": "Feature"}, {"geometry": {"coordinates": [-77.0436, 38.8923], "type": "Point"}, "properties": {"lon": -77.0436, "stands": 12, "name": "19th St & Constitution Ave NW", "address": "19th St & Constitution Ave NW", "lat": 38.8923, "bikes": 22, "status": "OPEN", "update": "2015-11-02T22:12:43"}, "type": "Feature"}, {"geometry": {"coordinates": [-77.071652, 38.90774], "type": "Point"}, "properties": {"lon": -77.071652, "stands": 3, "name": "37th & O St NW / Georgetown University", "address": "37th & O St NW / Georgetown University", "lat": 38.90774, "bikes": 19, "status": "OPEN", "update": "2015-11-02T22:14:38"}, "type": "Feature"}, {"geometry": {"coordinates": [-76.991383, 38.899983], "type": "Point"}, "properties": {"lon": -76.991383, "stands": 13, "name": "11th & H St NE", "address": "11th & H St NE", "lat": 38.899983, "bikes": 6, "status": "OPEN", "update": "2015-11-02T22:10:12"}, "type": "Feature"}, {"geometry": {"coordinates": [-77.053485, 38.903827], "type": "Point"}, "properties": {"lon": -77.053485, "stands": 0, "name": "25th St & Pennsylvania Ave NW", "address": "25th St & Pennsylvania Ave NW", "lat": 38.903827, "bikes": 13, "status": "OPEN", "update": "2015-11-02T21:09:54"}, "type": "Feature"}, {"geometry": {"coordinates": [-77.00493, 38.89696], "type": "Point"}, "properties": {"lon": -77.00493, "stands": 16, "name": "Columbus Circle / Union Station", "address": "Columbus Circle / Union Station", "lat": 38.89696, "bikes": 18, "status": "OPEN", "update": "2015-11-02T22:18:58"}, "type": "Feature"}, {"geometry": {"coordinates": [-77.009888, 38.897446], "type": "Point"}, "properties": {"lon": -77.009888, "stands": 9, "name": "North Capitol St & F St NW", "address": "North Capitol St & F St NW", "lat": 38.897446, "bikes": 14, "status": "OPEN", "update": "2015-11-02T22:09:03"}, "type": "Feature"}, {"geometry": {"coordinates": [-77.027137, 38.905607], "type": "Point"}, "properties": {"lon": -77.027137, "stands": 16, "name": "11th & M St NW", "address": "11th & M St NW", "lat": 38.905607, "bikes": 3, "status": "OPEN", "update": "2015-11-02T22:17:16"}, "type": "Feature"}, {"geometry": {"coordinates": [-77.070334, 38.922581], "type": "Point"}, "properties": {"lon": -77.070334, "stands": 12, "name": "36th & Calvert St NW / Glover Park", "address": "36th & Calvert St NW / Glover Park", "lat": 38.922581, "bikes": 3, "status": "OPEN", "update": "2015-11-02T21:32:16"}, "type": "Feature"}, {"geometry": {"coordinates": [-77.031823, 38.898069], "type": "Point"}, "properties": {"lon": -77.031823, "stands": 3, "name": "14th & G St NW", "address": "14th & G St NW", "lat": 38.898069, "bikes": 18, "status": "OPEN", "update": "2015-11-02T22:18:16"}, "type": "Feature"}, {"geometry": {"coordinates": [-77.050537, 38.844015], "type": "Point"}, "properties": {"lon": -77.050537, "stands": 3, "name": "Potomac Ave & 35th St S", "address": "Potomac Ave & 35th St S", "lat": 38.844015, "bikes": 18, "status": "OPEN", "update": "2015-11-02T19:10:26"}, "type": "Feature"}, {"geometry": {"coordinates": [-77.04657, 38.88412], "type": "Point"}, "properties": {"lon": -77.04657, "stands": 19, "name": "Ohio Dr & West Basin Dr SW / MLK & FDR Memorials", "address": "Ohio Dr & West Basin Dr SW / MLK & FDR Memorials", "lat": 38.88412, "bikes": 4, "status": "OPEN", "update": "2015-11-02T20:42:02"}, "type": "Feature"}, {"geometry": {"coordinates": [-77.026975, 38.897857], "type": "Point"}, "properties": {"lon": -77.026975, "stands": 1, "name": "11th & F St NW", "address": "11th & F St NW", "lat": 38.897857, "bikes": 13, "status": "OPEN", "update": "2015-11-02T21:56:24"}, "type": "Feature"}, {"geometry": {"coordinates": [-77.049882, 38.896104], "type": "Point"}, "properties": {"lon": -77.049882, "stands": 4, "name": "23rd & E St NW ", "address": "23rd & E St NW ", "lat": 38.896104, "bikes": 13, "status": "OPEN", "update": "2015-11-02T22:09:31"}, "type": "Feature"}, {"geometry": {"coordinates": [-77.070993, 38.897315], "type": "Point"}, "properties": {"lon": -77.070993, "stands": 12, "name": "Lynn & 19th St North", "address": "Lynn & 19th St North", "lat": 38.897315, "bikes": 14, "status": "OPEN", "update": "2015-11-02T22:07:24"}, "type": "Feature"}, {"geometry": {"coordinates": [-77.072305, 38.8946], "type": "Point"}, "properties": {"lon": -77.072305, "stands": 9, "name": "Rosslyn Metro / Wilson Blvd & Ft Myer Dr", "address": "Rosslyn Metro / Wilson Blvd & Ft Myer Dr", "lat": 38.8946, "bikes": 6, "status": "OPEN", "update": "2015-11-02T22:16:03"}, "type": "Feature"}, {"geometry": {"coordinates": [-77.076701, 38.893648], "type": "Point"}, "properties": {"lon": -77.076701, "stands": 9, "name": "Clarendon Blvd & Pierce St", "address": "Clarendon Blvd & Pierce St", "lat": 38.893648, "bikes": 1, "status": "OPEN", "update": "2015-11-02T22:19:28"}, "type": "Feature"}, {"geometry": {"coordinates": [-77.0846, 38.891696], "type": "Point"}, "properties": {"lon": -77.0846, "stands": 4, "name": "Wilson Blvd & N Uhle St", "address": "Wilson Blvd & N Uhle St", "lat": 38.891696, "bikes": 10, "status": "OPEN", "update": "2015-11-02T21:43:57"}, "type": "Feature"}, {"geometry": {"coordinates": [-77.079375, 38.892164], "type": "Point"}, "properties": {"lon": -77.079375, "stands": 7, "name": "N Rhodes & 16th St N", "address": "N Rhodes & 16th St N", "lat": 38.892164, "bikes": 4, "status": "OPEN", "update": "2015-11-02T21:08:42"}, "type": "Feature"}, {"geometry": {"coordinates": [-76.952103, 38.86559], "type": "Point"}, "properties": {"lon": -76.952103, "stands": 7, "name": "Fairfax Village", "address": "Fairfax Village", "lat": 38.86559, "bikes": 8, "status": "OPEN", "update": "2015-11-02T11:02:04"}, "type": "Feature"}, {"geometry": {"coordinates": [-77.046567, 38.892459], "type": "Point"}, "properties": {"lon": -77.046567, "stands": 1, "name": "21st St & Constitution Ave NW", "address": "21st St & Constitution Ave NW", "lat": 38.892459, "bikes": 14, "status": "OPEN", "update": "2015-11-02T19:09:50"}, "type": "Feature"}, {"geometry": {"coordinates": [-77.0925, 38.889], "type": "Point"}, "properties": {"lon": -77.0925, "stands": 11, "name": "Wilson Blvd & N Edgewood St", "address": "Wilson Blvd & N Edgewood St", "lat": 38.889, "bikes": 4, "status": "OPEN", "update": "2015-11-02T22:20:28"}, "type": "Feature"}, {"geometry": {"coordinates": [-77.04368, 38.920669], "type": "Point"}, "properties": {"lon": -77.04368, "stands": 19, "name": "Columbia Rd & Belmont St NW", "address": "Columbia Rd & Belmont St NW", "lat": 38.920669, "bikes": 0, "status": "OPEN", "update": "2015-11-02T22:18:10"}, "type": "Feature"}, {"geometry": {"coordinates": [-77.038785, 38.906602], "type": "Point"}, "properties": {"lon": -77.038785, "stands": 11, "name": "17th & Rhode Island Ave NW", "address": "17th & Rhode Island Ave NW", "lat": 38.906602, "bikes": 12, "status": "OPEN", "update": "2015-11-02T22:17:50"}, "type": "Feature"}, {"geometry": {"coordinates": [-77.0325, 38.9059], "type": "Point"}, "properties": {"lon": -77.0325, "stands": 27, "name": "Thomas Circle", "address": "Thomas Circle", "lat": 38.9059, "bikes": 4, "status": "OPEN", "update": "2015-11-02T22:05:23"}, "type": "Feature"}, {"geometry": {"coordinates": [-77.0889, 38.8904], "type": "Point"}, "properties": {"lon": -77.0889, "stands": 10, "name": "Wilson Blvd & Franklin Rd", "address": "Wilson Blvd & Franklin Rd", "lat": 38.8904, "bikes": 0, "status": "OPEN", "update": "2015-11-02T22:19:56"}, "type": "Feature"}, {"geometry": {"coordinates": [-77.09308, 38.8881], "type": "Point"}, "properties": {"lon": -77.09308, "stands": 13, "name": "Clarendon Blvd & N Fillmore St", "address": "Clarendon Blvd & N Fillmore St", "lat": 38.8881, "bikes": 2, "status": "OPEN", "update": "2015-11-02T21:58:23"}, "type": "Feature"}, {"geometry": {"coordinates": [-77.094875, 38.88786], "type": "Point"}, "properties": {"lon": -77.094875, "stands": 15, "name": "Clarendon Metro / Wilson Blvd & N Highland St", "address": "Clarendon Metro / Wilson Blvd & N Highland St", "lat": 38.88786, "bikes": 2, "status": "OPEN", "update": "2015-11-02T21:51:43"}, "type": "Feature"}, {"geometry": {"coordinates": [-77.041539, 38.89968], "type": "Point"}, "properties": {"lon": -77.041539, "stands": 6, "name": "18th St & Pennsylvania Ave NW", "address": "18th St & Pennsylvania Ave NW", "lat": 38.89968, "bikes": 21, "status": "OPEN", "update": "2015-11-02T22:05:37"}, "type": "Feature"}, {"geometry": {"coordinates": [-77.018939, 38.887299], "type": "Point"}, "properties": {"lon": -77.018939, "stands": 9, "name": "Maryland & Independence Ave SW", "address": "Maryland & Independence Ave SW", "lat": 38.887299, "bikes": 28, "status": "OPEN", "update": "2015-11-02T22:13:28"}, "type": "Feature"}, {"geometry": {"coordinates": [-77.017445, 38.88412], "type": "Point"}, "properties": {"lon": -77.017445, "stands": 5, "name": "4th & E St SW", "address": "4th & E St SW", "lat": 38.88412, "bikes": 12, "status": "OPEN", "update": "2015-11-02T22:20:55"}, "type": "Feature"}, {"geometry": {"coordinates": [-77.001828, 38.881185], "type": "Point"}, "properties": {"lon": -77.001828, "stands": 17, "name": "3rd & G St SE", "address": "3rd & G St SE", "lat": 38.881185, "bikes": 2, "status": "OPEN", "update": "2015-11-02T22:17:33"}, "type": "Feature"}, {"geometry": {"coordinates": [-77.022155, 38.912719], "type": "Point"}, "properties": {"lon": -77.022155, "stands": 13, "name": "7th & R St NW / Shaw Library", "address": "7th & R St NW / Shaw Library", "lat": 38.912719, "bikes": 2, "status": "OPEN", "update": "2015-11-02T22:20:49"}, "type": "Feature"}, {"geometry": {"coordinates": [-77.0251, 38.9418], "type": "Point"}, "properties": {"lon": -77.0251, "stands": 5, "name": "9th & Upshur St NW", "address": "9th & Upshur St NW", "lat": 38.9418, "bikes": 8, "status": "OPEN", "update": "2015-11-02T21:07:47"}, "type": "Feature"}, {"geometry": {"coordinates": [-77.012289, 38.915417], "type": "Point"}, "properties": {"lon": -77.012289, "stands": 15, "name": "1st & Rhode Island Ave NW", "address": "1st & Rhode Island Ave NW", "lat": 38.915417, "bikes": 0, "status": "OPEN", "update": "2015-11-02T22:04:00"}, "type": "Feature"}, {"geometry": {"coordinates": [-77.02344, 38.928156], "type": "Point"}, "properties": {"lon": -77.02344, "stands": 14, "name": "Columbia Rd & Georgia Ave NW", "address": "Columbia Rd & Georgia Ave NW", "lat": 38.928156, "bikes": 4, "status": "OPEN", "update": "2015-11-02T22:14:22"}, "type": "Feature"}, {"geometry": {"coordinates": [-77.04062, 38.917761], "type": "Point"}, "properties": {"lon": -77.04062, "stands": 18, "name": "California St & Florida Ave NW", "address": "California St & Florida Ave NW", "lat": 38.917761, "bikes": 1, "status": "OPEN", "update": "2015-11-02T22:17:10"}, "type": "Feature"}, {"geometry": {"coordinates": [-76.93723, 38.889935], "type": "Point"}, "properties": {"lon": -76.93723, "stands": 9, "name": "Benning Rd & East Capitol St NE / Benning Rd Metro", "address": "Benning Rd & East Capitol St NE / Benning Rd Metro", "lat": 38.889935, "bikes": 10, "status": "OPEN", "update": "2015-11-02T11:32:21"}, "type": "Feature"}, {"geometry": {"coordinates": [-77.055599, 38.930282], "type": "Point"}, "properties": {"lon": -77.055599, "stands": 13, "name": "3000 Connecticut Ave NW / National Zoo", "address": "3000 Connecticut Ave NW / National Zoo", "lat": 38.930282, "bikes": 2, "status": "OPEN", "update": "2015-11-02T22:02:00"}, "type": "Feature"}, {"geometry": {"coordinates": [-76.96012, 38.896544], "type": "Point"}, "properties": {"lon": -76.96012, "stands": 6, "name": "Anacostia Ave & Benning Rd NE / River Terrace ", "address": "Anacostia Ave & Benning Rd NE / River Terrace ", "lat": 38.896544, "bikes": 8, "status": "OPEN", "update": "2015-11-02T21:04:16"}, "type": "Feature"}, {"geometry": {"coordinates": [-77.056887, 38.905126], "type": "Point"}, "properties": {"lon": -77.056887, "stands": 0, "name": "M St & Pennsylvania Ave NW", "address": "M St & Pennsylvania Ave NW", "lat": 38.905126, "bikes": 18, "status": "OPEN", "update": "2015-11-02T21:32:58"}, "type": "Feature"}, {"geometry": {"coordinates": [-76.983569, 38.88732], "type": "Point"}, "properties": {"lon": -76.983569, "stands": 12, "name": "15th St & Massachusetts Ave SE", "address": "15th St & Massachusetts Ave SE", "lat": 38.88732, "bikes": 3, "status": "OPEN", "update": "2015-11-02T22:01:18"}, "type": "Feature"}, {"geometry": {"coordinates": [-76.987823, 38.844711], "type": "Point"}, "properties": {"lon": -76.987823, "stands": 7, "name": "Congress Heights Metro", "address": "Congress Heights Metro", "lat": 38.844711, "bikes": 8, "status": "OPEN", "update": "2015-11-02T13:18:08"}, "type": "Feature"}, {"geometry": {"coordinates": [-77.107735, 38.876393], "type": "Point"}, "properties": {"lon": -77.107735, "stands": 8, "name": "N Quincy St & Glebe Rd", "address": "N Quincy St & Glebe Rd", "lat": 38.876393, "bikes": 3, "status": "OPEN", "update": "2015-11-02T20:31:31"}, "type": "Feature"}, {"geometry": {"coordinates": [-77.10396, 38.8815], "type": "Point"}, "properties": {"lon": -77.10396, "stands": 9, "name": "Wilson Blvd & N Oakland St", "address": "Wilson Blvd & N Oakland St", "lat": 38.8815, "bikes": 2, "status": "OPEN", "update": "2015-11-02T22:11:54"}, "type": "Feature"}, {"geometry": {"coordinates": [-77.086502, 38.896923], "type": "Point"}, "properties": {"lon": -77.086502, "stands": 13, "name": "N Veitch  & 20th St N", "address": "N Veitch  & 20th St N", "lat": 38.896923, "bikes": 2, "status": "OPEN", "update": "2015-11-02T17:49:11"}, "type": "Feature"}, {"geometry": {"coordinates": [-77.02622, 38.9024], "type": "Point"}, "properties": {"lon": -77.02622, "stands": 11, "name": "10th & K St NW", "address": "10th & K St NW", "lat": 38.9024, "bikes": 12, "status": "OPEN", "update": "2015-11-02T22:16:41"}, "type": "Feature"}, {"geometry": {"coordinates": [-77.097745, 38.885801], "type": "Point"}, "properties": {"lon": -77.097745, "stands": 5, "name": "Fairfax Dr & Wilson Blvd", "address": "Fairfax Dr & Wilson Blvd", "lat": 38.885801, "bikes": 6, "status": "OPEN", "update": "2015-11-02T22:15:25"}, "type": "Feature"}, {"geometry": {"coordinates": [-77.078107, 38.896015], "type": "Point"}, "properties": {"lon": -77.078107, "stands": 8, "name": "Key Blvd & N Quinn St", "address": "Key Blvd & N Quinn St", "lat": 38.896015, "bikes": 3, "status": "OPEN", "update": "2015-11-02T21:58:59"}, "type": "Feature"}, {"geometry": {"coordinates": [-77.006004, 38.87861], "type": "Point"}, "properties": {"lon": -77.006004, "stands": 3, "name": "1st & K St SE", "address": "1st & K St SE", "lat": 38.87861, "bikes": 12, "status": "OPEN", "update": "2015-11-02T22:13:18"}, "type": "Feature"}, {"geometry": {"coordinates": [-77.077271, 38.922649], "type": "Point"}, "properties": {"lon": -77.077271, "stands": 16, "name": "39th & Calvert St NW / Stoddert", "address": "39th & Calvert St NW / Stoddert", "lat": 38.922649, "bikes": 3, "status": "OPEN", "update": "2015-11-02T21:29:10"}, "type": "Feature"}, {"geometry": {"coordinates": [-77.012457, 38.928743], "type": "Point"}, "properties": {"lon": -77.012457, "stands": 13, "name": "1st & Washington Hospital Center NW", "address": "1st & Washington Hospital Center NW", "lat": 38.928743, "bikes": 2, "status": "OPEN", "update": "2015-11-02T21:57:54"}, "type": "Feature"}, {"geometry": {"coordinates": [-77.103148, 38.882788], "type": "Point"}, "properties": {"lon": -77.103148, "stands": 12, "name": "Virginia Square Metro / N Monroe St & 9th St N", "address": "Virginia Square Metro / N Monroe St & 9th St N", "lat": 38.882788, "bikes": 6, "status": "OPEN", "update": "2015-11-02T20:59:36"}, "type": "Feature"}, {"geometry": {"coordinates": [-77.10783, 38.88397], "type": "Point"}, "properties": {"lon": -77.10783, "stands": 5, "name": "Central Library / N Quincy St & 10th St N", "address": "Central Library / N Quincy St & 10th St N", "lat": 38.88397, "bikes": 5, "status": "OPEN", "update": "2015-11-02T22:18:51"}, "type": "Feature"}, {"geometry": {"coordinates": [-77.093485, 38.884734], "type": "Point"}, "properties": {"lon": -77.093485, "stands": 8, "name": "Washington Blvd & 10th St N", "address": "Washington Blvd & 10th St N", "lat": 38.884734, "bikes": 5, "status": "OPEN", "update": "2015-11-02T22:13:41"}, "type": "Feature"}, {"geometry": {"coordinates": [-77.032429, 38.888553], "type": "Point"}, "properties": {"lon": -77.032429, "stands": 0, "name": "Jefferson Dr & 14th St SW", "address": "Jefferson Dr & 14th St SW", "lat": 38.888553, "bikes": 18, "status": "OPEN", "update": "2015-11-02T21:46:33"}, "type": "Feature"}, {"geometry": {"coordinates": [-77.02858, 38.888767], "type": "Point"}, "properties": {"lon": -77.02858, "stands": 2, "name": "Smithsonian / Jefferson Dr & 12th St SW", "address": "Smithsonian / Jefferson Dr & 12th St SW", "lat": 38.888767, "bikes": 19, "status": "OPEN", "update": "2015-11-02T22:16:01"}, "type": "Feature"}, {"geometry": {"coordinates": [-77.1207, 38.87887], "type": "Point"}, "properties": {"lon": -77.1207, "stands": 8, "name": "George Mason Dr & Wilson Blvd", "address": "George Mason Dr & Wilson Blvd", "lat": 38.87887, "bikes": 7, "status": "OPEN", "update": "2015-11-02T22:11:36"}, "type": "Feature"}, {"geometry": {"coordinates": [-77.01994, 38.894573], "type": "Point"}, "properties": {"lon": -77.01994, "stands": 6, "name": "6th St & Indiana Ave NW", "address": "6th St & Indiana Ave NW", "lat": 38.894573, "bikes": 13, "status": "OPEN", "update": "2015-11-02T22:21:16"}, "type": "Feature"}, {"geometry": {"coordinates": [-77.086045, 38.893241], "type": "Point"}, "properties": {"lon": -77.086045, "stands": 8, "name": "N Veitch & Key Blvd", "address": "N Veitch & Key Blvd", "lat": 38.893241, "bikes": 3, "status": "OPEN", "update": "2015-11-02T22:14:04"}, "type": "Feature"}, {"geometry": {"coordinates": [-77.089006, 38.89593], "type": "Point"}, "properties": {"lon": -77.089006, "stands": 17, "name": "N Adams St & Lee Hwy", "address": "N Adams St & Lee Hwy", "lat": 38.89593, "bikes": 6, "status": "OPEN", "update": "2015-11-02T21:13:14"}, "type": "Feature"}, {"geometry": {"coordinates": [-77.08095, 38.89054], "type": "Point"}, "properties": {"lon": -77.08095, "stands": 8, "name": "15th & N Scott St", "address": "15th & N Scott St", "lat": 38.89054, "bikes": 3, "status": "OPEN", "update": "2015-11-02T20:46:06"}, "type": "Feature"}, {"geometry": {"coordinates": [-77.091129, 38.880834], "type": "Point"}, "properties": {"lon": -77.091129, "stands": 7, "name": "Washington Blvd & 7th St N", "address": "Washington Blvd & 7th St N", "lat": 38.880834, "bikes": 4, "status": "OPEN", "update": "2015-11-02T20:39:36"}, "type": "Feature"}, {"geometry": {"coordinates": [-77.111768, 38.881044], "type": "Point"}, "properties": {"lon": -77.111768, "stands": 14, "name": "Ballston Metro / N Stuart & 9th St N", "address": "Ballston Metro / N Stuart & 9th St N", "lat": 38.881044, "bikes": 5, "status": "OPEN", "update": "2015-11-02T21:31:10"}, "type": "Feature"}, {"geometry": {"coordinates": [-77.109366, 38.882629], "type": "Point"}, "properties": {"lon": -77.109366, "stands": 2, "name": "N Randolph St & Fairfax Dr", "address": "N Randolph St & Fairfax Dr", "lat": 38.882629, "bikes": 9, "status": "OPEN", "update": "2015-11-02T19:57:26"}, "type": "Feature"}, {"geometry": {"coordinates": [-77.037413, 38.879819], "type": "Point"}, "properties": {"lon": -77.037413, "stands": 13, "name": "Jefferson Memorial", "address": "Jefferson Memorial", "lat": 38.879819, "bikes": 10, "status": "OPEN", "update": "2015-11-02T22:09:35"}, "type": "Feature"}, {"geometry": {"coordinates": [-76.985238, 38.866611], "type": "Point"}, "properties": {"lon": -76.985238, "stands": 11, "name": "Good Hope Rd & 14th St SE", "address": "Good Hope Rd & 14th St SE", "lat": 38.866611, "bikes": 4, "status": "OPEN", "update": "2015-11-02T18:28:14"}, "type": "Feature"}, {"geometry": {"coordinates": [-77.116817, 38.883921], "type": "Point"}, "properties": {"lon": -77.116817, "stands": 7, "name": "Glebe Rd & 11th St N", "address": "Glebe Rd & 11th St N", "lat": 38.883921, "bikes": 4, "status": "OPEN", "update": "2015-11-02T21:41:18"}, "type": "Feature"}, {"geometry": {"coordinates": [-77.107673, 38.880151], "type": "Point"}, "properties": {"lon": -77.107673, "stands": 10, "name": "N Quincy St & Wilson Blvd", "address": "N Quincy St & Wilson Blvd", "lat": 38.880151, "bikes": 4, "status": "OPEN", "update": "2015-11-02T22:20:16"}, "type": "Feature"}, {"geometry": {"coordinates": [-77.10108, 38.884616], "type": "Point"}, "properties": {"lon": -77.10108, "stands": 7, "name": "Fairfax Dr & Kenmore St", "address": "Fairfax Dr & Kenmore St", "lat": 38.884616, "bikes": 4, "status": "OPEN", "update": "2015-11-02T20:49:28"}, "type": "Feature"}, {"geometry": {"coordinates": [-76.9941, 38.90509], "type": "Point"}, "properties": {"lon": -76.9941, "stands": 18, "name": "Gallaudet / 8th St & Florida Ave NE", "address": "Gallaudet / 8th St & Florida Ave NE", "lat": 38.90509, "bikes": 1, "status": "OPEN", "update": "2015-11-02T20:33:01"}, "type": "Feature"}, {"geometry": {"coordinates": [-77.044789, 38.903584], "type": "Point"}, "properties": {"lon": -77.044789, "stands": 1, "name": "20th & L St NW", "address": "20th & L St NW", "lat": 38.903584, "bikes": 18, "status": "OPEN", "update": "2015-11-02T22:21:13"}, "type": "Feature"}, {"geometry": {"coordinates": [-77.0284, 38.903819], "type": "Point"}, "properties": {"lon": -77.0284, "stands": 18, "name": "12th & L St NW", "address": "12th & L St NW", "lat": 38.903819, "bikes": 0, "status": "OPEN", "update": "2015-11-02T21:50:23"}, "type": "Feature"}, {"geometry": {"coordinates": [-77.046564, 38.901539], "type": "Point"}, "properties": {"lon": -77.046564, "stands": 2, "name": "21st St & Pennsylvania Ave NW", "address": "21st St & Pennsylvania Ave NW", "lat": 38.901539, "bikes": 16, "status": "OPEN", "update": "2015-11-02T22:20:37"}, "type": "Feature"}, {"geometry": {"coordinates": [-77.04337, 38.902204], "type": "Point"}, "properties": {"lon": -77.04337, "stands": 1, "name": "19th & K St NW", "address": "19th & K St NW", "lat": 38.902204, "bikes": 20, "status": "OPEN", "update": "2015-11-02T22:00:12"}, "type": "Feature"}, {"geometry": {"coordinates": [-77.040363, 38.803124], "type": "Point"}, "properties": {"lon": -77.040363, "stands": 9, "name": "Prince St & Union St", "address": "Prince St & Union St", "lat": 38.803124, "bikes": 10, "status": "OPEN", "update": "2015-11-02T21:22:03"}, "type": "Feature"}, {"geometry": {"coordinates": [-77.043363, 38.804718], "type": "Point"}, "properties": {"lon": -77.043363, "stands": 6, "name": "Market Square / King St & Royal St", "address": "Market Square / King St & Royal St", "lat": 38.804718, "bikes": 9, "status": "OPEN", "update": "2015-11-02T21:05:23"}, "type": "Feature"}, {"geometry": {"coordinates": [-77.044664, 38.810743], "type": "Point"}, "properties": {"lon": -77.044664, "stands": 9, "name": "Saint Asaph St & Pendleton  St", "address": "Saint Asaph St & Pendleton  St", "lat": 38.810743, "bikes": 5, "status": "OPEN", "update": "2015-11-02T21:49:42"}, "type": "Feature"}, {"geometry": {"coordinates": [-77.049883, 38.805317], "type": "Point"}, "properties": {"lon": -77.049883, "stands": 1, "name": "King St & Patrick St", "address": "King St & Patrick St", "lat": 38.805317, "bikes": 13, "status": "OPEN", "update": "2015-11-02T22:14:04"}, "type": "Feature"}, {"geometry": {"coordinates": [-77.03353, 38.902], "type": "Point"}, "properties": {"lon": -77.03353, "stands": 13, "name": "15th & K St NW", "address": "15th & K St NW", "lat": 38.902, "bikes": 12, "status": "OPEN", "update": "2015-11-02T22:16:11"}, "type": "Feature"}, {"geometry": {"coordinates": [-77.05293, 38.805648], "type": "Point"}, "properties": {"lon": -77.05293, "stands": 12, "name": "Commerce St & Fayette St", "address": "Commerce St & Fayette St", "lat": 38.805648, "bikes": 3, "status": "OPEN", "update": "2015-11-02T21:57:51"}, "type": "Feature"}, {"geometry": {"coordinates": [-77.050276, 38.811456], "type": "Point"}, "properties": {"lon": -77.050276, "stands": 7, "name": "Henry St & Pendleton St", "address": "Henry St & Pendleton St", "lat": 38.811456, "bikes": 9, "status": "OPEN", "update": "2015-11-02T19:26:26"}, "type": "Feature"}, {"geometry": {"coordinates": [-77.052808, 38.814577], "type": "Point"}, "properties": {"lon": -77.052808, "stands": 9, "name": "Braddock Rd Metro", "address": "Braddock Rd Metro", "lat": 38.814577, "bikes": 10, "status": "OPEN", "update": "2015-11-02T22:13:58"}, "type": "Feature"}, {"geometry": {"coordinates": [-77.06072, 38.805767], "type": "Point"}, "properties": {"lon": -77.06072, "stands": 9, "name": "King St Metro", "address": "King St Metro", "lat": 38.805767, "bikes": 14, "status": "OPEN", "update": "2015-11-02T21:03:59"}, "type": "Feature"}, {"geometry": {"coordinates": [-77.05152, 38.9066], "type": "Point"}, "properties": {"lon": -77.05152, "stands": 3, "name": "24th & N St NW", "address": "24th & N St NW", "lat": 38.9066, "bikes": 10, "status": "OPEN", "update": "2015-11-02T22:13:00"}, "type": "Feature"}, {"geometry": {"coordinates": [-77.026064, 38.895914], "type": "Point"}, "properties": {"lon": -77.026064, "stands": 0, "name": "10th & E St NW", "address": "10th & E St NW", "lat": 38.895914, "bikes": 13, "status": "OPEN", "update": "2015-11-02T21:05:51"}, "type": "Feature"}, {"geometry": {"coordinates": [-77.048911, 38.90088], "type": "Point"}, "properties": {"lon": -77.048911, "stands": 1, "name": "22nd & I St NW / Foggy Bottom", "address": "22nd & I St NW / Foggy Bottom", "lat": 38.90088, "bikes": 13, "status": "OPEN", "update": "2015-11-02T22:20:34"}, "type": "Feature"}, {"geometry": {"coordinates": [-77.113905, 38.883669], "type": "Point"}, "properties": {"lon": -77.113905, "stands": 8, "name": "Utah St & 11th St N ", "address": "Utah St & 11th St N ", "lat": 38.883669, "bikes": 3, "status": "OPEN", "update": "2015-11-02T18:12:16"}, "type": "Feature"}, {"geometry": {"coordinates": [-77.08777, 38.884961], "type": "Point"}, "properties": {"lon": -77.08777, "stands": 3, "name": "Barton St & 10th St N", "address": "Barton St & 10th St N", "lat": 38.884961, "bikes": 8, "status": "OPEN", "update": "2015-11-02T22:15:33"}, "type": "Feature"}, {"geometry": {"coordinates": [-77.077294, 38.889365], "type": "Point"}, "properties": {"lon": -77.077294, "stands": 6, "name": "Arlington Blvd & N Queen St", "address": "Arlington Blvd & N Queen St", "lat": 38.889365, "bikes": 5, "status": "OPEN", "update": "2015-11-02T22:03:13"}, "type": "Feature"}, {"geometry": {"coordinates": [-77.049426, 38.888251], "type": "Point"}, "properties": {"lon": -77.049426, "stands": 12, "name": "Lincoln Memorial", "address": "Lincoln Memorial", "lat": 38.888251, "bikes": 10, "status": "OPEN", "update": "2015-11-02T22:19:58"}, "type": "Feature"}, {"geometry": {"coordinates": [-77.045128, 38.894722], "type": "Point"}, "properties": {"lon": -77.045128, "stands": 4, "name": "20th St & Virginia Ave NW", "address": "20th St & Virginia Ave NW", "lat": 38.894722, "bikes": 9, "status": "OPEN", "update": "2015-11-02T22:17:07"}, "type": "Feature"}, {"geometry": {"coordinates": [-77.018677, 38.90093], "type": "Point"}, "properties": {"lon": -77.018677, "stands": 13, "name": "5th St & Massachusetts Ave NW", "address": "5th St & Massachusetts Ave NW", "lat": 38.90093, "bikes": 5, "status": "OPEN", "update": "2015-11-02T22:03:11"}, "type": "Feature"}, {"geometry": {"coordinates": [-77.077078, 38.943837], "type": "Point"}, "properties": {"lon": -77.077078, "stands": 10, "name": "39th & Veazey St NW", "address": "39th & Veazey St NW", "lat": 38.943837, "bikes": 4, "status": "OPEN", "update": "2015-11-02T21:23:20"}, "type": "Feature"}, {"geometry": {"coordinates": [-77.082426, 38.954812], "type": "Point"}, "properties": {"lon": -77.082426, "stands": 0, "name": "Fessenden St & Wisconsin Ave NW", "address": "Fessenden St & Wisconsin Ave NW", "lat": 38.954812, "bikes": 15, "status": "OPEN", "update": "2015-11-02T21:46:58"}, "type": "Feature"}, {"geometry": {"coordinates": [-77.003041, 38.905707], "type": "Point"}, "properties": {"lon": -77.003041, "stands": 21, "name": "M St & Delaware Ave NE", "address": "M St & Delaware Ave NE", "lat": 38.905707, "bikes": 2, "status": "OPEN", "update": "2015-11-02T22:15:25"}, "type": "Feature"}, {"geometry": {"coordinates": [-77.080319, 38.863833], "type": "Point"}, "properties": {"lon": -77.080319, "stands": 7, "name": "Columbia Pike & S Courthouse Rd", "address": "Columbia Pike & S Courthouse Rd", "lat": 38.863833, "bikes": 8, "status": "OPEN", "update": "2015-11-02T21:32:44"}, "type": "Feature"}, {"geometry": {"coordinates": [-77.086733, 38.857803], "type": "Point"}, "properties": {"lon": -77.086733, "stands": 4, "name": "Walter Reed Community Center / Walter Reed Dr & 16th St S", "address": "Walter Reed Community Center / Walter Reed Dr & 16th St S", "lat": 38.857803, "bikes": 7, "status": "OPEN", "update": "2015-11-02T22:01:23"}, "type": "Feature"}, {"geometry": {"coordinates": [-77.069275, 38.846222], "type": "Point"}, "properties": {"lon": -77.069275, "stands": 6, "name": "28th St S & S Meade St", "address": "28th St S & S Meade St", "lat": 38.846222, "bikes": 8, "status": "OPEN", "update": "2015-11-02T22:06:48"}, "type": "Feature"}, {"geometry": {"coordinates": [-77.041571, 38.918809], "type": "Point"}, "properties": {"lon": -77.041571, "stands": 22, "name": "18th St & Wyoming Ave NW", "address": "18th St & Wyoming Ave NW", "lat": 38.918809, "bikes": 0, "status": "OPEN", "update": "2015-11-02T21:27:02"}, "type": "Feature"}, {"geometry": {"coordinates": [-77.019815, 38.956595], "type": "Point"}, "properties": {"lon": -77.019815, "stands": 11, "name": "5th & Kennedy St NW", "address": "5th & Kennedy St NW", "lat": 38.956595, "bikes": 3, "status": "OPEN", "update": "2015-11-02T18:16:41"}, "type": "Feature"}, {"geometry": {"coordinates": [-77.027333, 38.949662], "type": "Point"}, "properties": {"lon": -77.027333, "stands": 14, "name": "Georgia Ave & Emerson St NW", "address": "Georgia Ave & Emerson St NW", "lat": 38.949662, "bikes": 5, "status": "OPEN", "update": "2015-11-02T20:41:06"}, "type": "Feature"}, {"geometry": {"coordinates": [-77.032652, 38.942016], "type": "Point"}, "properties": {"lon": -77.032652, "stands": 18, "name": "14th & Upshur St NW", "address": "14th & Upshur St NW", "lat": 38.942016, "bikes": 1, "status": "OPEN", "update": "2015-11-02T15:13:16"}, "type": "Feature"}, {"geometry": {"coordinates": [-77.032947, 38.956432], "type": "Point"}, "properties": {"lon": -77.032947, "stands": 11, "name": "14th St & Colorado Ave NW", "address": "14th St & Colorado Ave NW", "lat": 38.956432, "bikes": 8, "status": "OPEN", "update": "2015-11-02T21:33:38"}, "type": "Feature"}, {"geometry": {"coordinates": [-77.075104, 38.847977], "type": "Point"}, "properties": {"lon": -77.075104, "stands": 1, "name": "S Troy St & 26th St S", "address": "S Troy St & 26th St S", "lat": 38.847977, "bikes": 10, "status": "OPEN", "update": "2015-11-02T22:10:32"}, "type": "Feature"}, {"geometry": {"coordinates": [-77.085931, 38.8444], "type": "Point"}, "properties": {"lon": -77.085931, "stands": 4, "name": "S Four Mile Run Dr & S Shirlington Rd", "address": "S Four Mile Run Dr & S Shirlington Rd", "lat": 38.8444, "bikes": 7, "status": "OPEN", "update": "2015-11-02T22:07:02"}, "type": "Feature"}, {"geometry": {"coordinates": [-77.09586, 38.860789], "type": "Point"}, "properties": {"lon": -77.09586, "stands": 5, "name": "S Oakland St & Columbia Pike", "address": "S Oakland St & Columbia Pike", "lat": 38.860789, "bikes": 6, "status": "OPEN", "update": "2015-11-02T11:03:41"}, "type": "Feature"}, {"geometry": {"coordinates": [-77.095431, 38.84736], "type": "Point"}, "properties": {"lon": -77.095431, "stands": 5, "name": "S Four Mile Run & Walter Reed Dr", "address": "S Four Mile Run & Walter Reed Dr", "lat": 38.84736, "bikes": 6, "status": "OPEN", "update": "2015-11-02T21:15:05"}, "type": "Feature"}, {"geometry": {"coordinates": [-77.089555, 38.84232], "type": "Point"}, "properties": {"lon": -77.089555, "stands": 7, "name": "S Arlington Mill Dr & Campbell Ave", "address": "S Arlington Mill Dr & Campbell Ave", "lat": 38.84232, "bikes": 8, "status": "OPEN", "update": "2015-11-02T19:42:23"}, "type": "Feature"}, {"geometry": {"coordinates": [-77.084918, 38.848454], "type": "Point"}, "properties": {"lon": -77.084918, "stands": 4, "name": "S Kenmore & 24th St S", "address": "S Kenmore & 24th St S", "lat": 38.848454, "bikes": 7, "status": "OPEN", "update": "2015-11-02T13:26:40"}, "type": "Feature"}, {"geometry": {"coordinates": [-77.029417, 38.987], "type": "Point"}, "properties": {"lon": -77.029417, "stands": 7, "name": "13th St & Eastern Ave", "address": "13th St & Eastern Ave", "lat": 38.987, "bikes": 8, "status": "OPEN", "update": "2015-11-02T14:13:53"}, "type": "Feature"}, {"geometry": {"coordinates": [-77.063586, 38.90849], "type": "Point"}, "properties": {"lon": -77.063586, "stands": 1, "name": "Wisconsin Ave & O St NW", "address": "Wisconsin Ave & O St NW", "lat": 38.90849, "bikes": 17, "status": "OPEN", "update": "2015-11-02T21:57:32"}, "type": "Feature"}, {"geometry": {"coordinates": [-77.100555, 38.854691], "type": "Point"}, "properties": {"lon": -77.100555, "stands": 7, "name": "S George Mason Dr & 13th St S", "address": "S George Mason Dr & 13th St S", "lat": 38.854691, "bikes": 4, "status": "OPEN", "update": "2015-11-02T17:23:44"}, "type": "Feature"}, {"geometry": {"coordinates": [-77.069956, 38.955016], "type": "Point"}, "properties": {"lon": -77.069956, "stands": 17, "name": "Connecticut & Nebraska Ave NW", "address": "Connecticut & Nebraska Ave NW", "lat": 38.955016, "bikes": 5, "status": "OPEN", "update": "2015-11-02T22:04:00"}, "type": "Feature"}, {"geometry": {"coordinates": [-77.038359, 38.908142], "type": "Point"}, "properties": {"lon": -77.038359, "stands": 15, "name": "17th St & Massachusetts Ave NW", "address": "17th St & Massachusetts Ave NW", "lat": 38.908142, "bikes": 0, "status": "OPEN", "update": "2015-11-02T22:14:28"}, "type": "Feature"}, {"geometry": {"coordinates": [-77.0352, 38.92333], "type": "Point"}, "properties": {"lon": -77.0352, "stands": 12, "name": "15th & Euclid St  NW", "address": "15th & Euclid St  NW", "lat": 38.92333, "bikes": 2, "status": "OPEN", "update": "2015-11-02T22:05:29"}, "type": "Feature"}, {"geometry": {"coordinates": [-76.995193, 38.889988], "type": "Point"}, "properties": {"lon": -76.995193, "stands": 8, "name": "8th & East Capitol St NE", "address": "8th & East Capitol St NE", "lat": 38.889988, "bikes": 3, "status": "OPEN", "update": "2015-11-02T22:08:05"}, "type": "Feature"}, {"geometry": {"coordinates": [-77.017669, 38.912659], "type": "Point"}, "properties": {"lon": -77.017669, "stands": 12, "name": "New Jersey Ave & R St NW", "address": "New Jersey Ave & R St NW", "lat": 38.912659, "bikes": 2, "status": "OPEN", "update": "2015-11-02T22:16:47"}, "type": "Feature"}, {"geometry": {"coordinates": [-76.983326, 38.889908], "type": "Point"}, "properties": {"lon": -76.983326, "stands": 9, "name": "15th & East Capitol St NE", "address": "15th & East Capitol St NE", "lat": 38.889908, "bikes": 2, "status": "OPEN", "update": "2015-11-02T20:49:07"}, "type": "Feature"}, {"geometry": {"coordinates": [-76.994749, 38.897274], "type": "Point"}, "properties": {"lon": -76.994749, "stands": 8, "name": "8th & F St NE", "address": "8th & F St NE", "lat": 38.897274, "bikes": 6, "status": "OPEN", "update": "2015-11-02T21:22:13"}, "type": "Feature"}, {"geometry": {"coordinates": [-76.978924, 38.927095], "type": "Point"}, "properties": {"lon": -76.978924, "stands": 5, "name": "18th St & Rhode Island Ave NE", "address": "18th St & Rhode Island Ave NE", "lat": 38.927095, "bikes": 10, "status": "OPEN", "update": "2015-11-02T22:15:37"}, "type": "Feature"}, {"geometry": {"coordinates": [-76.983575, 38.897195], "type": "Point"}, "properties": {"lon": -76.983575, "stands": 16, "name": "15th & F St NE", "address": "15th & F St NE", "lat": 38.897195, "bikes": 3, "status": "OPEN", "update": "2015-11-02T22:16:25"}, "type": "Feature"}, {"geometry": {"coordinates": [-76.990955, 38.928644], "type": "Point"}, "properties": {"lon": -76.990955, "stands": 14, "name": "12th & Irving St NE", "address": "12th & Irving St NE", "lat": 38.928644, "bikes": 1, "status": "OPEN", "update": "2015-11-02T22:17:56"}, "type": "Feature"}, {"geometry": {"coordinates": [-76.957461, 38.884085], "type": "Point"}, "properties": {"lon": -76.957461, "stands": 8, "name": "34th St & Minnesota Ave SE", "address": "34th St & Minnesota Ave SE", "lat": 38.884085, "bikes": 3, "status": "OPEN", "update": "2015-11-02T11:02:21"}, "type": "Feature"}, {"geometry": {"coordinates": [-76.999388, 38.843222], "type": "Point"}, "properties": {"lon": -76.999388, "stands": 3, "name": "Alabama & MLK Ave SE", "address": "Alabama & MLK Ave SE", "lat": 38.843222, "bikes": 8, "status": "OPEN", "update": "2015-11-02T19:17:30"}, "type": "Feature"}, {"geometry": {"coordinates": [-76.990037, 38.863897], "type": "Point"}, "properties": {"lon": -76.990037, "stands": 8, "name": "Pleasant St & MLK Ave SE", "address": "Pleasant St & MLK Ave SE", "lat": 38.863897, "bikes": 2, "status": "OPEN", "update": "2015-11-02T16:02:35"}, "type": "Feature"}, {"geometry": {"coordinates": [-76.987211, 38.903732], "type": "Point"}, "properties": {"lon": -76.987211, "stands": 15, "name": "Neal St & Trinidad Ave NE", "address": "Neal St & Trinidad Ave NE", "lat": 38.903732, "bikes": 0, "status": "OPEN", "update": "2015-11-02T21:39:53"}, "type": "Feature"}, {"geometry": {"coordinates": [-77.028139, 38.916787], "type": "Point"}, "properties": {"lon": -77.028139, "stands": 28, "name": "12th & U St NW", "address": "12th & U St NW", "lat": 38.916787, "bikes": 3, "status": "OPEN", "update": "2015-11-02T22:03:31"}, "type": "Feature"}, {"geometry": {"coordinates": [-77.105022, 38.852248], "type": "Point"}, "properties": {"lon": -77.105022, "stands": 4, "name": "S George Mason Dr & Four Mile Run", "address": "S George Mason Dr & Four Mile Run", "lat": 38.852248, "bikes": 7, "status": "OPEN", "update": "2015-11-02T11:03:16"}, "type": "Feature"}, {"geometry": {"coordinates": [-77.087323, 38.834108], "type": "Point"}, "properties": {"lon": -77.087323, "stands": 7, "name": "S Stafford & 34th St S", "address": "S Stafford & 34th St S", "lat": 38.834108, "bikes": 4, "status": "OPEN", "update": "2015-11-02T14:22:16"}, "type": "Feature"}, {"geometry": {"coordinates": [-77.08596, 38.880705], "type": "Point"}, "properties": {"lon": -77.08596, "stands": 6, "name": "N Pershing Dr & Wayne St", "address": "N Pershing Dr & Wayne St", "lat": 38.880705, "bikes": 5, "status": "OPEN", "update": "2015-11-02T20:59:34"}, "type": "Feature"}, {"geometry": {"coordinates": [-77.072315, 38.867262], "type": "Point"}, "properties": {"lon": -77.072315, "stands": 8, "name": "Columbia Pike & S Orme St", "address": "Columbia Pike & S Orme St", "lat": 38.867262, "bikes": 3, "status": "OPEN", "update": "2015-11-02T19:28:17"}, "type": "Feature"}, {"geometry": {"coordinates": [-77.001955, 38.887378], "type": "Point"}, "properties": {"lon": -77.001955, "stands": 14, "name": "3rd St & Pennsylvania Ave SE", "address": "3rd St & Pennsylvania Ave SE", "lat": 38.887378, "bikes": 0, "status": "OPEN", "update": "2015-11-02T22:16:10"}, "type": "Feature"}, {"geometry": {"coordinates": [-77.02324, 38.894851], "type": "Point"}, "properties": {"lon": -77.02324, "stands": 0, "name": "8th & D St NW", "address": "8th & D St NW", "lat": 38.894851, "bikes": 15, "status": "OPEN", "update": "2015-11-02T21:58:06"}, "type": "Feature"}, {"geometry": {"coordinates": [-77.01597, 38.917622], "type": "Point"}, "properties": {"lon": -77.01597, "stands": 11, "name": "3rd & Elm St NW", "address": "3rd & Elm St NW", "lat": 38.917622, "bikes": 3, "status": "OPEN", "update": "2015-11-02T20:56:17"}, "type": "Feature"}, {"geometry": {"coordinates": [-77.004746, 38.918155], "type": "Point"}, "properties": {"lon": -77.004746, "stands": 17, "name": "Rhode Island Ave & V St NE", "address": "Rhode Island Ave & V St NE", "lat": 38.918155, "bikes": 1, "status": "OPEN", "update": "2015-11-02T20:08:36"}, "type": "Feature"}, {"geometry": {"coordinates": [-77.013917, 38.892275], "type": "Point"}, "properties": {"lon": -77.013917, "stands": 15, "name": "Constitution Ave & 2nd St NW/DOL", "address": "Constitution Ave & 2nd St NW/DOL", "lat": 38.892275, "bikes": 11, "status": "OPEN", "update": "2015-11-02T22:16:27"}, "type": "Feature"}, {"geometry": {"coordinates": [-77.01397, 38.88731], "type": "Point"}, "properties": {"lon": -77.01397, "stands": 5, "name": "Washington & Independence Ave SW/HHS", "address": "Washington & Independence Ave SW/HHS", "lat": 38.88731, "bikes": 18, "status": "OPEN", "update": "2015-11-02T22:21:04"}, "type": "Feature"}, {"geometry": {"coordinates": [-77.025762, 38.887312], "type": "Point"}, "properties": {"lon": -77.025762, "stands": 9, "name": "Independence Ave & L'Enfant Plaza SW/DOE", "address": "Independence Ave & L'Enfant Plaza SW/DOE", "lat": 38.887312, "bikes": 6, "status": "OPEN", "update": "2015-11-02T22:18:32"}, "type": "Feature"}, {"geometry": {"coordinates": [-76.997194, 38.927497], "type": "Point"}, "properties": {"lon": -76.997194, "stands": 10, "name": "Hamlin & 7th St NE", "address": "Hamlin & 7th St NE", "lat": 38.927497, "bikes": 4, "status": "OPEN", "update": "2015-11-02T20:17:32"}, "type": "Feature"}, {"geometry": {"coordinates": [-77.086599, 38.862478], "type": "Point"}, "properties": {"lon": -77.086599, "stands": 10, "name": "Columbia Pike & S Walter Reed Dr", "address": "Columbia Pike & S Walter Reed Dr", "lat": 38.862478, "bikes": 2, "status": "OPEN", "update": "2015-11-02T21:58:32"}, "type": "Feature"}, {"geometry": {"coordinates": [-77.11153, 38.856319], "type": "Point"}, "properties": {"lon": -77.11153, "stands": 7, "name": "Columbia Pike & S Dinwiddie St / Arlington Mill Community Center", "address": "Columbia Pike & S Dinwiddie St / Arlington Mill Community Center", "lat": 38.856319, "bikes": 7, "status": "OPEN", "update": "2015-11-02T21:13:29"}, "type": "Feature"}, {"geometry": {"coordinates": [-77.107906, 38.871822], "type": "Point"}, "properties": {"lon": -77.107906, "stands": 8, "name": "Pershing & N George Mason Dr", "address": "Pershing & N George Mason Dr", "lat": 38.871822, "bikes": 3, "status": "OPEN", "update": "2015-11-02T21:47:56"}, "type": "Feature"}, {"geometry": {"coordinates": [-77.023082, 38.985404], "type": "Point"}, "properties": {"lon": -77.023082, "stands": 10, "name": "Fenton St & New York Ave ", "address": "Fenton St & New York Ave ", "lat": 38.985404, "bikes": 5, "status": "OPEN", "update": "2015-11-02T21:05:31"}, "type": "Feature"}, {"geometry": {"coordinates": [-77.097426, 38.981103], "type": "Point"}, "properties": {"lon": -77.097426, "stands": 12, "name": "Bethesda Ave & Arlington Rd", "address": "Bethesda Ave & Arlington Rd", "lat": 38.981103, "bikes": 7, "status": "OPEN", "update": "2015-11-02T22:19:25"}, "type": "Feature"}, {"geometry": {"coordinates": [-77.09221, 38.983838], "type": "Point"}, "properties": {"lon": -77.09221, "stands": 5, "name": "Montgomery Ave & Waverly St ", "address": "Montgomery Ave & Waverly St ", "lat": 38.983838, "bikes": 6, "status": "OPEN", "update": "2015-11-02T19:39:56"}, "type": "Feature"}, {"geometry": {"coordinates": [-77.192672, 39.096312], "type": "Point"}, "properties": {"lon": -77.192672, "stands": 7, "name": "Fallsgrove Blvd & Fallsgrove Dr", "address": "Fallsgrove Blvd & Fallsgrove Dr", "lat": 39.096312, "bikes": 12, "status": "OPEN", "update": "2015-11-02T14:58:16"}, "type": "Feature"}, {"geometry": {"coordinates": [-77.202501, 39.093783], "type": "Point"}, "properties": {"lon": -77.202501, "stands": 7, "name": "Traville Gateway Dr & Gudelsky Dr", "address": "Traville Gateway Dr & Gudelsky Dr", "lat": 39.093783, "bikes": 12, "status": "OPEN", "update": "2015-11-02T15:41:42"}, "type": "Feature"}, {"geometry": {"coordinates": [-77.096539, 38.988562], "type": "Point"}, "properties": {"lon": -77.096539, "stands": 1, "name": "Norfolk Ave & Fairmont St", "address": "Norfolk Ave & Fairmont St", "lat": 38.988562, "bikes": 9, "status": "OPEN", "update": "2015-11-02T21:09:41"}, "type": "Feature"}, {"geometry": {"coordinates": [-77.151291, 39.084125], "type": "Point"}, "properties": {"lon": -77.151291, "stands": 8, "name": "E Montgomery Ave & Maryland Ave", "address": "E Montgomery Ave & Maryland Ave", "lat": 39.084125, "bikes": 7, "status": "OPEN", "update": "2015-11-02T21:55:56"}, "type": "Feature"}, {"geometry": {"coordinates": [-77.098029, 38.98954], "type": "Point"}, "properties": {"lon": -77.098029, "stands": 3, "name": "Cordell & Norfolk Ave", "address": "Cordell & Norfolk Ave", "lat": 38.98954, "bikes": 8, "status": "OPEN", "update": "2015-11-02T17:55:04"}, "type": "Feature"}, {"geometry": {"coordinates": [-77.145213, 39.094772], "type": "Point"}, "properties": {"lon": -77.145213, "stands": 5, "name": "Frederick Ave & Horners Ln", "address": "Frederick Ave & Horners Ln", "lat": 39.094772, "bikes": 6, "status": "OPEN", "update": "2015-11-02T11:02:49"}, "type": "Feature"}, {"geometry": {"coordinates": [-77.011336, 38.98128], "type": "Point"}, "properties": {"lon": -77.011336, "stands": 4, "name": "Philadelphia & Maple Ave", "address": "Philadelphia & Maple Ave", "lat": 38.98128, "bikes": 10, "status": "OPEN", "update": "2015-11-02T15:36:10"}, "type": "Feature"}, {"geometry": {"coordinates": [-77.006311, 38.983627], "type": "Point"}, "properties": {"lon": -77.006311, "stands": 9, "name": "Maple & Ritchie Ave", "address": "Maple & Ritchie Ave", "lat": 38.983627, "bikes": 10, "status": "OPEN", "update": "2015-11-02T17:56:05"}, "type": "Feature"}, {"geometry": {"coordinates": [-77.02918, 38.99521], "type": "Point"}, "properties": {"lon": -77.02918, "stands": 10, "name": "Silver Spring Metro/Colesville Rd & Wayne Ave", "address": "Silver Spring Metro/Colesville Rd & Wayne Ave", "lat": 38.99521, "bikes": 9, "status": "OPEN", "update": "2015-11-02T19:20:02"}, "type": "Feature"}, {"geometry": {"coordinates": [-77.095367, 38.983525], "type": "Point"}, "properties": {"lon": -77.095367, "stands": 4, "name": "Montgomery & East Ln", "address": "Montgomery & East Ln", "lat": 38.983525, "bikes": 7, "status": "OPEN", "update": "2015-11-02T20:19:33"}, "type": "Feature"}, {"geometry": {"coordinates": [-77.085998, 38.961763], "type": "Point"}, "properties": {"lon": -77.085998, "stands": 10, "name": "Friendship Hts Metro/Wisconsin Ave & Wisconsin Cir", "address": "Friendship Hts Metro/Wisconsin Ave & Wisconsin Cir", "lat": 38.961763, "bikes": 9, "status": "OPEN", "update": "2015-11-02T22:07:10"}, "type": "Feature"}, {"geometry": {"coordinates": [-77.031887, 38.921074], "type": "Point"}, "properties": {"lon": -77.031887, "stands": 15, "name": "14th & Belmont St NW", "address": "14th & Belmont St NW", "lat": 38.921074, "bikes": 0, "status": "OPEN", "update": "2015-11-02T22:00:51"}, "type": "Feature"}, {"geometry": {"coordinates": [-77.0024, 38.87501], "type": "Point"}, "properties": {"lon": -77.0024, "stands": 15, "name": "3rd & Tingey St SE", "address": "3rd & Tingey St SE", "lat": 38.87501, "bikes": 4, "status": "OPEN", "update": "2015-11-02T22:21:02"}, "type": "Feature"}, {"geometry": {"coordinates": [-77.025672, 38.920387], "type": "Point"}, "properties": {"lon": -77.025672, "stands": 16, "name": "10th & Florida Ave NW", "address": "10th & Florida Ave NW", "lat": 38.920387, "bikes": 3, "status": "OPEN", "update": "2015-11-02T21:27:25"}, "type": "Feature"}, {"geometry": {"coordinates": [-76.994468, 38.876737], "type": "Point"}, "properties": {"lon": -76.994468, "stands": 14, "name": "Potomac Ave & 8th St SE", "address": "Potomac Ave & 8th St SE", "lat": 38.876737, "bikes": 1, "status": "OPEN", "update": "2015-11-02T22:21:13"}, "type": "Feature"}, {"geometry": {"coordinates": [-77.156985, 39.120045], "type": "Point"}, "properties": {"lon": -77.156985, "stands": 4, "name": "Crabbs Branch Way & Redland Rd", "address": "Crabbs Branch Way & Redland Rd", "lat": 39.120045, "bikes": 11, "status": "OPEN", "update": "2015-11-02T11:03:28"}, "type": "Feature"}, {"geometry": {"coordinates": [-77.188014, 39.099376], "type": "Point"}, "properties": {"lon": -77.188014, "stands": 7, "name": "Fallsgrove Dr & W Montgomery Ave", "address": "Fallsgrove Dr & W Montgomery Ave", "lat": 39.099376, "bikes": 8, "status": "OPEN", "update": "2015-11-02T19:17:00"}, "type": "Feature"}, {"geometry": {"coordinates": [-77.148827, 39.082779], "type": "Point"}, "properties": {"lon": -77.148827, "stands": 3, "name": "Monroe St & Monroe Pl", "address": "Monroe St & Monroe Pl", "lat": 39.082779, "bikes": 12, "status": "OPEN", "update": "2015-11-02T11:02:57"}, "type": "Feature"}, {"geometry": {"coordinates": [-77.15741, 39.123513], "type": "Point"}, "properties": {"lon": -77.15741, "stands": 8, "name": "Needwood Rd & Eagles Head Ct", "address": "Needwood Rd & Eagles Head Ct", "lat": 39.123513, "bikes": 7, "status": "OPEN", "update": "2015-11-02T14:09:04"}, "type": "Feature"}, {"geometry": {"coordinates": [-77.02935, 38.990249], "type": "Point"}, "properties": {"lon": -77.02935, "stands": 8, "name": "East West Hwy & Blair Mill Rd", "address": "East West Hwy & Blair Mill Rd", "lat": 38.990249, "bikes": 7, "status": "OPEN", "update": "2015-11-02T20:53:09"}, "type": "Feature"}, {"geometry": {"coordinates": [-77.152072, 39.107709], "type": "Point"}, "properties": {"lon": -77.152072, "stands": 4, "name": "Crabbs Branch Way & Calhoun Pl", "address": "Crabbs Branch Way & Calhoun Pl", "lat": 39.107709, "bikes": 11, "status": "OPEN", "update": "2015-11-02T15:04:45"}, "type": "Feature"}, {"geometry": {"coordinates": [-77.091991, 38.982456], "type": "Point"}, "properties": {"lon": -77.091991, "stands": 6, "name": "47th & Elm St", "address": "47th & Elm St", "lat": 38.982456, "bikes": 9, "status": "OPEN", "update": "2015-11-02T22:17:36"}, "type": "Feature"}, {"geometry": {"coordinates": [-77.00149, 39.000578], "type": "Point"}, "properties": {"lon": -77.00149, "stands": 5, "name": "Garland Ave & Walden Rd", "address": "Garland Ave & Walden Rd", "lat": 39.000578, "bikes": 9, "status": "OPEN", "update": "2015-11-02T11:01:00"}, "type": "Feature"}, {"geometry": {"coordinates": [-77.159048, 39.095661], "type": "Point"}, "properties": {"lon": -77.159048, "stands": 10, "name": "Montgomery College/W Campus Dr & Mannakee St", "address": "Montgomery College/W Campus Dr & Mannakee St", "lat": 39.095661, "bikes": 11, "status": "OPEN", "update": "2015-11-02T22:05:27"}, "type": "Feature"}, {"geometry": {"coordinates": [-77.023854, 38.989724], "type": "Point"}, "properties": {"lon": -77.023854, "stands": 6, "name": "Fenton St & Gist Ave", "address": "Fenton St & Gist Ave", "lat": 38.989724, "bikes": 5, "status": "OPEN", "update": "2015-11-02T22:21:09"}, "type": "Feature"}, {"geometry": {"coordinates": [-77.01121, 38.975], "type": "Point"}, "properties": {"lon": -77.01121, "stands": 7, "name": "Carroll & Westmoreland Ave", "address": "Carroll & Westmoreland Ave", "lat": 38.975, "bikes": 8, "status": "OPEN", "update": "2015-11-02T19:19:49"}, "type": "Feature"}, {"geometry": {"coordinates": [-77.006472, 38.977933], "type": "Point"}, "properties": {"lon": -77.006472, "stands": 4, "name": "Carroll & Ethan Allen Ave", "address": "Carroll & Ethan Allen Ave", "lat": 38.977933, "bikes": 11, "status": "OPEN", "update": "2015-11-02T21:58:25"}, "type": "Feature"}, {"geometry": {"coordinates": [-77.100104, 38.992375], "type": "Point"}, "properties": {"lon": -77.100104, "stands": 7, "name": "Battery Ln & Trolley Trail", "address": "Battery Ln & Trolley Trail", "lat": 38.992375, "bikes": 8, "status": "OPEN", "update": "2015-11-02T18:50:49"}, "type": "Feature"}, {"geometry": {"coordinates": [-77.100239, 38.990639], "type": "Point"}, "properties": {"lon": -77.100239, "stands": 4, "name": "Norfolk & Rugby Ave", "address": "Norfolk & Rugby Ave", "lat": 38.990639, "bikes": 7, "status": "OPEN", "update": "2015-11-02T20:07:11"}, "type": "Feature"}, {"geometry": {"coordinates": [-77.094589, 38.977093], "type": "Point"}, "properties": {"lon": -77.094589, "stands": 9, "name": "Offutt Ln & Chevy Chase Dr", "address": "Offutt Ln & Chevy Chase Dr", "lat": 38.977093, "bikes": 2, "status": "OPEN", "update": "2015-11-02T20:44:23"}, "type": "Feature"}, {"geometry": {"coordinates": [-77.200322, 39.102099], "type": "Point"}, "properties": {"lon": -77.200322, "stands": 8, "name": "Broschart & Blackwell Rd", "address": "Broschart & Blackwell Rd", "lat": 39.102099, "bikes": 7, "status": "OPEN", "update": "2015-11-02T11:00:54"}, "type": "Feature"}, {"geometry": {"coordinates": [-77.132954, 39.094103], "type": "Point"}, "properties": {"lon": -77.132954, "stands": 6, "name": "Taft St & E Gude Dr", "address": "Taft St & E Gude Dr", "lat": 39.094103, "bikes": 9, "status": "OPEN", "update": "2015-11-02T11:01:45"}, "type": "Feature"}, {"geometry": {"coordinates": [-77.141378, 39.076331], "type": "Point"}, "properties": {"lon": -77.141378, "stands": 7, "name": "Fleet St & Ritchie Pkwy", "address": "Fleet St & Ritchie Pkwy", "lat": 39.076331, "bikes": 8, "status": "OPEN", "update": "2015-11-02T11:01:17"}, "type": "Feature"}, {"geometry": {"coordinates": [-77.177091, 39.102212], "type": "Point"}, "properties": {"lon": -77.177091, "stands": 7, "name": "Piccard & W Gude Dr", "address": "Piccard & W Gude Dr", "lat": 39.102212, "bikes": 12, "status": "OPEN", "update": "2015-11-02T11:01:12"}, "type": "Feature"}, {"geometry": {"coordinates": [-77.029457, 38.992679], "type": "Point"}, "properties": {"lon": -77.029457, "stands": 5, "name": "Ripley & Bonifant St", "address": "Ripley & Bonifant St", "lat": 38.992679, "bikes": 10, "status": "OPEN", "update": "2015-11-02T19:17:38"}, "type": "Feature"}, {"geometry": {"coordinates": [-77.031555, 38.999388], "type": "Point"}, "properties": {"lon": -77.031555, "stands": 6, "name": "Georgia Ave & Spring St", "address": "Georgia Ave & Spring St", "lat": 38.999388, "bikes": 5, "status": "OPEN", "update": "2015-11-02T19:44:38"}, "type": "Feature"}, {"geometry": {"coordinates": [-77.025608, 38.997033], "type": "Point"}, "properties": {"lon": -77.025608, "stands": 8, "name": "Fenton St & Ellsworth Dr ", "address": "Fenton St & Ellsworth Dr ", "lat": 38.997033, "bikes": 7, "status": "OPEN", "update": "2015-11-02T19:40:53"}, "type": "Feature"}, {"geometry": {"coordinates": [-77.171487, 39.114688], "type": "Point"}, "properties": {"lon": -77.171487, "stands": 7, "name": "King Farm Blvd & Pleasant Dr", "address": "King Farm Blvd & Pleasant Dr", "lat": 39.114688, "bikes": 11, "status": "OPEN", "update": "2015-11-02T19:17:43"}, "type": "Feature"}, {"geometry": {"coordinates": [-77.182669, 39.110314], "type": "Point"}, "properties": {"lon": -77.182669, "stands": 3, "name": "King Farm Blvd & Piccard Dr", "address": "King Farm Blvd & Piccard Dr", "lat": 39.110314, "bikes": 12, "status": "OPEN", "update": "2015-11-02T22:15:50"}, "type": "Feature"}, {"geometry": {"coordinates": [-77.050046, 38.923583], "type": "Point"}, "properties": {"lon": -77.050046, "stands": 19, "name": "Calvert St & Woodley Pl NW", "address": "Calvert St & Woodley Pl NW", "lat": 38.923583, "bikes": 0, "status": "OPEN", "update": "2015-11-02T22:13:40"}, "type": "Feature"}, {"geometry": {"coordinates": [-77.015231, 38.90706], "type": "Point"}, "properties": {"lon": -77.015231, "stands": 13, "name": "New Jersey Ave & N St NW/Dunbar HS", "address": "New Jersey Ave & N St NW/Dunbar HS", "lat": 38.90706, "bikes": 4, "status": "OPEN", "update": "2015-11-02T22:20:21"}, "type": "Feature"}, {"geometry": {"coordinates": [-76.931862, 38.898536], "type": "Point"}, "properties": {"lon": -76.931862, "stands": 8, "name": "Nannie Helen Burroughs Ave & 49th St NE", "address": "Nannie Helen Burroughs Ave & 49th St NE", "lat": 38.898536, "bikes": 3, "status": "OPEN", "update": "2015-11-02T11:01:05"}, "type": "Feature"}, {"geometry": {"coordinates": [-76.933099, 38.908473], "type": "Point"}, "properties": {"lon": -76.933099, "stands": 8, "name": "Deanwood Rec Center", "address": "Deanwood Rec Center", "lat": 38.908473, "bikes": 7, "status": "OPEN", "update": "2015-11-02T11:02:30"}, "type": "Feature"}, {"geometry": {"coordinates": [-77.03023, 38.878433], "type": "Point"}, "properties": {"lon": -77.03023, "stands": 10, "name": "Hains Point/Buckeye & Ohio Dr SW", "address": "Hains Point/Buckeye & Ohio Dr SW", "lat": 38.878433, "bikes": 7, "status": "OPEN", "update": "2015-11-02T21:21:17"}, "type": "Feature"}, {"geometry": {"coordinates": [-77.089233, 38.873755], "type": "Point"}, "properties": {"lon": -77.089233, "stands": 6, "name": "Arlington Blvd & Fillmore St", "address": "Arlington Blvd & Fillmore St", "lat": 38.873755, "bikes": 5, "status": "OPEN", "update": "2015-11-02T15:00:06"}, "type": "Feature"}, {"geometry": {"coordinates": [-77.04826, 38.86646], "type": "Point"}, "properties": {"lon": -77.04826, "stands": 5, "name": "Long Bridge Park/Long Bridge Dr & 6th St S", "address": "Long Bridge Park/Long Bridge Dr & 6th St S", "lat": 38.86646, "bikes": 10, "status": "OPEN", "update": "2015-11-02T17:42:00"}, "type": "Feature"}, {"geometry": {"coordinates": [-77.109647, 38.999634], "type": "Point"}, "properties": {"lon": -77.109647, "stands": 14, "name": "Old Georgetown Rd & Southwick St", "address": "Old Georgetown Rd & Southwick St", "lat": 38.999634, "bikes": 5, "status": "OPEN", "update": "2015-11-02T22:09:57"}, "type": "Feature"}, {"geometry": {"coordinates": [-77.088659, 38.96115], "type": "Point"}, "properties": {"lon": -77.088659, "stands": 8, "name": "Friendship Blvd & Willard Ave", "address": "Friendship Blvd & Willard Ave", "lat": 38.96115, "bikes": 11, "status": "OPEN", "update": "2015-11-02T21:19:53"}, "type": "Feature"}, {"geometry": {"coordinates": [-77.008911, 38.899703], "type": "Point"}, "properties": {"lon": -77.008911, "stands": 10, "name": "North Capitol St & G Pl NE", "address": "North Capitol St & G Pl NE", "lat": 38.899703, "bikes": 8, "status": "OPEN", "update": "2015-11-02T22:13:24"}, "type": "Feature"}, {"geometry": {"coordinates": [-77.09482, 38.837666], "type": "Point"}, "properties": {"lon": -77.09482, "stands": 6, "name": "31st & Woodrow St S", "address": "31st & Woodrow St S", "lat": 38.837666, "bikes": 5, "status": "OPEN", "update": "2015-11-02T14:49:28"}, "type": "Feature"}, {"geometry": {"coordinates": [-77.082104, 38.873219], "type": "Point"}, "properties": {"lon": -77.082104, "stands": 5, "name": "Washington Blvd & Walter Reed Dr ", "address": "Washington Blvd & Walter Reed Dr ", "lat": 38.873219, "bikes": 9, "status": "OPEN", "update": "2015-11-02T20:29:51"}, "type": "Feature"}, {"geometry": {"coordinates": [-77.095596, 38.869418], "type": "Point"}, "properties": {"lon": -77.095596, "stands": 7, "name": "TJ Cmty Ctr / 2nd St & S Old Glebe Rd", "address": "TJ Cmty Ctr / 2nd St & S Old Glebe Rd", "lat": 38.869418, "bikes": 8, "status": "OPEN", "update": "2015-11-02T20:58:01"}, "type": "Feature"}, {"geometry": {"coordinates": [-77.062036, 38.941154], "type": "Point"}, "properties": {"lon": -77.062036, "stands": 9, "name": "Connecticut Ave & Tilden St NW", "address": "Connecticut Ave & Tilden St NW", "lat": 38.941154, "bikes": 6, "status": "OPEN", "update": "2015-11-02T22:09:23"}, "type": "Feature"}, {"geometry": {"coordinates": [-77.196442, 39.103091], "type": "Point"}, "properties": {"lon": -77.196442, "stands": 8, "name": "Medical Center Dr & Key West Ave", "address": "Medical Center Dr & Key West Ave", "lat": 39.103091, "bikes": 7, "status": "OPEN", "update": "2015-11-02T21:42:25"}, "type": "Feature"}, {"geometry": {"coordinates": [-77.196636, 39.097636], "type": "Point"}, "properties": {"lon": -77.196636, "stands": 10, "name": "Shady Grove Hospital", "address": "Shady Grove Hospital", "lat": 39.097636, "bikes": 9, "status": "OPEN", "update": "2015-11-02T15:12:49"}, "type": "Feature"}, {"geometry": {"coordinates": [-77.023894, 38.997445], "type": "Point"}, "properties": {"lon": -77.023894, "stands": 4, "name": "Veterans Pl & Pershing Dr ", "address": "Veterans Pl & Pershing Dr ", "lat": 38.997445, "bikes": 7, "status": "OPEN", "update": "2015-11-02T19:17:24"}, "type": "Feature"}, {"geometry": {"coordinates": [-77.145803, 39.085394], "type": "Point"}, "properties": {"lon": -77.145803, "stands": 5, "name": "Rockville Metro East", "address": "Rockville Metro East", "lat": 39.085394, "bikes": 8, "status": "OPEN", "update": "2015-11-02T19:06:32"}, "type": "Feature"}, {"geometry": {"coordinates": [-77.012108, 38.900358], "type": "Point"}, "properties": {"lon": -77.012108, "stands": 2, "name": "1st & H St NW", "address": "1st & H St NW", "lat": 38.900358, "bikes": 13, "status": "OPEN", "update": "2015-11-02T22:15:51"}, "type": "Feature"}, {"geometry": {"coordinates": [-77.002721, 38.952369], "type": "Point"}, "properties": {"lon": -77.002721, "stands": 8, "name": "Fort Totten Metro", "address": "Fort Totten Metro", "lat": 38.952369, "bikes": 11, "status": "OPEN", "update": "2015-11-02T14:16:03"}, "type": "Feature"}, {"geometry": {"coordinates": [-77.016855, 38.975219], "type": "Point"}, "properties": {"lon": -77.016855, "stands": 14, "name": "Takoma Metro", "address": "Takoma Metro", "lat": 38.975219, "bikes": 3, "status": "OPEN", "update": "2015-11-02T21:52:47"}, "type": "Feature"}, {"geometry": {"coordinates": [-76.995876, 38.920682], "type": "Point"}, "properties": {"lon": -76.995876, "stands": 9, "name": "Rhode Island Ave Metro", "address": "Rhode Island Ave Metro", "lat": 38.920682, "bikes": 10, "status": "OPEN", "update": "2015-11-02T21:50:29"}, "type": "Feature"}, {"geometry": {"coordinates": [-77.076131, 38.866471], "type": "Point"}, "properties": {"lon": -77.076131, "stands": 4, "name": "Rolfe St & 9th St S", "address": "Rolfe St & 9th St S", "lat": 38.866471, "bikes": 7, "status": "OPEN", "update": "2015-11-02T17:01:01"}, "type": "Feature"}, {"geometry": {"coordinates": [-77.087083, 38.839912], "type": "Point"}, "properties": {"lon": -77.087083, "stands": 4, "name": "Shirlington Transit Center / S Quincy & Randolph St", "address": "Shirlington Transit Center / S Quincy & Randolph St", "lat": 38.839912, "bikes": 11, "status": "OPEN", "update": "2015-11-02T17:49:11"}, "type": "Feature"}, {"geometry": {"coordinates": [-77.166093, 39.119765], "type": "Point"}, "properties": {"lon": -77.166093, "stands": 9, "name": "Shady Grove Metro West", "address": "Shady Grove Metro West", "lat": 39.119765, "bikes": 8, "status": "OPEN", "update": "2015-11-02T16:24:22"}, "type": "Feature"}, {"geometry": {"coordinates": [-77.103381, 38.964992], "type": "Point"}, "properties": {"lon": -77.103381, "stands": 14, "name": "River Rd & Landy Ln", "address": "River Rd & Landy Ln", "lat": 38.964992, "bikes": 5, "status": "OPEN", "update": "2015-11-02T20:57:45"}, "type": "Feature"}, {"geometry": {"coordinates": [-77.146866, 39.084379], "type": "Point"}, "properties": {"lon": -77.146866, "stands": 8, "name": "Rockville Metro West", "address": "Rockville Metro West", "lat": 39.084379, "bikes": 11, "status": "OPEN", "update": "2015-11-02T15:17:25"}, "type": "Feature"}, {"geometry": {"coordinates": [-77.094537, 38.984691], "type": "Point"}, "properties": {"lon": -77.094537, "stands": 12, "name": "Bethesda Metro", "address": "Bethesda Metro", "lat": 38.984691, "bikes": 0, "status": "OPEN", "update": "2015-11-02T21:06:25"}, "type": "Feature"}, {"geometry": {"coordinates": [-77.071301, 38.88992], "type": "Point"}, "properties": {"lon": -77.071301, "stands": 18, "name": "Iwo Jima Memorial/N Meade & 14th St N", "address": "Iwo Jima Memorial/N Meade & 14th St N", "lat": 38.88992, "bikes": 1, "status": "OPEN", "update": "2015-11-02T21:33:22"}, "type": "Feature"}, {"geometry": {"coordinates": [-77.067786, 38.903582], "type": "Point"}, "properties": {"lon": -77.067786, "stands": 0, "name": "34th & Water St NW", "address": "34th & Water St NW", "lat": 38.903582, "bikes": 18, "status": "OPEN", "update": "2015-11-02T20:36:37"}, "type": "Feature"}, {"geometry": {"coordinates": [-77.060866, 38.804378], "type": "Point"}, "properties": {"lon": -77.060866, "stands": 7, "name": "Duke St & John Carlyle St", "address": "Duke St & John Carlyle St", "lat": 38.804378, "bikes": 8, "status": "OPEN", "update": "2015-11-02T21:50:44"}, "type": "Feature"}, {"geometry": {"coordinates": [-77.09169, 38.894941], "type": "Point"}, "properties": {"lon": -77.09169, "stands": 13, "name": "Lee Hwy & N Cleveland St", "address": "Lee Hwy & N Cleveland St", "lat": 38.894941, "bikes": 2, "status": "OPEN", "update": "2015-11-02T21:41:16"}, "type": "Feature"}, {"geometry": {"coordinates": [-77.104503, 38.869442], "type": "Point"}, "properties": {"lon": -77.104503, "stands": 8, "name": "Arlington Blvd & S George Mason Dr/NFATC", "address": "Arlington Blvd & S George Mason Dr/NFATC", "lat": 38.869442, "bikes": 2, "status": "OPEN", "update": "2015-11-02T22:14:30"}, "type": "Feature"}, {"geometry": {"coordinates": [-77.024281, 38.898404], "type": "Point"}, "properties": {"lon": -77.024281, "stands": 2, "name": "MLK Library/9th & G St NW", "address": "MLK Library/9th & G St NW", "lat": 38.898404, "bikes": 19, "status": "OPEN", "update": "2015-11-02T22:18:29"}, "type": "Feature"}, {"geometry": {"coordinates": [-77.080851, 38.897612], "type": "Point"}, "properties": {"lon": -77.080851, "stands": 11, "name": "Lee Hwy & N Scott St", "address": "Lee Hwy & N Scott St", "lat": 38.897612, "bikes": 4, "status": "OPEN", "update": "2015-11-02T20:58:50"}, "type": "Feature"}, {"geometry": {"coordinates": [-77.051084, 38.901755], "type": "Point"}, "properties": {"lon": -77.051084, "stands": 0, "name": "New Hampshire Ave & 24th St NW", "address": "New Hampshire Ave & 24th St NW", "lat": 38.901755, "bikes": 17, "status": "OPEN", "update": "2015-11-02T21:56:29"}, "type": "Feature"}, {"geometry": {"coordinates": [-77.068952, 38.801111], "type": "Point"}, "properties": {"lon": -77.068952, "stands": 7, "name": "Eisenhower Ave & Mill Race Ln", "address": "Eisenhower Ave & Mill Race Ln", "lat": 38.801111, "bikes": 8, "status": "OPEN", "update": "2015-11-02T21:57:37"}, "type": "Feature"}, {"geometry": {"coordinates": [-77.047494, 38.82175], "type": "Point"}, "properties": {"lon": -77.047494, "stands": 3, "name": "Potomac Greens Dr & Slaters Ln", "address": "Potomac Greens Dr & Slaters Ln", "lat": 38.82175, "bikes": 8, "status": "OPEN", "update": "2015-11-02T22:19:44"}, "type": "Feature"}, {"geometry": {"coordinates": [-77.063562, 38.802677], "type": "Point"}, "properties": {"lon": -77.063562, "stands": 6, "name": "Ballenger Ave & Dulaney St", "address": "Ballenger Ave & Dulaney St", "lat": 38.802677, "bikes": 12, "status": "OPEN", "update": "2015-11-02T21:53:22"}, "type": "Feature"}, {"geometry": {"coordinates": [-77.057619, 38.820064], "type": "Point"}, "properties": {"lon": -77.057619, "stands": 5, "name": "Mount Vernon Ave & E Nelson Ave", "address": "Mount Vernon Ave & E Nelson Ave", "lat": 38.820064, "bikes": 6, "status": "OPEN", "update": "2015-11-02T18:53:14"}, "type": "Feature"}, {"geometry": {"coordinates": [-77.058541, 38.82595], "type": "Point"}, "properties": {"lon": -77.058541, "stands": 3, "name": "Mount Vernon Ave & E Del Ray Ave", "address": "Mount Vernon Ave & E Del Ray Ave", "lat": 38.82595, "bikes": 12, "status": "OPEN", "update": "2015-11-02T20:30:39"}, "type": "Feature"}, {"geometry": {"coordinates": [-77.053096, 38.820932], "type": "Point"}, "properties": {"lon": -77.053096, "stands": 8, "name": "Monroe Ave & Leslie Ave", "address": "Monroe Ave & Leslie Ave", "lat": 38.820932, "bikes": 7, "status": "OPEN", "update": "2015-11-02T21:27:36"}, "type": "Feature"}, {"geometry": {"coordinates": [-77.059821, 38.833077], "type": "Point"}, "properties": {"lon": -77.059821, "stands": 11, "name": "Mount Vernon Ave & Kennedy St", "address": "Mount Vernon Ave & Kennedy St", "lat": 38.833077, "bikes": 4, "status": "OPEN", "update": "2015-11-02T16:58:21"}, "type": "Feature"}, {"geometry": {"coordinates": [-77.084801, 38.890612], "type": "Point"}, "properties": {"lon": -77.084801, "stands": 21, "name": "Court House Metro / 15th & N Uhle St ", "address": "Court House Metro / 15th & N Uhle St ", "lat": 38.890612, "bikes": 0, "status": "OPEN", "update": "2015-11-02T22:11:42"}, "type": "Feature"}, {"geometry": {"coordinates": [-77.000035, 38.986743], "type": "Point"}, "properties": {"lon": -77.000035, "stands": 7, "name": "Washington Adventist U / Flower Ave & Division St", "address": "Washington Adventist U / Flower Ave & Division St", "lat": 38.986743, "bikes": 8, "status": "OPEN", "update": "2015-11-02T21:36:31"},