{"type": "FeatureCollection", "features": [{"type": "Feature", "geometry": {"type": "Point", "coordinates": [11.97305, 57.68979]}, "properties": {"name": "CHALMERSPLATSEN", "lon": 11.97305, "lat": 57.68979, "status": "CLOSED", "stands": 50, "update": "2016-02-04T18:44:10", "address": "Chalmersplatsen", "bikes": 0}}, {"type": "Feature", "geometry": {"type": "Point", "coordinates": [11.97974, 57.68953]}, "properties": {"name": "CHALMERS TV\u00c4RGATA", "lon": 11.97974, "lat": 57.68953, "status": "CLOSED", "stands": 20, "update": "2016-02-04T18:44:57", "address": "Chalmers Tv\u00e4rgata", "bikes": 0}}, {"type": "Feature", "geometry": {"type": "Point", "coordinates": [11.968875, 57.702542]}, "properties": {"name": "KUNGSTORGET", "lon": 11.968875, "lat": 57.702542, "status": "CLOSED", "stands": 20, "update": "2016-02-04T18:44:12", "address": "Kungstorget", "bikes": 0}}, {"type": "Feature", "geometry": {"type": "Point", "coordinates": [11.963926, 57.707476]}, "properties": {"name": "POSTGATAN", "lon": 11.963926, "lat": 57.707476, "status": "CLOSED", "stands": 20, "update": "2016-02-04T18:42:33", "address": "Postgatan", "bikes": 0}}, {"type": "Feature", "geometry": {"type": "Point", "coordinates": [11.969008, 57.704639]}, "properties": {"name": "\u00d6STRA HAMNGATAN", "lon": 11.969008, "lat": 57.704639, "status": "CLOSED", "stands": 27, "update": "2016-02-04T18:37:30", "address": "\u00d6stra hamngatan", "bikes": 0}}, {"type": "Feature", "geometry": {"type": "Point", "coordinates": [11.984298, 57.70452]}, "properties": {"name": "BOHUSGATAN", "lon": 11.984298, "lat": 57.70452, "status": "CLOSED", "stands": 20, "update": "2016-02-04T18:40:12", "address": "Bohusgatan", "bikes": 0}}, {"type": "Feature", "geometry": {"type": "Point", "coordinates": [11.958559, 57.693517]}, "properties": {"name": "BRUNNSGATAN", "lon": 11.958559, "lat": 57.693517, "status": "CLOSED", "stands": 20, "update": "2016-02-04T18:40:57", "address": "Brunnsgatan", "bikes": 0}}, {"type": "Feature", "geometry": {"type": "Point", "coordinates": [11.95364, 57.700662]}, "properties": {"name": "OLOF PALMES PLATS", "lon": 11.95364, "lat": 57.700662, "status": "CLOSED", "stands": 31, "update": "2016-02-04T18:47:11", "address": "Olof Palmes Plats", "bikes": 0}}, {"type": "Feature", "geometry": {"type": "Point", "coordinates": [11.97451, 57.69418]}, "properties": {"name": "L\u00c4RAREGATAN/MOLINSGATAN", "lon": 11.97451, "lat": 57.69418, "status": "CLOSED", "stands": 40, "update": "2016-02-04T18:40:05", "address": "L\u00e4raregatan/Molinsgatan", "bikes": 0}}, {"type": "Feature", "geometry": {"type": "Point", "coordinates": [11.992441, 57.704675]}, "properties": {"name": "G\u00c5RDATORGET", "lon": 11.992441, "lat": 57.704675, "status": "CLOSED", "stands": 20, "update": "2016-02-04T18:46:45", "address": "G\u00e5rdatorget", "bikes": 0}}, {"type": "Feature", "geometry": {"type": "Point", "coordinates": [11.973429, 57.700324]}, "properties": {"name": "VALAND", "lon": 11.973429, "lat": 57.700324, "status": "CLOSED", "stands": 20, "update": "2016-02-04T18:45:13", "address": "Valand", "bikes": 0}}, {"type": "Feature", "geometry": {"type": "Point", "coordinates": [11.9806, 57.71185]}, "properties": {"name": "KRUTHUSGATAN", "lon": 11.9806, "lat": 57.71185, "status": "CLOSED", "stands": 20, "update": "2016-02-04T18:41:26", "address": "Kruthusgatan", "bikes": 0}}, {"type": "Feature", "geometry": {"type": "Point", "coordinates": [11.976176, 57.699939]}, "properties": {"name": "KRISTINELUNDSGATAN", "lon": 11.976176, "lat": 57.699939, "status": "CLOSED", "stands": 25, "update": "2016-02-04T18:43:18", "address": "Kristinelundsgatan", "bikes": 0}}, {"type": "Feature", "geometry": {"type": "Point", "coordinates": [11.96012, 57.70337]}, "properties": {"name": "KUNGSGATAN/TELEKASERN", "lon": 11.96012, "lat": 57.70337, "status": "CLOSED", "stands": 20, "update": "2016-02-04T18:45:44", "address": "Kungsgatan/Telekasern", "bikes": 0}}, {"type": "Feature", "geometry": {"type": "Point", "coordinates": [11.96388, 57.70434]}, "properties": {"name": "DOMKYRKAN", "lon": 11.96388, "lat": 57.70434, "status": "CLOSED", "stands": 8, "update": "2016-01-20T23:24:43", "address": "Domkyrkan", "bikes": 0}}, {"type": "Feature", "geometry": {"type": "Point", "coordinates": [11.966421, 57.710396]}, "properties": {"name": "KANALTORGET", "lon": 11.966421, "lat": 57.710396, "status": "CLOSED", "stands": 25, "update": "2016-02-04T18:43:44", "address": "Kanaltorget", "bikes": 0}}, {"type": "Feature", "geometry": {"type": "Point", "coordinates": [11.98472, 57.70884]}, "properties": {"name": "FOLKUNGAGATAN", "lon": 11.98472, "lat": 57.70884, "status": "CLOSED", "stands": 20, "update": "2016-02-04T18:45:20", "address": "Folkungagatan", "bikes": 0}}, {"type": "Feature", "geometry": {"type": "Point", "coordinates": [11.973347, 57.713714]}, "properties": {"name": "KILSGATAN", "lon": 11.973347, "lat": 57.713714, "status": "CLOSED", "stands": 23, "update": "2016-02-04T18:41:06", "address": "Kilsgatan", "bikes": 0}}, {"type": "Feature", "geometry": {"type": "Point", "coordinates": [11.956468, 57.698949]}, "properties": {"name": "KAPONJ\u00c4RSGATAN", "lon": 11.956468, "lat": 57.698949, "status": "CLOSED", "stands": 25, "update": "2016-02-04T18:41:43", "address": "Kaponj\u00e4rsgatan", "bikes": 0}}, {"type": "Feature", "geometry": {"type": "Point", "coordinates": [11.990748, 57.704535]}, "properties": {"name": "\u00c5V\u00c4GEN NORRA", "lon": 11.990748, "lat": 57.704535, "status": "CLOSED", "stands": 31, "update": "2016-02-04T18:40:54", "address": "\u00c5v\u00e4gen Norra", "bikes": 0}}, {"type": "Feature", "geometry": {"type": "Point", "coordinates": [11.973448, 57.707316]}, "properties": {"name": "SLUSSPLATSEN", "lon": 11.973448, "lat": 57.707316, "status": "CLOSED", "stands": 20, "update": "2016-02-04T18:46:20", "address": "Slussplatsen", "bikes": 0}}, {"type": "Feature", "geometry": {"type": "Point", "coordinates": [11.987833, 57.696555]}, "properties": {"name": "KORSV\u00c4GEN", "lon": 11.987833, "lat": 57.696555, "status": "CLOSED", "stands": 25, "update": "2016-02-04T18:42:38", "address": "Korsv\u00e4gen 2", "bikes": 0}}, {"type": "Feature", "geometry": {"type": "Point", "coordinates": [11.955461, 57.702793]}, "properties": {"name": "ESPERANTOPLATSEN", "lon": 11.955461, "lat": 57.702793, "status": "CLOSED", "stands": 27, "update": "2016-02-04T18:42:58", "address": "008_ESPERANTOPLATSEN", "bikes": 0}}, {"type": "Feature", "geometry": {"type": "Point", "coordinates": [11.995107, 57.697923]}, "properties": {"name": "LISEBERG STATION", "lon": 11.995107, "lat": 57.697923, "status": "CLOSED", "stands": 30, "update": "2016-02-04T18:39:24", "address": "Liseberg Station", "bikes": 0}}, {"type": "Feature", "geometry": {"type": "Point", "coordinates": [11.987908, 57.700094]}, "properties": {"name": "SCANDINAVIUM", "lon": 11.987908, "lat": 57.700094, "status": "CLOSED", "stands": 30, "update": "2016-02-04T18:45:58", "address": "Scandinavium", "bikes": 0}}, {"type": "Feature", "geometry": {"type": "Point", "coordinates": [11.947047, 57.689983]}, "properties": {"name": "SLOTTSKOGEN/PLIKTA", "lon": 11.947047, "lat": 57.689983, "status": "CLOSED", "stands": 25, "update": "2016-02-04T18:38:27", "address": "Slottskogen/Plikta", "bikes": 0}}, {"type": "Feature", "geometry": {"type": "Point", "coordinates": [11.967502, 57.707233]}, "properties": {"name": "GUSTAF ADOLFS TORG", "lon": 11.967502, "lat": 57.707233, "status": "CLOSED", "stands": 40, "update": "2016-02-04T18:46:32", "address": "Gustaf Adolfs Torg", "bikes": 0}}, {"type": "Feature", "geometry": {"type": "Point", "coordinates": [11.972077, 57.704263]}, "properties": {"name": "BASTIONSPLATSEN", "lon": 11.972077, "lat": 57.704263, "status": "CLOSED", "stands": 20, "update": "2016-02-04T18:44:03", "address": "Bastionsplatsen", "bikes": 0}}, {"type": "Feature", "geometry": {"type": "Point", "coordinates": [11.983638, 57.707048]}, "properties": {"name": "ULLEVIGATAN", "lon": 11.983638, "lat": 57.707048, "status": "CLOSED", "stands": 25, "update": "2016-02-04T18:46:30", "address": "Ullevigatan", "bikes": 0}}, {"type": "Feature", "geometry": {"type": "Point", "coordinates": [11.97472, 57.716378]}, "properties": {"name": "GULLBERGSVASS", "lon": 11.97472, "lat": 57.716378, "status": "CLOSED", "stands": 40, "update": "2016-02-04T18:41:27", "address": "Gullbergsvass", "bikes": 0}}, {"type": "Feature", "geometry": {"type": "Point", "coordinates": [11.968013, 57.713496]}, "properties": {"name": "L\u00c4PPSTIFTET", "lon": 11.968013, "lat": 57.713496, "status": "CLOSED", "stands": 29, "update": "2016-02-04T18:42:05", "address": "L\u00e4ppstiftet", "bikes": 0}}, {"type": "Feature", "geometry": {"type": "Point", "coordinates": [11.98661, 57.69312]}, "properties": {"name": "CARLANDERSPLATSEN", "lon": 11.98661, "lat": 57.69312, "status": "CLOSED", "stands": 20, "update": "2016-02-04T18:43:08", "address": "Carlanderplatsen", "bikes": 0}}, {"type": "Feature", "geometry": {"type": "Point", "coordinates": [11.959101, 57.706767]}, "properties": {"name": "PACKHUSPLATSEN", "lon": 11.959101, "lat": 57.706767, "status": "CLOSED", "stands": 20, "update": "2016-02-04T18:42:23", "address": "Packhusplatsen", "bikes": 0}}, {"type": "Feature", "geometry": {"type": "Point", "coordinates": [11.98854, 57.69032]}, "properties": {"name": "EKLANDA/UTLANDAGATAN", "lon": 11.98854, "lat": 57.69032, "status": "CLOSED", "stands": 20, "update": "2016-02-04T18:41:00", "address": "Eklanda/Utlandagatan", "bikes": 0}}, {"type": "Feature", "geometry": {"type": "Point", "coordinates": [11.95165, 57.690278]}, "properties": {"name": "LINN\u00c9PLATSEN", "lon": 11.95165, "lat": 57.690278, "status": "CLOSED", "stands": 20, "update": "2016-02-04T18:47:26", "address": "Linn\u00e9platsen", "bikes": 0}}, {"type": "Feature", "geometry": {"type": "Point", "coordinates": [11.97199, 57.69358]}, "properties": {"name": "KAPELLPLATSEN", "lon": 11.97199, "lat": 57.69358, "status": "CLOSED", "stands": 28, "update": "2016-02-04T18:43:24", "address": "Kapellplatsen", "bikes": 0}}, {"type": "Feature", "geometry": {"type": "Point", "coordinates": [11.961987, 57.694554]}, "properties": {"name": "F\u00d6RENINGSGATAN", "lon": 11.961987, "lat": 57.694554, "status": "CLOSED", "stands": 20, "update": "2016-02-04T18:40:18", "address": "F\u00f6reningsgatan", "bikes": 0}}, {"type": "Feature", "geometry": {"type": "Point", "coordinates": [11.951009, 57.696837]}, "properties": {"name": "HAGABION", "lon": 11.951009, "lat": 57.696837, "status": "CLOSED", "stands": 20, "update": "2016-02-04T18:42:32", "address": "Hagabion", "bikes": 0}}, {"type": "Feature", "geometry": {"type": "Point", "coordinates": [11.98798, 57.71119]}, "properties": {"name": "ALSTR\u00d6MER/FRIGGAGATAN", "lon": 11.98798, "lat": 57.71119, "status": "CLOSED", "stands": 20, "update": "2016-02-04T18:42:47", "address": "Alstr\u00f6mer/Friggagatan", "bikes": 0}}, {"type": "Feature", "geometry": {"type": "Point", "coordinates": [11.990553, 57.712435]}, "properties": {"name": "SVINGELN", "lon": 11.990553, "lat": 57.712435, "status": "CLOSED", "stands": 20, "update": "2016-02-04T18:40:57", "address": "Svingeln", "bikes": 0}}, {"type": "Feature", "geometry": {"type": "Point", "coordinates": [11.960571, 57.700685]}, "properties": {"name": "ROSENLUNDSPLATSEN", "lon": 11.960571, "lat": 57.700685, "status": "CLOSED", "stands": 20, "update": "2016-02-04T18:41:34", "address": "Rosenlundsplatsen", "bikes": 0}}, {"type": "Feature", "geometry": {"type": "Point", "coordinates": [11.98021, 57.702955]}, "properties": {"name": "HEDEN/STENSTUREGATAN", "lon": 11.98021, "lat": 57.702955, "status": "CLOSED", "stands": 30, "update": "2016-02-04T18:44:25", "address": "Heden/Stensturegatan", "bikes": 0}}, {"type": "Feature", "geometry": {"type": "Point", "coordinates": [11.99039, 57.70701]}, "properties": {"name": "D\u00c4MMEPLATSEN", "lon": 11.99039, "lat": 57.70701, "status": "CLOSED", "stands": 20, "update": "2016-02-04T18:40:47", "address": "D\u00e4mmeplatsen", "bikes": 0}}, {"type": "Feature", "geometry": {"type": "Point", "coordinates": [11.972737, 57.708074]}, "properties": {"name": "DROTTNINGTORGET", "lon": 11.972737, "lat": 57.708074, "status": "CLOSED", "stands": 20, "update": "2016-02-04T18:38:30", "address": "Drottningtorget", "bikes": 0}}, {"type": "Feature", "geometry": {"type": "Point", "coordinates": [11.941861, 57.699415]}, "properties": {"name": "MASTHUGGSTORGET", "lon": 11.941861, "lat": 57.699415, "status": "CLOSED", "stands": 40, "update": "2016-02-04T18:42:03", "address": "Masthuggstorget", "bikes": 0}}, {"type": "Feature", "geometry": {"type": "Point", "coordinates": [11.98096, 57.69794]}, "properties": {"name": "BERZELIIGATAN", "lon": 11.98096, "lat": 57.69794, "status": "CLOSED", "stands": 20, "update": "2016-02-04T18:44:43", "address": "Berzeliigatan", "bikes": 0}}, {"type": "Feature", "geometry": {"type": "Point", "coordinates": [11.952395, 57.702301]}, "properties": {"name": "ROSENLUND/F\u00c4RJEL\u00c4GET", "lon": 11.952395, "lat": 57.702301, "status": "CLOSED", "stands": 30, "update": "2016-02-04T18:45:49", "address": "Rosenlund/F\u00e4rgel\u00e4get", "bikes": 0}}, {"type": "Feature", "geometry": {"type": "Point", "coordinates": [11.965179, 57.702459]}, "properties": {"name": "GR\u00d6NSAKSTORGET", "lon": 11.965179, "lat": 57.702459, "status": "CLOSED", "stands": 25, "update": "2016-02-04T18:37:39", "address": "Gr\u00f6nsakstorget", "bikes": 0}}, {"type": "Feature", "geometry": {"type": "Point", "coordinates": [11.946097, 57.699968]}, "properties": {"name": "F\u00d6RSTAL\u00c5NG/V\u00c4RMLANDSGATAN", "lon": 11.946097, "lat": 57.699968, "status": "CLOSED", "stands": 23, "update": "2016-02-04T18:44:13", "address": "F\u00f6rstal\u00e5ng/V\u00e4rmlandsgatan", "bikes": 0}}, {"type": "Feature", "geometry": {"type": "Point", "coordinates": [11.985035, 57.702135]}, "properties": {"name": "BERGAKUNGEN", "lon": 11.985035, "lat": 57.702135, "status": "CLOSED", "stands": 20, "update": "2016-02-04T18:43:48", "address": "Bergakungen", "bikes": 0}}, {"type": "Feature", "geometry": {"type": "Point", "coordinates": [11.971552, 57.702482]}, "properties": {"name": "STORAN", "lon": 11.971552, "lat": 57.702482, "status": "CLOSED", "stands": 40, "update": "2016-02-04T18:40:18", "address": "Storan", "bikes": 0}}, {"type": "Feature", "geometry": {"type": "Point", "coordinates": [11.952905, 57.697821]}, "properties": {"name": "FRIG\u00c5NGSGATAN", "lon": 11.952905, "lat": 57.697821, "status": "CLOSED", "stands": 20, "update": "2016-02-04T18:46:27", "address": "Frig\u00e5ngsgatan", "bikes": 0}}, {"type": "Feature", "geometry": {"type": "Point", "coordinates": [11.955692, 57.693029]}, "properties": {"name": "KASTELLGATAN", "lon": 11.955692, "lat": 57.693029, "status": "CLOSED", "stands": 20, "update": "2016-02-04T18:46:16", "address": "Kastellgatan", "bikes": 0}}, {"type": "Feature", "geometry": {"type": "Point", "coordinates": [11.966574, 57.711547]}, "properties": {"name": "LILLA BOMMEN", "lon": 11.966574, "lat": 57.711547, "status": "CLOSED", "stands": 20, "update": "2016-02-04T18:38:47", "address": "Lilla Bommen", "bikes": 0}}, {"type": "Feature", "geometry": {"type": "Point", "coordinates": [11.9766, 57.701419]}, "properties": {"name": "VASAGATAN/HEDEN", "lon": 11.9766, "lat": 57.701419, "status": "CLOSED", "stands": 25, "update": "2016-02-04T18:44:11", "address": "Vasagatan/Heden", "bikes": 0}}, {"type": "Feature", "geometry": {"type": "Point", "coordinates": [11.976117, 57.707647]}, "properties": {"name": "POSTHUSET/\u00c5KAREPLATSEN", "lon": 11.976117, "lat": 57.707647, "status": "CLOSED", "stands": 20, "update": "2016-02-04T18:46:41", "address": "Posthuset/\u00c5kareplatsen", "bikes": 0}}, {"type": "Feature", "geometry": {"type": "Point", "coordinates": [11.958548, 57.695909]}, "properties": {"name": "SKANSTORGET", "lon": 11.958548, "lat": 57.695909, "status": "CLOSED", "stands": 30, "update": "2016-02-04T18:42:32", "address": "Skanstorget", "bikes": 0}}, {"type": "Feature", "geometry": {"type": "Point", "coordinates": [11.962405, 57.697984]}, "properties": {"name": "HAGAPARKEN", "lon": 11.962405, "lat": 57.697984, "status": "CLOSED", "stands": 25, "update": "2016-02-04T18:46:02", "address": "Hagaparken", "bikes": 0}}, {"type": "Feature", "geometry": {"type": "Point", "coordinates": [11.97694, 57.69841]}, "properties": {"name": "ENGELBREKTSGATAN", "lon": 11.97694, "lat": 57.69841, "status": "CLOSED", "stands": 15, "update": "2016-02-04T18:42:01", "address": "Engelbrektsgatan", "bikes": 0}}, {"type": "Feature", "geometry": {"type": "Point", "coordinates": [11.992191, 57.701249]}, "properties": {"name": "\u00c5V\u00c4GEN", "lon": 11.992191, "lat": 57.701249, "status": "CLOSED", "stands": 20, "update": "2016-02-04T18:38:11", "address": "\u00c5v\u00e4gen", "bikes": 0}}, {"type": "Feature", "geometry": {"type": "Point", "coordinates": [11.946208, 57.698261]}, "properties": {"name": "TREDJEL\u00c5NG/V\u00c4RMLANDSGATAN", "lon": 11.946208, "lat": 57.698261, "status": "CLOSED", "stands": 25, "update": "2016-02-04T18:46:17", "address": "Tredjel\u00e5ng/V\u00e4rmlandsgatan", "bikes": 0}}, {"type": "Feature", "geometry": {"type": "Point", "coordinates": [11.979867, 57.699941]}, "properties": {"name": "HEDEN SYD", "lon": 11.979867, "lat": 57.699941, "status": "CLOSED", "stands": 20, "update": "2016-02-04T18:42:45", "address": "Heden Syd", "bikes": 0}}, {"type": "Feature", "geometry": {"type": "Point", "coordinates": [11.98322, 57.68542]}, "properties": {"name": "GIBRALTARG/EKLANDAG", "lon": 11.98322, "lat": 57.68542, "status": "CLOSED", "stands": 40, "update": "2016-02-04T18:42:24", "address": "Gibraltargatan/Eklandagatan", "bikes": 0}}, {"type": "Feature", "geometry": {"type": "Point", "coordinates": [11.985703, 57.696916]}, "properties": {"name": "KORSV\u00c4GEN /S\u00d6DRA V\u00c4GEN", "lon": 11.985703, "lat": 57.696916, "status": "CLOSED", "stands": 32, "update": "2016-02-04T18:37:47", "address": "Korsv\u00e4gen 1/S\u00f6dra V\u00e4gen", "bikes": 0}}, {"type": "Feature", "geometry": {"type": "Point", "coordinates": [11.97234, 57.69691]}, "properties": {"name": "MOLINSGATAN", "lon": 11.97234, "lat": 57.69691, "status": "CLOSED", "stands": 20, "update": "2016-02-04T05:07:53", "address": "Molinsgatan", "bikes": 0}}, {"type": "Feature", "geometry": {"type": "Point", "coordinates": [11.970787, 57.709752]}, "properties": {"name": "NILS-ERICSSON TERMINALEN", "lon": 11.970787, "lat": 57.709752, "status": "CLOSED", "stands": 35, "update": "2016-02-04T18:43:52", "address": "Nils-Ericsson Terminalen", "bikes": 0}}, {"type": "Feature", "geometry": {"type": "Point", "coordinates": [11.967115, 57.698265]}, "properties": {"name": "VASAGATAN/SCHILLERSKA", "lon": 11.967115, "lat": 57.698265, "status": "CLOSED", "stands": 25, "update": "2016-02-04T18:44:51", "address": "Vasagatan/Schillerska", "bikes": 0}}]}