{"type": "FeatureCollection", "features": [{"type": "Feature", "geometry": {"type": "Point", "coordinates": [11.97305, 57.68979]}, "properties": {"bikes": 0, "stands": 50, "name": "CHALMERSPLATSEN", "status": "CLOSED", "lon": 11.97305, "lat": 57.68979, "update": "2016-02-08T21:02:20", "address": "Chalmersplatsen"}}, {"type": "Feature", "geometry": {"type": "Point", "coordinates": [11.97974, 57.68953]}, "properties": {"bikes": 0, "stands": 20, "name": "CHALMERS TV\u00c4RGATA", "status": "CLOSED", "lon": 11.97974, "lat": 57.68953, "update": "2016-02-08T21:02:11", "address": "Chalmers Tv\u00e4rgata"}}, {"type": "Feature", "geometry": {"type": "Point", "coordinates": [11.968875, 57.702542]}, "properties": {"bikes": 0, "stands": 20, "name": "KUNGSTORGET", "status": "CLOSED", "lon": 11.968875, "lat": 57.702542, "update": "2016-02-08T21:02:47", "address": "Kungstorget"}}, {"type": "Feature", "geometry": {"type": "Point", "coordinates": [11.963926, 57.707476]}, "properties": {"bikes": 0, "stands": 20, "name": "POSTGATAN", "status": "CLOSED", "lon": 11.963926, "lat": 57.707476, "update": "2016-02-08T21:03:34", "address": "Postgatan"}}, {"type": "Feature", "geometry": {"type": "Point", "coordinates": [11.969008, 57.704639]}, "properties": {"bikes": 0, "stands": 27, "name": "\u00d6STRA HAMNGATAN", "status": "CLOSED", "lon": 11.969008, "lat": 57.704639, "update": "2016-02-08T21:02:53", "address": "\u00d6stra hamngatan"}}, {"type": "Feature", "geometry": {"type": "Point", "coordinates": [11.984298, 57.70452]}, "properties": {"bikes": 0, "stands": 20, "name": "BOHUSGATAN", "status": "CLOSED", "lon": 11.984298, "lat": 57.70452, "update": "2016-02-08T21:09:11", "address": "Bohusgatan"}}, {"type": "Feature", "geometry": {"type": "Point", "coordinates": [11.958559, 57.693517]}, "properties": {"bikes": 0, "stands": 20, "name": "BRUNNSGATAN", "status": "CLOSED", "lon": 11.958559, "lat": 57.693517, "update": "2016-02-08T21:06:44", "address": "Brunnsgatan"}}, {"type": "Feature", "geometry": {"type": "Point", "coordinates": [11.95364, 57.700662]}, "properties": {"bikes": 0, "stands": 31, "name": "OLOF PALMES PLATS", "status": "CLOSED", "lon": 11.95364, "lat": 57.700662, "update": "2016-02-08T21:04:15", "address": "Olof Palmes Plats"}}, {"type": "Feature", "geometry": {"type": "Point", "coordinates": [11.97451, 57.69418]}, "properties": {"bikes": 0, "stands": 40, "name": "L\u00c4RAREGATAN/MOLINSGATAN", "status": "CLOSED", "lon": 11.97451, "lat": 57.69418, "update": "2016-02-08T21:05:50", "address": "L\u00e4raregatan/Molinsgatan"}}, {"type": "Feature", "geometry": {"type": "Point", "coordinates": [11.992441, 57.704675]}, "properties": {"bikes": 0, "stands": 20, "name": "G\u00c5RDATORGET", "status": "CLOSED", "lon": 11.992441, "lat": 57.704675, "update": "2016-02-08T21:01:07", "address": "G\u00e5rdatorget"}}, {"type": "Feature", "geometry": {"type": "Point", "coordinates": [11.973429, 57.700324]}, "properties": {"bikes": 0, "stands": 20, "name": "VALAND", "status": "CLOSED", "lon": 11.973429, "lat": 57.700324, "update": "2016-02-08T21:00:29", "address": "Valand"}}, {"type": "Feature", "geometry": {"type": "Point", "coordinates": [11.9806, 57.71185]}, "properties": {"bikes": 0, "stands": 20, "name": "KRUTHUSGATAN", "status": "CLOSED", "lon": 11.9806, "lat": 57.71185, "update": "2016-02-08T21:02:30", "address": "Kruthusgatan"}}, {"type": "Feature", "geometry": {"type": "Point", "coordinates": [11.976176, 57.699939]}, "properties": {"bikes": 0, "stands": 25, "name": "KRISTINELUNDSGATAN", "status": "CLOSED", "lon": 11.976176, "lat": 57.699939, "update": "2016-02-08T21:03:25", "address": "Kristinelundsgatan"}}, {"type": "Feature", "geometry": {"type": "Point", "coordinates": [11.96012, 57.70337]}, "properties": {"bikes": 0, "stands": 20, "name": "KUNGSGATAN/TELEKASERN", "status": "CLOSED", "lon": 11.96012, "lat": 57.70337, "update": "2016-02-08T21:02:55", "address": "Kungsgatan/Telekasern"}}, {"type": "Feature", "geometry": {"type": "Point", "coordinates": [11.96388, 57.70434]}, "properties": {"bikes": 0, "stands": 8, "name": "DOMKYRKAN", "status": "CLOSED", "lon": 11.96388, "lat": 57.70434, "update": "2016-01-20T23:24:43", "address": "Domkyrkan"}}, {"type": "Feature", "geometry": {"type": "Point", "coordinates": [11.966421, 57.710396]}, "properties": {"bikes": 0, "stands": 25, "name": "KANALTORGET", "status": "CLOSED", "lon": 11.966421, "lat": 57.710396, "update": "2016-02-08T21:00:01", "address": "Kanaltorget"}}, {"type": "Feature", "geometry": {"type": "Point", "coordinates": [11.98472, 57.70884]}, "properties": {"bikes": 0, "stands": 20, "name": "FOLKUNGAGATAN", "status": "CLOSED", "lon": 11.98472, "lat": 57.70884, "update": "2016-02-08T21:02:14", "address": "Folkungagatan"}}, {"type": "Feature", "geometry": {"type": "Point", "coordinates": [11.973347, 57.713714]}, "properties": {"bikes": 0, "stands": 23, "name": "KILSGATAN", "status": "CLOSED", "lon": 11.973347, "lat": 57.713714, "update": "2016-02-08T21:02:36", "address": "Kilsgatan"}}, {"type": "Feature", "geometry": {"type": "Point", "coordinates": [11.956468, 57.698949]}, "properties": {"bikes": 0, "stands": 25, "name": "KAPONJ\u00c4RSGATAN", "status": "CLOSED", "lon": 11.956468, "lat": 57.698949, "update": "2016-02-08T21:02:47", "address": "Kaponj\u00e4rsgatan"}}, {"type": "Feature", "geometry": {"type": "Point", "coordinates": [11.990748, 57.704535]}, "properties": {"bikes": 0, "stands": 31, "name": "\u00c5V\u00c4GEN NORRA", "status": "CLOSED", "lon": 11.990748, "lat": 57.704535, "update": "2016-02-08T21:01:16", "address": "\u00c5v\u00e4gen Norra"}}, {"type": "Feature", "geometry": {"type": "Point", "coordinates": [11.973448, 57.707316]}, "properties": {"bikes": 0, "stands": 20, "name": "SLUSSPLATSEN", "status": "CLOSED", "lon": 11.973448, "lat": 57.707316, "update": "2016-02-08T21:06:15", "address": "Slussplatsen"}}, {"type": "Feature", "geometry": {"type": "Point", "coordinates": [11.987833, 57.696555]}, "properties": {"bikes": 0, "stands": 25, "name": "KORSV\u00c4GEN", "status": "CLOSED", "lon": 11.987833, "lat": 57.696555, "update": "2016-02-08T21:04:23", "address": "Korsv\u00e4gen 2"}}, {"type": "Feature", "geometry": {"type": "Point", "coordinates": [11.955461, 57.702793]}, "properties": {"bikes": 0, "stands": 27, "name": "ESPERANTOPLATSEN", "status": "CLOSED", "lon": 11.955461, "lat": 57.702793, "update": "2016-02-08T21:09:24", "address": "008_ESPERANTOPLATSEN"}}, {"type": "Feature", "geometry": {"type": "Point", "coordinates": [11.995107, 57.697923]}, "properties": {"bikes": 0, "stands": 30, "name": "LISEBERG STATION", "status": "CLOSED", "lon": 11.995107, "lat": 57.697923, "update": "2016-02-08T21:00:32", "address": "Liseberg Station"}}, {"type": "Feature", "geometry": {"type": "Point", "coordinates": [11.987908, 57.700094]}, "properties": {"bikes": 0, "stands": 30, "name": "SCANDINAVIUM", "status": "CLOSED", "lon": 11.987908, "lat": 57.700094, "update": "2016-02-08T20:59:30", "address": "Scandinavium"}}, {"type": "Feature", "geometry": {"type": "Point", "coordinates": [11.947047, 57.689983]}, "properties": {"bikes": 0, "stands": 25, "name": "SLOTTSKOGEN/PLIKTA", "status": "CLOSED", "lon": 11.947047, "lat": 57.689983, "update": "2016-02-08T21:06:16", "address": "Slottskogen/Plikta"}}, {"type": "Feature", "geometry": {"type": "Point", "coordinates": [11.967502, 57.707233]}, "properties": {"bikes": 0, "stands": 40, "name": "GUSTAF ADOLFS TORG", "status": "CLOSED", "lon": 11.967502, "lat": 57.707233, "update": "2016-02-08T21:04:19", "address": "Gustaf Adolfs Torg"}}, {"type": "Feature", "geometry": {"type": "Point", "coordinates": [11.972077, 57.704263]}, "properties": {"bikes": 0, "stands": 20, "name": "BASTIONSPLATSEN", "status": "CLOSED", "lon": 11.972077, "lat": 57.704263, "update": "2016-02-08T21:05:03", "address": "Bastionsplatsen"}}, {"type": "Feature", "geometry": {"type": "Point", "coordinates": [11.983638, 57.707048]}, "properties": {"bikes": 0, "stands": 25, "name": "ULLEVIGATAN", "status": "CLOSED", "lon": 11.983638, "lat": 57.707048, "update": "2016-02-08T21:07:33", "address": "Ullevigatan"}}, {"type": "Feature", "geometry": {"type": "Point", "coordinates": [11.97472, 57.716378]}, "properties": {"bikes": 0, "stands": 40, "name": "GULLBERGSVASS", "status": "CLOSED", "lon": 11.97472, "lat": 57.716378, "update": "2016-02-08T21:02:38", "address": "Gullbergsvass"}}, {"type": "Feature", "geometry": {"type": "Point", "coordinates": [11.968013, 57.713496]}, "properties": {"bikes": 0, "stands": 29, "name": "L\u00c4PPSTIFTET", "status": "CLOSED", "lon": 11.968013, "lat": 57.713496, "update": "2016-02-08T21:03:02", "address": "L\u00e4ppstiftet"}}, {"type": "Feature", "geometry": {"type": "Point", "coordinates": [11.98661, 57.69312]}, "properties": {"bikes": 0, "stands": 20, "name": "CARLANDERSPLATSEN", "status": "CLOSED", "lon": 11.98661, "lat": 57.69312, "update": "2016-02-08T21:06:56", "address": "Carlanderplatsen"}}, {"type": "Feature", "geometry": {"type": "Point", "coordinates": [11.959101, 57.706767]}, "properties": {"bikes": 0, "stands": 20, "name": "PACKHUSPLATSEN", "status": "CLOSED", "lon": 11.959101, "lat": 57.706767, "update": "2016-02-08T21:01:56", "address": "Packhusplatsen"}}, {"type": "Feature", "geometry": {"type": "Point", "coordinates": [11.98854, 57.69032]}, "properties": {"bikes": 0, "stands": 20, "name": "EKLANDA/UTLANDAGATAN", "status": "CLOSED", "lon": 11.98854, "lat": 57.69032, "update": "2016-02-08T21:04:12", "address": "Eklanda/Utlandagatan"}}, {"type": "Feature", "geometry": {"type": "Point", "coordinates": [11.95165, 57.690278]}, "properties": {"bikes": 0, "stands": 20, "name": "LINN\u00c9PLATSEN", "status": "CLOSED", "lon": 11.95165, "lat": 57.690278, "update": "2016-02-08T21:08:30", "address": "Linn\u00e9platsen"}}, {"type": "Feature", "geometry": {"type": "Point", "coordinates": [11.97199, 57.69358]}, "properties": {"bikes": 0, "stands": 28, "name": "KAPELLPLATSEN", "status": "CLOSED", "lon": 11.97199, "lat": 57.69358, "update": "2016-02-08T21:01:39", "address": "Kapellplatsen"}}, {"type": "Feature", "geometry": {"type": "Point", "coordinates": [11.961987, 57.694554]}, "properties": {"bikes": 0, "stands": 20, "name": "F\u00d6RENINGSGATAN", "status": "CLOSED", "lon": 11.961987, "lat": 57.694554, "update": "2016-02-08T21:01:21", "address": "F\u00f6reningsgatan"}}, {"type": "Feature", "geometry": {"type": "Point", "coordinates": [11.951009, 57.696837]}, "properties": {"bikes": 0, "stands": 20, "name": "HAGABION", "status": "CLOSED", "lon": 11.951009, "lat": 57.696837, "update": "2016-02-08T21:03:34", "address": "Hagabion"}}, {"type": "Feature", "geometry": {"type": "Point", "coordinates": [11.98798, 57.71119]}, "properties": {"bikes": 0, "stands": 20, "name": "ALSTR\u00d6MER/FRIGGAGATAN", "status": "CLOSED", "lon": 11.98798, "lat": 57.71119, "update": "2016-02-08T21:03:35", "address": "Alstr\u00f6mer/Friggagatan"}}, {"type": "Feature", "geometry": {"type": "Point", "coordinates": [11.990553, 57.712435]}, "properties": {"bikes": 0, "stands": 20, "name": "SVINGELN", "status": "CLOSED", "lon": 11.990553, "lat": 57.712435, "update": "2016-02-08T21:01:41", "address": "Svingeln"}}, {"type": "Feature", "geometry": {"type": "Point", "coordinates": [11.960571, 57.700685]}, "properties": {"bikes": 0, "stands": 20, "name": "ROSENLUNDSPLATSEN", "status": "CLOSED", "lon": 11.960571, "lat": 57.700685, "update": "2016-02-08T21:02:41", "address": "Rosenlundsplatsen"}}, {"type": "Feature", "geometry": {"type": "Point", "coordinates": [11.98021, 57.702955]}, "properties": {"bikes": 0, "stands": 30, "name": "HEDEN/STENSTUREGATAN", "status": "CLOSED", "lon": 11.98021, "lat": 57.702955, "update": "2016-02-08T21:05:48", "address": "Heden/Stensturegatan"}}, {"type": "Feature", "geometry": {"type": "Point", "coordinates": [11.99039, 57.70701]}, "properties": {"bikes": 0, "stands": 20, "name": "D\u00c4MMEPLATSEN", "status": "CLOSED", "lon": 11.99039, "lat": 57.70701, "update": "2016-02-08T21:07:09", "address": "D\u00e4mmeplatsen"}}, {"type": "Feature", "geometry": {"type": "Point", "coordinates": [11.972737, 57.708074]}, "properties": {"bikes": 0, "stands": 20, "name": "DROTTNINGTORGET", "status": "CLOSED", "lon": 11.972737, "lat": 57.708074, "update": "2016-02-08T21:02:04", "address": "Drottningtorget"}}, {"type": "Feature", "geometry": {"type": "Point", "coordinates": [11.941861, 57.699415]}, "properties": {"bikes": 0, "stands": 40, "name": "MASTHUGGSTORGET", "status": "CLOSED", "lon": 11.941861, "lat": 57.699415, "update": "2016-02-08T21:03:09", "address": "Masthuggstorget"}}, {"type": "Feature", "geometry": {"type": "Point", "coordinates": [11.98096, 57.69794]}, "properties": {"bikes": 0, "stands": 20, "name": "BERZELIIGATAN", "status": "CLOSED", "lon": 11.98096, "lat": 57.69794, "update": "2016-02-08T21:05:14", "address": "Berzeliigatan"}}, {"type": "Feature", "geometry": {"type": "Point", "coordinates": [11.952395, 57.702301]}, "properties": {"bikes": 0, "stands": 30, "name": "ROSENLUND/F\u00c4RJEL\u00c4GET", "status": "CLOSED", "lon": 11.952395, "lat": 57.702301, "update": "2016-02-08T21:02:42", "address": "Rosenlund/F\u00e4rgel\u00e4get"}}, {"type": "Feature", "geometry": {"type": "Point", "coordinates": [11.965179, 57.702459]}, "properties": {"bikes": 0, "stands": 25, "name": "GR\u00d6NSAKSTORGET", "status": "CLOSED", "lon": 11.965179, "lat": 57.702459, "update": "2016-02-08T21:02:40", "address": "Gr\u00f6nsakstorget"}}, {"type": "Feature", "geometry": {"type": "Point", "coordinates": [11.946097, 57.699968]}, "properties": {"bikes": 0, "stands": 23, "name": "F\u00d6RSTAL\u00c5NG/V\u00c4RMLANDSGATAN", "status": "CLOSED", "lon": 11.946097, "lat": 57.699968, "update": "2016-02-08T21:02:50", "address": "F\u00f6rstal\u00e5ng/V\u00e4rmlandsgatan"}}, {"type": "Feature", "geometry": {"type": "Point", "coordinates": [11.985035, 57.702135]}, "properties": {"bikes": 0, "stands": 20, "name": "BERGAKUNGEN", "status": "CLOSED", "lon": 11.985035, "lat": 57.702135, "update": "2016-02-08T21:04:28", "address": "Bergakungen"}}, {"type": "Feature", "geometry": {"type": "Point", "coordinates": [11.971552, 57.702482]}, "properties": {"bikes": 0, "stands": 40, "name": "STORAN", "status": "CLOSED", "lon": 11.971552, "lat": 57.702482, "update": "2016-02-08T21:01:19", "address": "Storan"}}, {"type": "Feature", "geometry": {"type": "Point", "coordinates": [11.952905, 57.697821]}, "properties": {"bikes": 0, "stands": 20, "name": "FRIG\u00c5NGSGATAN", "status": "CLOSED", "lon": 11.952905, "lat": 57.697821, "update": "2016-02-08T21:08:43", "address": "Frig\u00e5ngsgatan"}}, {"type": "Feature", "geometry": {"type": "Point", "coordinates": [11.955692, 57.693029]}, "properties": {"bikes": 0, "stands": 20, "name": "KASTELLGATAN", "status": "CLOSED", "lon": 11.955692, "lat": 57.693029, "update": "2016-02-08T21:04:01", "address": "Kastellgatan"}}, {"type": "Feature", "geometry": {"type": "Point", "coordinates": [11.966574, 57.711547]}, "properties": {"bikes": 0, "stands": 20, "name": "LILLA BOMMEN", "status": "CLOSED", "lon": 11.966574, "lat": 57.711547, "update": "2016-02-08T21:01:39", "address": "Lilla Bommen"}}, {"type": "Feature", "geometry": {"type": "Point", "coordinates": [11.9766, 57.701419]}, "properties": {"bikes": 0, "stands": 25, "name": "VASAGATAN/HEDEN", "status": "CLOSED", "lon": 11.9766, "lat": 57.701419, "update": "2016-02-08T21:03:59", "address": "Vasagatan/Heden"}}, {"type": "Feature", "geometry": {"type": "Point", "coordinates": [11.976117, 57.707647]}, "properties": {"bikes": 0, "stands": 20, "name": "POSTHUSET/\u00c5KAREPLATSEN", "status": "CLOSED", "lon": 11.976117, "lat": 57.707647, "update": "2016-02-08T21:07:48", "address": "Posthuset/\u00c5kareplatsen"}}, {"type": "Feature", "geometry": {"type": "Point", "coordinates": [11.958548, 57.695909]}, "properties": {"bikes": 0, "stands": 30, "name": "SKANSTORGET", "status": "CLOSED", "lon": 11.958548, "lat": 57.695909, "update": "2016-02-08T21:02:47", "address": "Skanstorget"}}, {"type": "Feature", "geometry": {"type": "Point", "coordinates": [11.962405, 57.697984]}, "properties": {"bikes": 0, "stands": 25, "name": "HAGAPARKEN", "status": "CLOSED", "lon": 11.962405, "lat": 57.697984, "update": "2016-02-08T21:05:13", "address": "Hagaparken"}}, {"type": "Feature", "geometry": {"type": "Point", "coordinates": [11.97694, 57.69841]}, "properties": {"bikes": 0, "stands": 15, "name": "ENGELBREKTSGATAN", "status": "CLOSED", "lon": 11.97694, "lat": 57.69841, "update": "2016-02-08T21:03:04", "address": "Engelbrektsgatan"}}, {"type": "Feature", "geometry": {"type": "Point", "coordinates": [11.992191, 57.701249]}, "properties": {"bikes": 0, "stands": 20, "name": "\u00c5V\u00c4GEN", "status": "CLOSED", "lon": 11.992191, "lat": 57.701249, "update": "2016-02-08T21:04:03", "address": "\u00c5v\u00e4gen"}}, {"type": "Feature", "geometry": {"type": "Point", "coordinates": [11.946208, 57.698261]}, "properties": {"bikes": 0, "stands": 25, "name": "TREDJEL\u00c5NG/V\u00c4RMLANDSGATAN", "status": "CLOSED", "lon": 11.946208, "lat": 57.698261, "update": "2016-02-08T21:02:37", "address": "Tredjel\u00e5ng/V\u00e4rmlandsgatan"}}, {"type": "Feature", "geometry": {"type": "Point", "coordinates": [11.979867, 57.699941]}, "properties": {"bikes": 0, "stands": 20, "name": "HEDEN SYD", "status": "CLOSED", "lon": 11.979867, "lat": 57.699941, "update": "2016-02-08T21:01:09", "address": "Heden Syd"}}, {"type": "Feature", "geometry": {"type": "Point", "coordinates": [11.98322, 57.68542]}, "properties": {"bikes": 0, "stands": 40, "name": "GIBRALTARG/EKLANDAG", "status": "CLOSED", "lon": 11.98322, "lat": 57.68542, "update": "2016-02-08T21:05:08", "address": "Gibraltargatan/Eklandagatan"}}, {"type": "Feature", "geometry": {"type": "Point", "coordinates": [11.985703, 57.696916]}, "properties": {"bikes": 0, "stands": 32, "name": "KORSV\u00c4GEN /S\u00d6DRA V\u00c4GEN", "status": "CLOSED", "lon": 11.985703, "lat": 57.696916, "update": "2016-02-08T21:02:58", "address": "Korsv\u00e4gen 1/S\u00f6dra V\u00e4gen"}}, {"type": "Feature", "geometry": {"type": "Point", "coordinates": [11.97234, 57.69691]}, "properties": {"bikes": 0, "stands": 20, "name": "MOLINSGATAN", "status": "CLOSED", "lon": 11.97234, "lat": 57.69691, "update": "2016-02-04T05:07:53", "address": "Molinsgatan"}}, {"type": "Feature", "geometry": {"type": "Point", "coordinates": [11.970787, 57.709752]}, "properties": {"bikes": 0, "stands": 35, "name": "NILS-ERICSSON TERMINALEN", "status": "CLOSED", "lon": 11.970787, "lat": 57.709752, "update": "2016-02-08T21:05:33", "address": "Nils-Ericsson Terminalen"}}, {"type": "Feature", "geometry": {"type": "Point", "coordinates": [11.967115, 57.698265]}, "properties": {"bikes": 0, "stands": 25, "name": "VASAGATAN/SCHILLERSKA", "status": "CLOSED", "lon": 11.967115, "lat": 57.698265, "update": "2016-02-08T21:06:46", "address": "Vasagatan/Schillerska"}}]}