{"features": [{"properties": {"bikes": 0, "lon": 11.97305, "name": "CHALMERSPLATSEN", "stands": 50, "status": "CLOSED", "address": "Chalmersplatsen", "update": "2016-02-08T20:22:01", "lat": 57.68979}, "geometry": {"type": "Point", "coordinates": [11.97305, 57.68979]}, "type": "Feature"}, {"properties": {"bikes": 0, "lon": 11.97974, "name": "CHALMERS TV\u00c4RGATA", "stands": 20, "status": "CLOSED", "address": "Chalmers Tv\u00e4rgata", "update": "2016-02-08T20:21:54", "lat": 57.68953}, "geometry": {"type": "Point", "coordinates": [11.97974, 57.68953]}, "type": "Feature"}, {"properties": {"bikes": 0, "lon": 11.968875, "name": "KUNGSTORGET", "stands": 20, "status": "CLOSED", "address": "Kungstorget", "update": "2016-02-08T20:22:30", "lat": 57.702542}, "geometry": {"type": "Point", "coordinates": [11.968875, 57.702542]}, "type": "Feature"}, {"properties": {"bikes": 0, "lon": 11.963926, "name": "POSTGATAN", "stands": 20, "status": "CLOSED", "address": "Postgatan", "update": "2016-02-08T20:23:15", "lat": 57.707476}, "geometry": {"type": "Point", "coordinates": [11.963926, 57.707476]}, "type": "Feature"}, {"properties": {"bikes": 0, "lon": 11.969008, "name": "\u00d6STRA HAMNGATAN", "stands": 27, "status": "CLOSED", "address": "\u00d6stra hamngatan", "update": "2016-02-08T20:22:34", "lat": 57.704639}, "geometry": {"type": "Point", "coordinates": [11.969008, 57.704639]}, "type": "Feature"}, {"properties": {"bikes": 0, "lon": 11.984298, "name": "BOHUSGATAN", "stands": 20, "status": "CLOSED", "address": "Bohusgatan", "update": "2016-02-08T20:28:52", "lat": 57.70452}, "geometry": {"type": "Point", "coordinates": [11.984298, 57.70452]}, "type": "Feature"}, {"properties": {"bikes": 0, "lon": 11.958559, "name": "BRUNNSGATAN", "stands": 20, "status": "CLOSED", "address": "Brunnsgatan", "update": "2016-02-08T20:26:25", "lat": 57.693517}, "geometry": {"type": "Point", "coordinates": [11.958559, 57.693517]}, "type": "Feature"}, {"properties": {"bikes": 0, "lon": 11.95364, "name": "OLOF PALMES PLATS", "stands": 31, "status": "CLOSED", "address": "Olof Palmes Plats", "update": "2016-02-08T20:23:56", "lat": 57.700662}, "geometry": {"type": "Point", "coordinates": [11.95364, 57.700662]}, "type": "Feature"}, {"properties": {"bikes": 0, "lon": 11.97451, "name": "L\u00c4RAREGATAN/MOLINSGATAN", "stands": 40, "status": "CLOSED", "address": "L\u00e4raregatan/Molinsgatan", "update": "2016-02-08T20:25:32", "lat": 57.69418}, "geometry": {"type": "Point", "coordinates": [11.97451, 57.69418]}, "type": "Feature"}, {"properties": {"bikes": 0, "lon": 11.992441, "name": "G\u00c5RDATORGET", "stands": 20, "status": "CLOSED", "address": "G\u00e5rdatorget", "update": "2016-02-08T20:20:48", "lat": 57.704675}, "geometry": {"type": "Point", "coordinates": [11.992441, 57.704675]}, "type": "Feature"}, {"properties": {"bikes": 0, "lon": 11.973429, "name": "VALAND", "stands": 20, "status": "CLOSED", "address": "Valand", "update": "2016-02-08T20:30:15", "lat": 57.700324}, "geometry": {"type": "Point", "coordinates": [11.973429, 57.700324]}, "type": "Feature"}, {"properties": {"bikes": 0, "lon": 11.9806, "name": "KRUTHUSGATAN", "stands": 20, "status": "CLOSED", "address": "Kruthusgatan", "update": "2016-02-08T20:22:11", "lat": 57.71185}, "geometry": {"type": "Point", "coordinates": [11.9806, 57.71185]}, "type": "Feature"}, {"properties": {"bikes": 0, "lon": 11.976176, "name": "KRISTINELUNDSGATAN", "stands": 25, "status": "CLOSED", "address": "Kristinelundsgatan", "update": "2016-02-08T20:23:06", "lat": 57.699939}, "geometry": {"type": "Point", "coordinates": [11.976176, 57.699939]}, "type": "Feature"}, {"properties": {"bikes": 0, "lon": 11.96012, "name": "KUNGSGATAN/TELEKASERN", "stands": 20, "status": "CLOSED", "address": "Kungsgatan/Telekasern", "update": "2016-02-08T20:22:37", "lat": 57.70337}, "geometry": {"type": "Point", "coordinates": [11.96012, 57.70337]}, "type": "Feature"}, {"properties": {"bikes": 0, "lon": 11.96388, "name": "DOMKYRKAN", "stands": 8, "status": "CLOSED", "address": "Domkyrkan", "update": "2016-01-20T23:24:43", "lat": 57.70434}, "geometry": {"type": "Point", "coordinates": [11.96388, 57.70434]}, "type": "Feature"}, {"properties": {"bikes": 0, "lon": 11.966421, "name": "KANALTORGET", "stands": 25, "status": "CLOSED", "address": "Kanaltorget", "update": "2016-02-08T20:29:46", "lat": 57.710396}, "geometry": {"type": "Point", "coordinates": [11.966421, 57.710396]}, "type": "Feature"}, {"properties": {"bikes": 0, "lon": 11.98472, "name": "FOLKUNGAGATAN", "stands": 20, "status": "CLOSED", "address": "Folkungagatan", "update": "2016-02-08T20:21:56", "lat": 57.70884}, "geometry": {"type": "Point", "coordinates": [11.98472, 57.70884]}, "type": "Feature"}, {"properties": {"bikes": 0, "lon": 11.973347, "name": "KILSGATAN", "stands": 23, "status": "CLOSED", "address": "Kilsgatan", "update": "2016-02-08T20:22:17", "lat": 57.713714}, "geometry": {"type": "Point", "coordinates": [11.973347, 57.713714]}, "type": "Feature"}, {"properties": {"bikes": 0, "lon": 11.956468, "name": "KAPONJ\u00c4RSGATAN", "stands": 25, "status": "CLOSED", "address": "Kaponj\u00e4rsgatan", "update": "2016-02-08T20:22:29", "lat": 57.698949}, "geometry": {"type": "Point", "coordinates": [11.956468, 57.698949]}, "type": "Feature"}, {"properties": {"bikes": 0, "lon": 11.990748, "name": "\u00c5V\u00c4GEN NORRA", "stands": 31, "status": "CLOSED", "address": "\u00c5v\u00e4gen Norra", "update": "2016-02-08T20:20:57", "lat": 57.704535}, "geometry": {"type": "Point", "coordinates": [11.990748, 57.704535]}, "type": "Feature"}, {"properties": {"bikes": 0, "lon": 11.973448, "name": "SLUSSPLATSEN", "stands": 20, "status": "CLOSED", "address": "Slussplatsen", "update": "2016-02-08T20:25:56", "lat": 57.707316}, "geometry": {"type": "Point", "coordinates": [11.973448, 57.707316]}, "type": "Feature"}, {"properties": {"bikes": 0, "lon": 11.987833, "name": "KORSV\u00c4GEN", "stands": 25, "status": "CLOSED", "address": "Korsv\u00e4gen 2", "update": "2016-02-08T20:24:04", "lat": 57.696555}, "geometry": {"type": "Point", "coordinates": [11.987833, 57.696555]}, "type": "Feature"}, {"properties": {"bikes": 0, "lon": 11.955461, "name": "ESPERANTOPLATSEN", "stands": 27, "status": "CLOSED", "address": "008_ESPERANTOPLATSEN", "update": "2016-02-08T20:29:05", "lat": 57.702793}, "geometry": {"type": "Point", "coordinates": [11.955461, 57.702793]}, "type": "Feature"}, {"properties": {"bikes": 0, "lon": 11.995107, "name": "LISEBERG STATION", "stands": 30, "status": "CLOSED", "address": "Liseberg Station", "update": "2016-02-08T20:30:23", "lat": 57.697923}, "geometry": {"type": "Point", "coordinates": [11.995107, 57.697923]}, "type": "Feature"}, {"properties": {"bikes": 0, "lon": 11.987908, "name": "SCANDINAVIUM", "stands": 30, "status": "CLOSED", "address": "Scandinavium", "update": "2016-02-08T20:29:16", "lat": 57.700094}, "geometry": {"type": "Point", "coordinates": [11.987908, 57.700094]}, "type": "Feature"}, {"properties": {"bikes": 0, "lon": 11.947047, "name": "SLOTTSKOGEN/PLIKTA", "stands": 25, "status": "CLOSED", "address": "Slottskogen/Plikta", "update": "2016-02-08T20:26:00", "lat": 57.689983}, "geometry": {"type": "Point", "coordinates": [11.947047, 57.689983]}, "type": "Feature"}, {"properties": {"bikes": 0, "lon": 11.967502, "name": "GUSTAF ADOLFS TORG", "stands": 40, "status": "CLOSED", "address": "Gustaf Adolfs Torg", "update": "2016-02-08T20:23:59", "lat": 57.707233}, "geometry": {"type": "Point", "coordinates": [11.967502, 57.707233]}, "type": "Feature"}, {"properties": {"bikes": 0, "lon": 11.972077, "name": "BASTIONSPLATSEN", "stands": 20, "status": "CLOSED", "address": "Bastionsplatsen", "update": "2016-02-08T20:24:45", "lat": 57.704263}, "geometry": {"type": "Point", "coordinates": [11.972077, 57.704263]}, "type": "Feature"}, {"properties": {"bikes": 0, "lon": 11.983638, "name": "ULLEVIGATAN", "stands": 25, "status": "CLOSED", "address": "Ullevigatan", "update": "2016-02-08T20:27:13", "lat": 57.707048}, "geometry": {"type": "Point", "coordinates": [11.983638, 57.707048]}, "type": "Feature"}, {"properties": {"bikes": 0, "lon": 11.97472, "name": "GULLBERGSVASS", "stands": 40, "status": "CLOSED", "address": "Gullbergsvass", "update": "2016-02-08T20:22:19", "lat": 57.716378}, "geometry": {"type": "Point", "coordinates": [11.97472, 57.716378]}, "type": "Feature"}, {"properties": {"bikes": 0, "lon": 11.968013, "name": "L\u00c4PPSTIFTET", "stands": 29, "status": "CLOSED", "address": "L\u00e4ppstiftet", "update": "2016-02-08T20:22:42", "lat": 57.713496}, "geometry": {"type": "Point", "coordinates": [11.968013, 57.713496]}, "type": "Feature"}, {"properties": {"bikes": 0, "lon": 11.98661, "name": "CARLANDERSPLATSEN", "stands": 20, "status": "CLOSED", "address": "Carlanderplatsen", "update": "2016-02-08T20:26:38", "lat": 57.69312}, "geometry": {"type": "Point", "coordinates": [11.98661, 57.69312]}, "type": "Feature"}, {"properties": {"bikes": 0, "lon": 11.959101, "name": "PACKHUSPLATSEN", "stands": 20, "status": "CLOSED", "address": "Packhusplatsen", "update": "2016-02-08T20:21:37", "lat": 57.706767}, "geometry": {"type": "Point", "coordinates": [11.959101, 57.706767]}, "type": "Feature"}, {"properties": {"bikes": 0, "lon": 11.98854, "name": "EKLANDA/UTLANDAGATAN", "stands": 20, "status": "CLOSED", "address": "Eklanda/Utlandagatan", "update": "2016-02-08T20:23:53", "lat": 57.69032}, "geometry": {"type": "Point", "coordinates": [11.98854, 57.69032]}, "type": "Feature"}, {"properties": {"bikes": 0, "lon": 11.95165, "name": "LINN\u00c9PLATSEN", "stands": 20, "status": "CLOSED", "address": "Linn\u00e9platsen", "update": "2016-02-08T20:28:12", "lat": 57.690278}, "geometry": {"type": "Point", "coordinates": [11.95165, 57.690278]}, "type": "Feature"}, {"properties": {"bikes": 0, "lon": 11.97199, "name": "KAPELLPLATSEN", "stands": 28, "status": "CLOSED", "address": "Kapellplatsen", "update": "2016-02-08T20:21:21", "lat": 57.69358}, "geometry": {"type": "Point", "coordinates": [11.97199, 57.69358]}, "type": "Feature"}, {"properties": {"bikes": 0, "lon": 11.961987, "name": "F\u00d6RENINGSGATAN", "stands": 20, "status": "CLOSED", "address": "F\u00f6reningsgatan", "update": "2016-02-08T20:21:02", "lat": 57.694554}, "geometry": {"type": "Point", "coordinates": [11.961987, 57.694554]}, "type": "Feature"}, {"properties": {"bikes": 0, "lon": 11.951009, "name": "HAGABION", "stands": 20, "status": "CLOSED", "address": "Hagabion", "update": "2016-02-08T20:23:16", "lat": 57.696837}, "geometry": {"type": "Point", "coordinates": [11.951009, 57.696837]}, "type": "Feature"}, {"properties": {"bikes": 0, "lon": 11.98798, "name": "ALSTR\u00d6MER/FRIGGAGATAN", "stands": 20, "status": "CLOSED", "address": "Alstr\u00f6mer/Friggagatan", "update": "2016-02-08T20:23:16", "lat": 57.71119}, "geometry": {"type": "Point", "coordinates": [11.98798, 57.71119]}, "type": "Feature"}, {"properties": {"bikes": 0, "lon": 11.990553, "name": "SVINGELN", "stands": 20, "status": "CLOSED", "address": "Svingeln", "update": "2016-02-08T20:21:20", "lat": 57.712435}, "geometry": {"type": "Point", "coordinates": [11.990553, 57.712435]}, "type": "Feature"}, {"properties": {"bikes": 0, "lon": 11.960571, "name": "ROSENLUNDSPLATSEN", "stands": 20, "status": "CLOSED", "address": "Rosenlundsplatsen", "update": "2016-02-08T20:22:22", "lat": 57.700685}, "geometry": {"type": "Point", "coordinates": [11.960571, 57.700685]}, "type": "Feature"}, {"properties": {"bikes": 0, "lon": 11.98021, "name": "HEDEN/STENSTUREGATAN", "stands": 30, "status": "CLOSED", "address": "Heden/Stensturegatan", "update": "2016-02-08T20:25:29", "lat": 57.702955}, "geometry": {"type": "Point", "coordinates": [11.98021, 57.702955]}, "type": "Feature"}, {"properties": {"bikes": 0, "lon": 11.99039, "name": "D\u00c4MMEPLATSEN", "stands": 20, "status": "CLOSED", "address": "D\u00e4mmeplatsen", "update": "2016-02-08T20:29:21", "lat": 57.70701}, "geometry": {"type": "Point", "coordinates": [11.99039, 57.70701]}, "type": "Feature"}, {"properties": {"bikes": 0, "lon": 11.972737, "name": "DROTTNINGTORGET", "stands": 20, "status": "CLOSED", "address": "Drottningtorget", "update": "2016-02-08T20:21:43", "lat": 57.708074}, "geometry": {"type": "Point", "coordinates": [11.972737, 57.708074]}, "type": "Feature"}, {"properties": {"bikes": 0, "lon": 11.941861, "name": "MASTHUGGSTORGET", "stands": 40, "status": "CLOSED", "address": "Masthuggstorget", "update": "2016-02-08T20:22:51", "lat": 57.699415}, "geometry": {"type": "Point", "coordinates": [11.941861, 57.699415]}, "type": "Feature"}, {"properties": {"bikes": 0, "lon": 11.98096, "name": "BERZELIIGATAN", "stands": 20, "status": "CLOSED", "address": "Berzeliigatan", "update": "2016-02-08T20:24:55", "lat": 57.69794}, "geometry": {"type": "Point", "coordinates": [11.98096, 57.69794]}, "type": "Feature"}, {"properties": {"bikes": 0, "lon": 11.952395, "name": "ROSENLUND/F\u00c4RJEL\u00c4GET", "stands": 30, "status": "CLOSED", "address": "Rosenlund/F\u00e4rgel\u00e4get", "update": "2016-02-08T20:22:22", "lat": 57.702301}, "geometry": {"type": "Point", "coordinates": [11.952395, 57.702301]}, "type": "Feature"}, {"properties": {"bikes": 0, "lon": 11.965179, "name": "GR\u00d6NSAKSTORGET", "stands": 25, "status": "CLOSED", "address": "Gr\u00f6nsakstorget", "update": "2016-02-08T20:22:19", "lat": 57.702459}, "geometry": {"type": "Point", "coordinates": [11.965179, 57.702459]}, "type": "Feature"}, {"properties": {"bikes": 0, "lon": 11.946097, "name": "F\u00d6RSTAL\u00c5NG/V\u00c4RMLANDSGATAN", "stands": 23, "status": "CLOSED", "address": "F\u00f6rstal\u00e5ng/V\u00e4rmlandsgatan", "update": "2016-02-08T20:22:31", "lat": 57.699968}, "geometry": {"type": "Point", "coordinates": [11.946097, 57.699968]}, "type": "Feature"}, {"properties": {"bikes": 0, "lon": 11.985035, "name": "BERGAKUNGEN", "stands": 20, "status": "CLOSED", "address": "Bergakungen", "update": "2016-02-08T20:24:09", "lat": 57.702135}, "geometry": {"type": "Point", "coordinates": [11.985035, 57.702135]}, "type": "Feature"}, {"properties": {"bikes": 0, "lon": 11.971552, "name": "STORAN", "stands": 40, "status": "CLOSED", "address": "Storan", "update": "2016-02-08T20:21:00", "lat": 57.702482}, "geometry": {"type": "Point", "coordinates": [11.971552, 57.702482]}, "type": "Feature"}, {"properties": {"bikes": 0, "lon": 11.952905, "name": "FRIG\u00c5NGSGATAN", "stands": 20, "status": "CLOSED", "address": "Frig\u00e5ngsgatan", "update": "2016-02-08T20:28:25", "lat": 57.697821}, "geometry": {"type": "Point", "coordinates": [11.952905, 57.697821]}, "type": "Feature"}, {"properties": {"bikes": 0, "lon": 11.955692, "name": "KASTELLGATAN", "stands": 20, "status": "CLOSED", "address": "Kastellgatan", "update": "2016-02-08T20:23:42", "lat": 57.693029}, "geometry": {"type": "Point", "coordinates": [11.955692, 57.693029]}, "type": "Feature"}, {"properties": {"bikes": 0, "lon": 11.966574, "name": "LILLA BOMMEN", "stands": 20, "status": "CLOSED", "address": "Lilla Bommen", "update": "2016-02-08T20:21:19", "lat": 57.711547}, "geometry": {"type": "Point", "coordinates": [11.966574, 57.711547]}, "type": "Feature"}, {"properties": {"bikes": 0, "lon": 11.9766, "name": "VASAGATAN/HEDEN", "stands": 25, "status": "CLOSED", "address": "Vasagatan/Heden", "update": "2016-02-08T20:23:40", "lat": 57.701419}, "geometry": {"type": "Point", "coordinates": [11.9766, 57.701419]}, "type": "Feature"}, {"properties": {"bikes": 0, "lon": 11.976117, "name": "POSTHUSET/\u00c5KAREPLATSEN", "stands": 20, "status": "CLOSED", "address": "Posthuset/\u00c5kareplatsen", "update": "2016-02-08T20:27:29", "lat": 57.707647}, "geometry": {"type": "Point", "coordinates": [11.976117, 57.707647]}, "type": "Feature"}, {"properties": {"bikes": 0, "lon": 11.958548, "name": "SKANSTORGET", "stands": 30, "status": "CLOSED", "address": "Skanstorget", "update": "2016-02-08T20:22:28", "lat": 57.695909}, "geometry": {"type": "Point", "coordinates": [11.958548, 57.695909]}, "type": "Feature"}, {"properties": {"bikes": 0, "lon": 11.962405, "name": "HAGAPARKEN", "stands": 25, "status": "CLOSED", "address": "Hagaparken", "update": "2016-02-08T20:24:54", "lat": 57.697984}, "geometry": {"type": "Point", "coordinates": [11.962405, 57.697984]}, "type": "Feature"}, {"properties": {"bikes": 0, "lon": 11.97694, "name": "ENGELBREKTSGATAN", "stands": 15, "status": "CLOSED", "address": "Engelbrektsgatan", "update": "2016-02-08T20:22:44", "lat": 57.69841}, "geometry": {"type": "Point", "coordinates": [11.97694, 57.69841]}, "type": "Feature"}, {"properties": {"bikes": 0, "lon": 11.992191, "name": "\u00c5V\u00c4GEN", "stands": 20, "status": "CLOSED", "address": "\u00c5v\u00e4gen", "update": "2016-02-08T20:23:49", "lat": 57.701249}, "geometry": {"type": "Point", "coordinates": [11.992191, 57.701249]}, "type": "Feature"}, {"properties": {"bikes": 0, "lon": 11.946208, "name": "TREDJEL\u00c5NG/V\u00c4RMLANDSGATAN", "stands": 25, "status": "CLOSED", "address": "Tredjel\u00e5ng/V\u00e4rmlandsgatan", "update": "2016-02-08T20:22:18", "lat": 57.698261}, "geometry": {"type": "Point", "coordinates": [11.946208, 57.698261]}, "type": "Feature"}, {"properties": {"bikes": 0, "lon": 11.979867, "name": "HEDEN SYD", "stands": 20, "status": "CLOSED", "address": "Heden Syd", "update": "2016-02-08T20:20:50", "lat": 57.699941}, "geometry": {"type": "Point", "coordinates": [11.979867, 57.699941]}, "type": "Feature"}, {"properties": {"bikes": 0, "lon": 11.98322, "name": "GIBRALTARG/EKLANDAG", "stands": 40, "status": "CLOSED", "address": "Gibraltargatan/Eklandagatan", "update": "2016-02-08T20:24:49", "lat": 57.68542}, "geometry": {"type": "Point", "coordinates": [11.98322, 57.68542]}, "type": "Feature"}, {"properties": {"bikes": 0, "lon": 11.985703, "name": "KORSV\u00c4GEN /S\u00d6DRA V\u00c4GEN", "stands": 32, "status": "CLOSED", "address": "Korsv\u00e4gen 1/S\u00f6dra V\u00e4gen", "update": "2016-02-08T20:22:39", "lat": 57.696916}, "geometry": {"type": "Point", "coordinates": [11.985703, 57.696916]}, "type": "Feature"}, {"properties": {"bikes": 0, "lon": 11.97234, "name": "MOLINSGATAN", "stands": 20, "status": "CLOSED", "address": "Molinsgatan", "update": "2016-02-04T05:07:53", "lat": 57.69691}, "geometry": {"type": "Point", "coordinates": [11.97234, 57.69691]}, "type": "Feature"}, {"properties": {"bikes": 0, "lon": 11.970787, "name": "NILS-ERICSSON TERMINALEN", "stands": 35, "status": "CLOSED", "address": "Nils-Ericsson Terminalen", "update": "2016-02-08T20:25:09", "lat": 57.709752}, "geometry": {"type": "Point", "coordinates": [11.970787, 57.709752]}, "type": "Feature"}, {"properties": {"bikes": 0, "lon": 11.967115, "name": "VASAGATAN/SCHILLERSKA", "stands": 25, "status": "CLOSED", "address": "Vasagatan/Schillerska", "update": "2016-02-08T20:26:27", "lat": 57.698265}, "geometry": {"type": "Point", "coordinates": [11.967115, 57.698265]}, "type": "Feature"}], "type": "FeatureCollection"}