{"type": "FeatureCollection", "features": [{"geometry": {"coordinates": [11.97305, 57.68979], "type": "Point"}, "type": "Feature", "properties": {"bikes": 0, "update": "2016-02-08T21:12:24", "name": "CHALMERSPLATSEN", "address": "Chalmersplatsen", "lon": 11.97305, "status": "CLOSED", "stands": 50, "lat": 57.68979}}, {"geometry": {"coordinates": [11.97974, 57.68953], "type": "Point"}, "type": "Feature", "properties": {"bikes": 0, "update": "2016-02-08T21:12:16", "name": "CHALMERS TV\u00c4RGATA", "address": "Chalmers Tv\u00e4rgata", "lon": 11.97974, "status": "CLOSED", "stands": 20, "lat": 57.68953}}, {"geometry": {"coordinates": [11.968875, 57.702542], "type": "Point"}, "type": "Feature", "properties": {"bikes": 0, "update": "2016-02-08T21:12:52", "name": "KUNGSTORGET", "address": "Kungstorget", "lon": 11.968875, "status": "CLOSED", "stands": 20, "lat": 57.702542}}, {"geometry": {"coordinates": [11.963926, 57.707476], "type": "Point"}, "type": "Feature", "properties": {"bikes": 0, "update": "2016-02-08T21:13:39", "name": "POSTGATAN", "address": "Postgatan", "lon": 11.963926, "status": "CLOSED", "stands": 20, "lat": 57.707476}}, {"geometry": {"coordinates": [11.969008, 57.704639], "type": "Point"}, "type": "Feature", "properties": {"bikes": 0, "update": "2016-02-08T21:12:58", "name": "\u00d6STRA HAMNGATAN", "address": "\u00d6stra hamngatan", "lon": 11.969008, "status": "CLOSED", "stands": 27, "lat": 57.704639}}, {"geometry": {"coordinates": [11.984298, 57.70452], "type": "Point"}, "type": "Feature", "properties": {"bikes": 0, "update": "2016-02-08T21:09:11", "name": "BOHUSGATAN", "address": "Bohusgatan", "lon": 11.984298, "status": "CLOSED", "stands": 20, "lat": 57.70452}}, {"geometry": {"coordinates": [11.958559, 57.693517], "type": "Point"}, "type": "Feature", "properties": {"bikes": 0, "update": "2016-02-08T21:06:44", "name": "BRUNNSGATAN", "address": "Brunnsgatan", "lon": 11.958559, "status": "CLOSED", "stands": 20, "lat": 57.693517}}, {"geometry": {"coordinates": [11.95364, 57.700662], "type": "Point"}, "type": "Feature", "properties": {"bikes": 0, "update": "2016-02-08T21:14:19", "name": "OLOF PALMES PLATS", "address": "Olof Palmes Plats", "lon": 11.95364, "status": "CLOSED", "stands": 31, "lat": 57.700662}}, {"geometry": {"coordinates": [11.97451, 57.69418], "type": "Point"}, "type": "Feature", "properties": {"bikes": 0, "update": "2016-02-08T21:15:55", "name": "L\u00c4RAREGATAN/MOLINSGATAN", "address": "L\u00e4raregatan/Molinsgatan", "lon": 11.97451, "status": "CLOSED", "stands": 40, "lat": 57.69418}}, {"geometry": {"coordinates": [11.992441, 57.704675], "type": "Point"}, "type": "Feature", "properties": {"bikes": 0, "update": "2016-02-08T21:11:11", "name": "G\u00c5RDATORGET", "address": "G\u00e5rdatorget", "lon": 11.992441, "status": "CLOSED", "stands": 20, "lat": 57.704675}}, {"geometry": {"coordinates": [11.973429, 57.700324], "type": "Point"}, "type": "Feature", "properties": {"bikes": 0, "update": "2016-02-08T21:10:34", "name": "VALAND", "address": "Valand", "lon": 11.973429, "status": "CLOSED", "stands": 20, "lat": 57.700324}}, {"geometry": {"coordinates": [11.9806, 57.71185], "type": "Point"}, "type": "Feature", "properties": {"bikes": 0, "update": "2016-02-08T21:12:35", "name": "KRUTHUSGATAN", "address": "Kruthusgatan", "lon": 11.9806, "status": "CLOSED", "stands": 20, "lat": 57.71185}}, {"geometry": {"coordinates": [11.976176, 57.699939], "type": "Point"}, "type": "Feature", "properties": {"bikes": 0, "update": "2016-02-08T21:13:30", "name": "KRISTINELUNDSGATAN", "address": "Kristinelundsgatan", "lon": 11.976176, "status": "CLOSED", "stands": 25, "lat": 57.699939}}, {"geometry": {"coordinates": [11.96012, 57.70337], "type": "Point"}, "type": "Feature", "properties": {"bikes": 0, "update": "2016-02-08T21:13:00", "name": "KUNGSGATAN/TELEKASERN", "address": "Kungsgatan/Telekasern", "lon": 11.96012, "status": "CLOSED", "stands": 20, "lat": 57.70337}}, {"geometry": {"coordinates": [11.96388, 57.70434], "type": "Point"}, "type": "Feature", "properties": {"bikes": 0, "update": "2016-01-20T23:24:43", "name": "DOMKYRKAN", "address": "Domkyrkan", "lon": 11.96388, "status": "CLOSED", "stands": 8, "lat": 57.70434}}, {"geometry": {"coordinates": [11.966421, 57.710396], "type": "Point"}, "type": "Feature", "properties": {"bikes": 0, "update": "2016-02-08T21:10:05", "name": "KANALTORGET", "address": "Kanaltorget", "lon": 11.966421, "status": "CLOSED", "stands": 25, "lat": 57.710396}}, {"geometry": {"coordinates": [11.98472, 57.70884], "type": "Point"}, "type": "Feature", "properties": {"bikes": 0, "update": "2016-02-08T21:12:19", "name": "FOLKUNGAGATAN", "address": "Folkungagatan", "lon": 11.98472, "status": "CLOSED", "stands": 20, "lat": 57.70884}}, {"geometry": {"coordinates": [11.973347, 57.713714], "type": "Point"}, "type": "Feature", "properties": {"bikes": 0, "update": "2016-02-08T21:12:41", "name": "KILSGATAN", "address": "Kilsgatan", "lon": 11.973347, "status": "CLOSED", "stands": 23, "lat": 57.713714}}, {"geometry": {"coordinates": [11.956468, 57.698949], "type": "Point"}, "type": "Feature", "properties": {"bikes": 0, "update": "2016-02-08T21:12:54", "name": "KAPONJ\u00c4RSGATAN", "address": "Kaponj\u00e4rsgatan", "lon": 11.956468, "status": "CLOSED", "stands": 25, "lat": 57.698949}}, {"geometry": {"coordinates": [11.990748, 57.704535], "type": "Point"}, "type": "Feature", "properties": {"bikes": 0, "update": "2016-02-08T21:11:21", "name": "\u00c5V\u00c4GEN NORRA", "address": "\u00c5v\u00e4gen Norra", "lon": 11.990748, "status": "CLOSED", "stands": 31, "lat": 57.704535}}, {"geometry": {"coordinates": [11.973448, 57.707316], "type": "Point"}, "type": "Feature", "properties": {"bikes": 0, "update": "2016-02-08T21:16:19", "name": "SLUSSPLATSEN", "address": "Slussplatsen", "lon": 11.973448, "status": "CLOSED", "stands": 20, "lat": 57.707316}}, {"geometry": {"coordinates": [11.987833, 57.696555], "type": "Point"}, "type": "Feature", "properties": {"bikes": 0, "update": "2016-02-08T21:14:28", "name": "KORSV\u00c4GEN", "address": "Korsv\u00e4gen 2", "lon": 11.987833, "status": "CLOSED", "stands": 25, "lat": 57.696555}}, {"geometry": {"coordinates": [11.955461, 57.702793], "type": "Point"}, "type": "Feature", "properties": {"bikes": 0, "update": "2016-02-08T21:09:24", "name": "ESPERANTOPLATSEN", "address": "008_ESPERANTOPLATSEN", "lon": 11.955461, "status": "CLOSED", "stands": 27, "lat": 57.702793}}, {"geometry": {"coordinates": [11.995107, 57.697923], "type": "Point"}, "type": "Feature", "properties": {"bikes": 0, "update": "2016-02-08T21:10:35", "name": "LISEBERG STATION", "address": "Liseberg Station", "lon": 11.995107, "status": "CLOSED", "stands": 30, "lat": 57.697923}}, {"geometry": {"coordinates": [11.987908, 57.700094], "type": "Point"}, "type": "Feature", "properties": {"bikes": 0, "update": "2016-02-08T21:09:35", "name": "SCANDINAVIUM", "address": "Scandinavium", "lon": 11.987908, "status": "CLOSED", "stands": 30, "lat": 57.700094}}, {"geometry": {"coordinates": [11.947047, 57.689983], "type": "Point"}, "type": "Feature", "properties": {"bikes": 0, "update": "2016-02-08T21:16:20", "name": "SLOTTSKOGEN/PLIKTA", "address": "Slottskogen/Plikta", "lon": 11.947047, "status": "CLOSED", "stands": 25, "lat": 57.689983}}, {"geometry": {"coordinates": [11.967502, 57.707233], "type": "Point"}, "type": "Feature", "properties": {"bikes": 0, "update": "2016-02-08T21:14:24", "name": "GUSTAF ADOLFS TORG", "address": "Gustaf Adolfs Torg", "lon": 11.967502, "status": "CLOSED", "stands": 40, "lat": 57.707233}}, {"geometry": {"coordinates": [11.972077, 57.704263], "type": "Point"}, "type": "Feature", "properties": {"bikes": 0, "update": "2016-02-08T21:15:08", "name": "BASTIONSPLATSEN", "address": "Bastionsplatsen", "lon": 11.972077, "status": "CLOSED", "stands": 20, "lat": 57.704263}}, {"geometry": {"coordinates": [11.983638, 57.707048], "type": "Point"}, "type": "Feature", "properties": {"bikes": 0, "update": "2016-02-08T21:07:33", "name": "ULLEVIGATAN", "address": "Ullevigatan", "lon": 11.983638, "status": "CLOSED", "stands": 25, "lat": 57.707048}}, {"geometry": {"coordinates": [11.97472, 57.716378], "type": "Point"}, "type": "Feature", "properties": {"bikes": 0, "update": "2016-02-08T21:12:43", "name": "GULLBERGSVASS", "address": "Gullbergsvass", "lon": 11.97472, "status": "CLOSED", "stands": 40, "lat": 57.716378}}, {"geometry": {"coordinates": [11.968013, 57.713496], "type": "Point"}, "type": "Feature", "properties": {"bikes": 0, "update": "2016-02-08T21:13:07", "name": "L\u00c4PPSTIFTET", "address": "L\u00e4ppstiftet", "lon": 11.968013, "status": "CLOSED", "stands": 29, "lat": 57.713496}}, {"geometry": {"coordinates": [11.98661, 57.69312], "type": "Point"}, "type": "Feature", "properties": {"bikes": 0, "update": "2016-02-08T21:06:56", "name": "CARLANDERSPLATSEN", "address": "Carlanderplatsen", "lon": 11.98661, "status": "CLOSED", "stands": 20, "lat": 57.69312}}, {"geometry": {"coordinates": [11.959101, 57.706767], "type": "Point"}, "type": "Feature", "properties": {"bikes": 0, "update": "2016-02-08T21:12:01", "name": "PACKHUSPLATSEN", "address": "Packhusplatsen", "lon": 11.959101, "status": "CLOSED", "stands": 20, "lat": 57.706767}}, {"geometry": {"coordinates": [11.98854, 57.69032], "type": "Point"}, "type": "Feature", "properties": {"bikes": 0, "update": "2016-02-08T21:14:17", "name": "EKLANDA/UTLANDAGATAN", "address": "Eklanda/Utlandagatan", "lon": 11.98854, "status": "CLOSED", "stands": 20, "lat": 57.69032}}, {"geometry": {"coordinates": [11.95165, 57.690278], "type": "Point"}, "type": "Feature", "properties": {"bikes": 0, "update": "2016-02-08T21:08:30", "name": "LINN\u00c9PLATSEN", "address": "Linn\u00e9platsen", "lon": 11.95165, "status": "CLOSED", "stands": 20, "lat": 57.690278}}, {"geometry": {"coordinates": [11.97199, 57.69358], "type": "Point"}, "type": "Feature", "properties": {"bikes": 0, "update": "2016-02-08T21:11:44", "name": "KAPELLPLATSEN", "address": "Kapellplatsen", "lon": 11.97199, "status": "CLOSED", "stands": 28, "lat": 57.69358}}, {"geometry": {"coordinates": [11.961987, 57.694554], "type": "Point"}, "type": "Feature", "properties": {"bikes": 0, "update": "2016-02-08T21:11:26", "name": "F\u00d6RENINGSGATAN", "address": "F\u00f6reningsgatan", "lon": 11.961987, "status": "CLOSED", "stands": 20, "lat": 57.694554}}, {"geometry": {"coordinates": [11.951009, 57.696837], "type": "Point"}, "type": "Feature", "properties": {"bikes": 0, "update": "2016-02-08T21:13:39", "name": "HAGABION", "address": "Hagabion", "lon": 11.951009, "status": "CLOSED", "stands": 20, "lat": 57.696837}}, {"geometry": {"coordinates": [11.98798, 57.71119], "type": "Point"}, "type": "Feature", "properties": {"bikes": 0, "update": "2016-02-08T21:13:38", "name": "ALSTR\u00d6MER/FRIGGAGATAN", "address": "Alstr\u00f6mer/Friggagatan", "lon": 11.98798, "status": "CLOSED", "stands": 20, "lat": 57.71119}}, {"geometry": {"coordinates": [11.990553, 57.712435], "type": "Point"}, "type": "Feature", "properties": {"bikes": 0, "update": "2016-02-08T21:11:45", "name": "SVINGELN", "address": "Svingeln", "lon": 11.990553, "status": "CLOSED", "stands": 20, "lat": 57.712435}}, {"geometry": {"coordinates": [11.960571, 57.700685], "type": "Point"}, "type": "Feature", "properties": {"bikes": 0, "update": "2016-02-08T21:12:46", "name": "ROSENLUNDSPLATSEN", "address": "Rosenlundsplatsen", "lon": 11.960571, "status": "CLOSED", "stands": 20, "lat": 57.700685}}, {"geometry": {"coordinates": [11.98021, 57.702955], "type": "Point"}, "type": "Feature", "properties": {"bikes": 0, "update": "2016-02-08T21:15:53", "name": "HEDEN/STENSTUREGATAN", "address": "Heden/Stensturegatan", "lon": 11.98021, "status": "CLOSED", "stands": 30, "lat": 57.702955}}, {"geometry": {"coordinates": [11.99039, 57.70701], "type": "Point"}, "type": "Feature", "properties": {"bikes": 0, "update": "2016-02-08T21:07:09", "name": "D\u00c4MMEPLATSEN", "address": "D\u00e4mmeplatsen", "lon": 11.99039, "status": "CLOSED", "stands": 20, "lat": 57.70701}}, {"geometry": {"coordinates": [11.972737, 57.708074], "type": "Point"}, "type": "Feature", "properties": {"bikes": 0, "update": "2016-02-08T21:12:08", "name": "DROTTNINGTORGET", "address": "Drottningtorget", "lon": 11.972737, "status": "CLOSED", "stands": 20, "lat": 57.708074}}, {"geometry": {"coordinates": [11.941861, 57.699415], "type": "Point"}, "type": "Feature", "properties": {"bikes": 0, "update": "2016-02-08T21:13:14", "name": "MASTHUGGSTORGET", "address": "Masthuggstorget", "lon": 11.941861, "status": "CLOSED", "stands": 40, "lat": 57.699415}}, {"geometry": {"coordinates": [11.98096, 57.69794], "type": "Point"}, "type": "Feature", "properties": {"bikes": 0, "update": "2016-02-08T21:15:18", "name": "BERZELIIGATAN", "address": "Berzeliigatan", "lon": 11.98096, "status": "CLOSED", "stands": 20, "lat": 57.69794}}, {"geometry": {"coordinates": [11.952395, 57.702301], "type": "Point"}, "type": "Feature", "properties": {"bikes": 0, "update": "2016-02-08T21:12:47", "name": "ROSENLUND/F\u00c4RJEL\u00c4GET", "address": "Rosenlund/F\u00e4rgel\u00e4get", "lon": 11.952395, "status": "CLOSED", "stands": 30, "lat": 57.702301}}, {"geometry": {"coordinates": [11.965179, 57.702459], "type": "Point"}, "type": "Feature", "properties": {"bikes": 0, "update": "2016-02-08T21:12:45", "name": "GR\u00d6NSAKSTORGET", "address": "Gr\u00f6nsakstorget", "lon": 11.965179, "status": "CLOSED", "stands": 25, "lat": 57.702459}}, {"geometry": {"coordinates": [11.946097, 57.699968], "type": "Point"}, "type": "Feature", "properties": {"bikes": 0, "update": "2016-02-08T21:12:55", "name": "F\u00d6RSTAL\u00c5NG/V\u00c4RMLANDSGATAN", "address": "F\u00f6rstal\u00e5ng/V\u00e4rmlandsgatan", "lon": 11.946097, "status": "CLOSED", "stands": 23, "lat": 57.699968}}, {"geometry": {"coordinates": [11.985035, 57.702135], "type": "Point"}, "type": "Feature", "properties": {"bikes": 0, "update": "2016-02-08T21:14:33", "name": "BERGAKUNGEN", "address": "Bergakungen", "lon": 11.985035, "status": "CLOSED", "stands": 20, "lat": 57.702135}}, {"geometry": {"coordinates": [11.971552, 57.702482], "type": "Point"}, "type": "Feature", "properties": {"bikes": 0, "update": "2016-02-08T21:11:24", "name": "STORAN", "address": "Storan", "lon": 11.971552, "status": "CLOSED", "stands": 40, "lat": 57.702482}}, {"geometry": {"coordinates": [11.952905, 57.697821], "type": "Point"}, "type": "Feature", "properties": {"bikes": 0, "update": "2016-02-08T21:08:43", "name": "FRIG\u00c5NGSGATAN", "address": "Frig\u00e5ngsgatan", "lon": 11.952905, "status": "CLOSED", "stands": 20, "lat": 57.697821}}, {"geometry": {"coordinates": [11.955692, 57.693029], "type": "Point"}, "type": "Feature", "properties": {"bikes": 0, "update": "2016-02-08T21:14:05", "name": "KASTELLGATAN", "address": "Kastellgatan", "lon": 11.955692, "status": "CLOSED", "stands": 20, "lat": 57.693029}}, {"geometry": {"coordinates": [11.966574, 57.711547], "type": "Point"}, "type": "Feature", "properties": {"bikes": 0, "update": "2016-02-08T21:11:44", "name": "LILLA BOMMEN", "address": "Lilla Bommen", "lon": 11.966574, "status": "CLOSED", "stands": 20, "lat": 57.711547}}, {"geometry": {"coordinates": [11.9766, 57.701419], "type": "Point"}, "type": "Feature", "properties": {"bikes": 0, "update": "2016-02-08T21:14:04", "name": "VASAGATAN/HEDEN", "address": "Vasagatan/Heden", "lon": 11.9766, "status": "CLOSED", "stands": 25, "lat": 57.701419}}, {"geometry": {"coordinates": [11.976117, 57.707647], "type": "Point"}, "type": "Feature", "properties": {"bikes": 0, "update": "2016-02-08T21:07:48", "name": "POSTHUSET/\u00c5KAREPLATSEN", "address": "Posthuset/\u00c5kareplatsen", "lon": 11.976117, "status": "CLOSED", "stands": 20, "lat": 57.707647}}, {"geometry": {"coordinates": [11.958548, 57.695909], "type": "Point"}, "type": "Feature", "properties": {"bikes": 0, "update": "2016-02-08T21:12:52", "name": "SKANSTORGET", "address": "Skanstorget", "lon": 11.958548, "status": "CLOSED", "stands": 30, "lat": 57.695909}}, {"geometry": {"coordinates": [11.962405, 57.697984], "type": "Point"}, "type": "Feature", "properties": {"bikes": 0, "update": "2016-02-08T21:15:17", "name": "HAGAPARKEN", "address": "Hagaparken", "lon": 11.962405, "status": "CLOSED", "stands": 25, "lat": 57.697984}}, {"geometry": {"coordinates": [11.97694, 57.69841], "type": "Point"}, "type": "Feature", "properties": {"bikes": 0, "update": "2016-02-08T21:13:09", "name": "ENGELBREKTSGATAN", "address": "Engelbrektsgatan", "lon": 11.97694, "status": "CLOSED", "stands": 15, "lat": 57.69841}}, {"geometry": {"coordinates": [11.992191, 57.701249], "type": "Point"}, "type": "Feature", "properties": {"bikes": 0, "update": "2016-02-08T21:14:08", "name": "\u00c5V\u00c4GEN", "address": "\u00c5v\u00e4gen", "lon": 11.992191, "status": "CLOSED", "stands": 20, "lat": 57.701249}}, {"geometry": {"coordinates": [11.946208, 57.698261], "type": "Point"}, "type": "Feature", "properties": {"bikes": 0, "update": "2016-02-08T21:12:42", "name": "TREDJEL\u00c5NG/V\u00c4RMLANDSGATAN", "address": "Tredjel\u00e5ng/V\u00e4rmlandsgatan", "lon": 11.946208, "status": "CLOSED", "stands": 25, "lat": 57.698261}}, {"geometry": {"coordinates": [11.979867, 57.699941], "type": "Point"}, "type": "Feature", "properties": {"bikes": 0, "update": "2016-02-08T21:11:13", "name": "HEDEN SYD", "address": "Heden Syd", "lon": 11.979867, "status": "CLOSED", "stands": 20, "lat": 57.699941}}, {"geometry": {"coordinates": [11.98322, 57.68542], "type": "Point"}, "type": "Feature", "properties": {"bikes": 0, "update": "2016-02-08T21:15:12", "name": "GIBRALTARG/EKLANDAG", "address": "Gibraltargatan/Eklandagatan", "lon": 11.98322, "status": "CLOSED", "stands": 40, "lat": 57.68542}}, {"geometry": {"coordinates": [11.985703, 57.696916], "type": "Point"}, "type": "Feature", "properties": {"bikes": 0, "update": "2016-02-08T21:13:03", "name": "KORSV\u00c4GEN /S\u00d6DRA V\u00c4GEN", "address": "Korsv\u00e4gen 1/S\u00f6dra V\u00e4gen", "lon": 11.985703, "status": "CLOSED", "stands": 32, "lat": 57.696916}}, {"geometry": {"coordinates": [11.97234, 57.69691], "type": "Point"}, "type": "Feature", "properties": {"bikes": 0, "update": "2016-02-04T05:07:53", "name": "MOLINSGATAN", "address": "Molinsgatan", "lon": 11.97234, "status": "CLOSED", "stands": 20, "lat": 57.69691}}, {"geometry": {"coordinates": [11.970787, 57.709752], "type": "Point"}, "type": "Feature", "properties": {"bikes": 0, "update": "2016-02-08T21:15:37", "name": "NILS-ERICSSON TERMINALEN", "address": "Nils-Ericsson Terminalen", "lon": 11.970787, "status": "CLOSED", "stands": 35, "lat": 57.709752}}, {"geometry": {"coordinates": [11.967115, 57.698265], "type": "Point"}, "type": "Feature", "properties": {"bikes": 0, "update": "2016-02-08T21:06:46", "name": "VASAGATAN/SCHILLERSKA", "address": "Vasagatan/Schillerska", "lon": 11.967115, "status": "CLOSED", "stands": 25, "lat": 57.698265}}]}