{"features": [{"geometry": {"coordinates": [11.97305, 57.68979], "type": "Point"}, "properties": {"name": "CHALMERSPLATSEN", "lon": 11.97305, "status": "CLOSED", "stands": 50, "bikes": 0, "update": "2016-02-06T13:08:43", "lat": 57.68979, "address": "Chalmersplatsen"}, "type": "Feature"}, {"geometry": {"coordinates": [11.97974, 57.68953], "type": "Point"}, "properties": {"name": "CHALMERS TV\u00c4RGATA", "lon": 11.97974, "status": "CLOSED", "stands": 20, "bikes": 0, "update": "2016-02-06T13:08:00", "lat": 57.68953, "address": "Chalmers Tv\u00e4rgata"}, "type": "Feature"}, {"geometry": {"coordinates": [11.968875, 57.702542], "type": "Point"}, "properties": {"name": "KUNGSTORGET", "lon": 11.968875, "status": "CLOSED", "stands": 20, "bikes": 0, "update": "2016-02-06T13:16:26", "lat": 57.702542, "address": "Kungstorget"}, "type": "Feature"}, {"geometry": {"coordinates": [11.963926, 57.707476], "type": "Point"}, "properties": {"name": "POSTGATAN", "lon": 11.963926, "status": "CLOSED", "stands": 20, "bikes": 0, "update": "2016-02-06T13:09:14", "lat": 57.707476, "address": "Postgatan"}, "type": "Feature"}, {"geometry": {"coordinates": [11.969008, 57.704639], "type": "Point"}, "properties": {"name": "\u00d6STRA HAMNGATAN", "lon": 11.969008, "status": "CLOSED", "stands": 27, "bikes": 0, "update": "2016-02-06T13:09:18", "lat": 57.704639, "address": "\u00d6stra hamngatan"}, "type": "Feature"}, {"geometry": {"coordinates": [11.984298, 57.70452], "type": "Point"}, "properties": {"name": "BOHUSGATAN", "lon": 11.984298, "status": "CLOSED", "stands": 20, "bikes": 0, "update": "2016-02-06T13:12:30", "lat": 57.70452, "address": "Bohusgatan"}, "type": "Feature"}, {"geometry": {"coordinates": [11.958559, 57.693517], "type": "Point"}, "properties": {"name": "BRUNNSGATAN", "lon": 11.958559, "status": "CLOSED", "stands": 20, "bikes": 0, "update": "2016-02-06T13:07:46", "lat": 57.693517, "address": "Brunnsgatan"}, "type": "Feature"}, {"geometry": {"coordinates": [11.95364, 57.700662], "type": "Point"}, "properties": {"name": "OLOF PALMES PLATS", "lon": 11.95364, "status": "CLOSED", "stands": 31, "bikes": 0, "update": "2016-02-06T13:10:38", "lat": 57.700662, "address": "Olof Palmes Plats"}, "type": "Feature"}, {"geometry": {"coordinates": [11.97451, 57.69418], "type": "Point"}, "properties": {"name": "L\u00c4RAREGATAN/MOLINSGATAN", "lon": 11.97451, "status": "CLOSED", "stands": 40, "bikes": 0, "update": "2016-02-06T13:13:28", "lat": 57.69418, "address": "L\u00e4raregatan/Molinsgatan"}, "type": "Feature"}, {"geometry": {"coordinates": [11.992441, 57.704675], "type": "Point"}, "properties": {"name": "G\u00c5RDATORGET", "lon": 11.992441, "status": "CLOSED", "stands": 20, "bikes": 0, "update": "2016-02-06T13:10:25", "lat": 57.704675, "address": "G\u00e5rdatorget"}, "type": "Feature"}, {"geometry": {"coordinates": [11.973429, 57.700324], "type": "Point"}, "properties": {"name": "VALAND", "lon": 11.973429, "status": "CLOSED", "stands": 20, "bikes": 0, "update": "2016-02-06T13:15:37", "lat": 57.700324, "address": "Valand"}, "type": "Feature"}, {"geometry": {"coordinates": [11.9806, 57.71185], "type": "Point"}, "properties": {"name": "KRUTHUSGATAN", "lon": 11.9806, "status": "CLOSED", "stands": 20, "bikes": 0, "update": "2016-02-06T13:09:03", "lat": 57.71185, "address": "Kruthusgatan"}, "type": "Feature"}, {"geometry": {"coordinates": [11.976176, 57.699939], "type": "Point"}, "properties": {"name": "KRISTINELUNDSGATAN", "lon": 11.976176, "status": "CLOSED", "stands": 25, "bikes": 0, "update": "2016-02-06T13:10:44", "lat": 57.699939, "address": "Kristinelundsgatan"}, "type": "Feature"}, {"geometry": {"coordinates": [11.96012, 57.70337], "type": "Point"}, "properties": {"name": "KUNGSGATAN/TELEKASERN", "lon": 11.96012, "status": "CLOSED", "stands": 20, "bikes": 0, "update": "2016-02-06T13:09:14", "lat": 57.70337, "address": "Kungsgatan/Telekasern"}, "type": "Feature"}, {"geometry": {"coordinates": [11.96388, 57.70434], "type": "Point"}, "properties": {"name": "DOMKYRKAN", "lon": 11.96388, "status": "CLOSED", "stands": 8, "bikes": 0, "update": "2016-01-20T23:24:43", "lat": 57.70434, "address": "Domkyrkan"}, "type": "Feature"}, {"geometry": {"coordinates": [11.966421, 57.710396], "type": "Point"}, "properties": {"name": "KANALTORGET", "lon": 11.966421, "status": "CLOSED", "stands": 25, "bikes": 0, "update": "2016-02-06T13:16:25", "lat": 57.710396, "address": "Kanaltorget"}, "type": "Feature"}, {"geometry": {"coordinates": [11.98472, 57.70884], "type": "Point"}, "properties": {"name": "FOLKUNGAGATAN", "lon": 11.98472, "status": "CLOSED", "stands": 20, "bikes": 0, "update": "2016-02-06T13:07:50", "lat": 57.70884, "address": "Folkungagatan"}, "type": "Feature"}, {"geometry": {"coordinates": [11.973347, 57.713714], "type": "Point"}, "properties": {"name": "KILSGATAN", "lon": 11.973347, "status": "CLOSED", "stands": 23, "bikes": 0, "update": "2016-02-06T13:09:09", "lat": 57.713714, "address": "Kilsgatan"}, "type": "Feature"}, {"geometry": {"coordinates": [11.956468, 57.698949], "type": "Point"}, "properties": {"name": "KAPONJ\u00c4RSGATAN", "lon": 11.956468, "status": "CLOSED", "stands": 25, "bikes": 0, "update": "2016-02-06T13:08:38", "lat": 57.698949, "address": "Kaponj\u00e4rsgatan"}, "type": "Feature"}, {"geometry": {"coordinates": [11.990748, 57.704535], "type": "Point"}, "properties": {"name": "\u00c5V\u00c4GEN NORRA", "lon": 11.990748, "status": "CLOSED", "stands": 31, "bikes": 0, "update": "2016-02-06T13:08:09", "lat": 57.704535, "address": "\u00c5v\u00e4gen Norra"}, "type": "Feature"}, {"geometry": {"coordinates": [11.973448, 57.707316], "type": "Point"}, "properties": {"name": "SLUSSPLATSEN", "lon": 11.973448, "status": "CLOSED", "stands": 20, "bikes": 0, "update": "2016-02-06T13:12:56", "lat": 57.707316, "address": "Slussplatsen"}, "type": "Feature"}, {"geometry": {"coordinates": [11.987833, 57.696555], "type": "Point"}, "properties": {"name": "KORSV\u00c4GEN", "lon": 11.987833, "status": "CLOSED", "stands": 25, "bikes": 0, "update": "2016-02-06T13:13:04", "lat": 57.696555, "address": "Korsv\u00e4gen 2"}, "type": "Feature"}, {"geometry": {"coordinates": [11.955461, 57.702793], "type": "Point"}, "properties": {"name": "ESPERANTOPLATSEN", "lon": 11.955461, "status": "CLOSED", "stands": 27, "bikes": 0, "update": "2016-02-06T13:15:56", "lat": 57.702793, "address": "008_ESPERANTOPLATSEN"}, "type": "Feature"}, {"geometry": {"coordinates": [11.995107, 57.697923], "type": "Point"}, "properties": {"name": "LISEBERG STATION", "lon": 11.995107, "status": "CLOSED", "stands": 30, "bikes": 0, "update": "2016-02-06T13:07:36", "lat": 57.697923, "address": "Liseberg Station"}, "type": "Feature"}, {"geometry": {"coordinates": [11.987908, 57.700094], "type": "Point"}, "properties": {"name": "SCANDINAVIUM", "lon": 11.987908, "status": "CLOSED", "stands": 30, "bikes": 0, "update": "2016-02-06T13:14:26", "lat": 57.700094, "address": "Scandinavium"}, "type": "Feature"}, {"geometry": {"coordinates": [11.947047, 57.689983], "type": "Point"}, "properties": {"name": "SLOTTSKOGEN/PLIKTA", "lon": 11.947047, "status": "CLOSED", "stands": 25, "bikes": 0, "update": "2016-02-06T13:16:01", "lat": 57.689983, "address": "Slottskogen/Plikta"}, "type": "Feature"}, {"geometry": {"coordinates": [11.967502, 57.707233], "type": "Point"}, "properties": {"name": "GUSTAF ADOLFS TORG", "lon": 11.967502, "status": "CLOSED", "stands": 40, "bikes": 0, "update": "2016-02-06T13:10:28", "lat": 57.707233, "address": "Gustaf Adolfs Torg"}, "type": "Feature"}, {"geometry": {"coordinates": [11.972077, 57.704263], "type": "Point"}, "properties": {"name": "BASTIONSPLATSEN", "lon": 11.972077, "status": "CLOSED", "stands": 20, "bikes": 0, "update": "2016-02-06T13:12:02", "lat": 57.704263, "address": "Bastionsplatsen"}, "type": "Feature"}, {"geometry": {"coordinates": [11.983638, 57.707048], "type": "Point"}, "properties": {"name": "ULLEVIGATAN", "lon": 11.983638, "status": "CLOSED", "stands": 25, "bikes": 0, "update": "2016-02-06T13:10:05", "lat": 57.707048, "address": "Ullevigatan"}, "type": "Feature"}, {"geometry": {"coordinates": [11.97472, 57.716378], "type": "Point"}, "properties": {"name": "GULLBERGSVASS", "lon": 11.97472, "status": "CLOSED", "stands": 40, "bikes": 0, "update": "2016-02-06T13:08:48", "lat": 57.716378, "address": "Gullbergsvass"}, "type": "Feature"}, {"geometry": {"coordinates": [11.968013, 57.713496], "type": "Point"}, "properties": {"name": "L\u00c4PPSTIFTET", "lon": 11.968013, "status": "CLOSED", "stands": 29, "bikes": 0, "update": "2016-02-06T13:09:18", "lat": 57.713496, "address": "L\u00e4ppstiftet"}, "type": "Feature"}, {"geometry": {"coordinates": [11.98661, 57.69312], "type": "Point"}, "properties": {"name": "CARLANDERSPLATSEN", "lon": 11.98661, "status": "CLOSED", "stands": 20, "bikes": 0, "update": "2016-02-06T13:12:46", "lat": 57.69312, "address": "Carlanderplatsen"}, "type": "Feature"}, {"geometry": {"coordinates": [11.959101, 57.706767], "type": "Point"}, "properties": {"name": "PACKHUSPLATSEN", "lon": 11.959101, "status": "CLOSED", "stands": 20, "bikes": 0, "update": "2016-02-06T13:08:05", "lat": 57.706767, "address": "Packhusplatsen"}, "type": "Feature"}, {"geometry": {"coordinates": [11.98854, 57.69032], "type": "Point"}, "properties": {"name": "EKLANDA/UTLANDAGATAN", "lon": 11.98854, "status": "CLOSED", "stands": 20, "bikes": 0, "update": "2016-02-06T13:09:05", "lat": 57.69032, "address": "Eklanda/Utlandagatan"}, "type": "Feature"}, {"geometry": {"coordinates": [11.95165, 57.690278], "type": "Point"}, "properties": {"name": "LINN\u00c9PLATSEN", "lon": 11.95165, "status": "CLOSED", "stands": 20, "bikes": 0, "update": "2016-02-06T13:11:56", "lat": 57.690278, "address": "Linn\u00e9platsen"}, "type": "Feature"}, {"geometry": {"coordinates": [11.97199, 57.69358], "type": "Point"}, "properties": {"name": "KAPELLPLATSEN", "lon": 11.97199, "status": "CLOSED", "stands": 28, "bikes": 0, "update": "2016-02-06T13:07:09", "lat": 57.69358, "address": "Kapellplatsen"}, "type": "Feature"}, {"geometry": {"coordinates": [11.961987, 57.694554], "type": "Point"}, "properties": {"name": "F\u00d6RENINGSGATAN", "lon": 11.961987, "status": "CLOSED", "stands": 20, "bikes": 0, "update": "2016-02-06T13:07:43", "lat": 57.694554, "address": "F\u00f6reningsgatan"}, "type": "Feature"}, {"geometry": {"coordinates": [11.951009, 57.696837], "type": "Point"}, "properties": {"name": "HAGABION", "lon": 11.951009, "status": "CLOSED", "stands": 20, "bikes": 0, "update": "2016-02-06T13:09:49", "lat": 57.696837, "address": "Hagabion"}, "type": "Feature"}, {"geometry": {"coordinates": [11.98798, 57.71119], "type": "Point"}, "properties": {"name": "ALSTR\u00d6MER/FRIGGAGATAN", "lon": 11.98798, "status": "CLOSED", "stands": 20, "bikes": 0, "update": "2016-02-06T13:10:06", "lat": 57.71119, "address": "Alstr\u00f6mer/Friggagatan"}, "type": "Feature"}, {"geometry": {"coordinates": [11.990553, 57.712435], "type": "Point"}, "properties": {"name": "SVINGELN", "lon": 11.990553, "status": "CLOSED", "stands": 20, "bikes": 0, "update": "2016-02-06T13:07:49", "lat": 57.712435, "address": "Svingeln"}, "type": "Feature"}, {"geometry": {"coordinates": [11.960571, 57.700685], "type": "Point"}, "properties": {"name": "ROSENLUNDSPLATSEN", "lon": 11.960571, "status": "CLOSED", "stands": 20, "bikes": 0, "update": "2016-02-06T13:07:17", "lat": 57.700685, "address": "Rosenlundsplatsen"}, "type": "Feature"}, {"geometry": {"coordinates": [11.98021, 57.702955], "type": "Point"}, "properties": {"name": "HEDEN/STENSTUREGATAN", "lon": 11.98021, "status": "CLOSED", "stands": 30, "bikes": 0, "update": "2016-02-06T13:07:34", "lat": 57.702955, "address": "Heden/Stensturegatan"}, "type": "Feature"}, {"geometry": {"coordinates": [11.99039, 57.70701], "type": "Point"}, "properties": {"name": "D\u00c4MMEPLATSEN", "lon": 11.99039, "status": "CLOSED", "stands": 20, "bikes": 0, "update": "2016-02-06T13:11:42", "lat": 57.70701, "address": "D\u00e4mmeplatsen"}, "type": "Feature"}, {"geometry": {"coordinates": [11.972737, 57.708074], "type": "Point"}, "properties": {"name": "DROTTNINGTORGET", "lon": 11.972737, "status": "CLOSED", "stands": 20, "bikes": 0, "update": "2016-02-06T13:06:52", "lat": 57.708074, "address": "Drottningtorget"}, "type": "Feature"}, {"geometry": {"coordinates": [11.941861, 57.699415], "type": "Point"}, "properties": {"name": "MASTHUGGSTORGET", "lon": 11.941861, "status": "CLOSED", "stands": 40, "bikes": 0, "update": "2016-02-06T13:09:21", "lat": 57.699415, "address": "Masthuggstorget"}, "type": "Feature"}, {"geometry": {"coordinates": [11.98096, 57.69794], "type": "Point"}, "properties": {"name": "BERZELIIGATAN", "lon": 11.98096, "status": "CLOSED", "stands": 20, "bikes": 0, "update": "2016-02-06T13:12:23", "lat": 57.69794, "address": "Berzeliigatan"}, "type": "Feature"}, {"geometry": {"coordinates": [11.952395, 57.702301], "type": "Point"}, "properties": {"name": "ROSENLUND/F\u00c4RJEL\u00c4GET", "lon": 11.952395, "status": "CLOSED", "stands": 30, "bikes": 0, "update": "2016-02-06T13:08:28", "lat": 57.702301, "address": "Rosenlund/F\u00e4rgel\u00e4get"}, "type": "Feature"}, {"geometry": {"coordinates": [11.965179, 57.702459], "type": "Point"}, "properties": {"name": "GR\u00d6NSAKSTORGET", "lon": 11.965179, "status": "CLOSED", "stands": 25, "bikes": 0, "update": "2016-02-06T13:08:18", "lat": 57.702459, "address": "Gr\u00f6nsakstorget"}, "type": "Feature"}, {"geometry": {"coordinates": [11.946097, 57.699968], "type": "Point"}, "properties": {"name": "F\u00d6RSTAL\u00c5NG/V\u00c4RMLANDSGATAN", "lon": 11.946097, "status": "CLOSED", "stands": 23, "bikes": 0, "update": "2016-02-06T13:08:54", "lat": 57.699968, "address": "F\u00f6rstal\u00e5ng/V\u00e4rmlandsgatan"}, "type": "Feature"}, {"geometry": {"coordinates": [11.985035, 57.702135], "type": "Point"}, "properties": {"name": "BERGAKUNGEN", "lon": 11.985035, "status": "CLOSED", "stands": 20, "bikes": 0, "update": "2016-02-06T13:10:15", "lat": 57.702135, "address": "Bergakungen"}, "type": "Feature"}, {"geometry": {"coordinates": [11.971552, 57.702482], "type": "Point"}, "properties": {"name": "STORAN", "lon": 11.971552, "status": "CLOSED", "stands": 40, "bikes": 0, "update": "2016-02-06T13:14:29", "lat": 57.702482, "address": "Storan"}, "type": "Feature"}, {"geometry": {"coordinates": [11.952905, 57.697821], "type": "Point"}, "properties": {"name": "FRIG\u00c5NGSGATAN", "lon": 11.952905, "status": "CLOSED", "stands": 20, "bikes": 0, "update": "2016-02-06T13:13:52", "lat": 57.697821, "address": "Frig\u00e5ngsgatan"}, "type": "Feature"}, {"geometry": {"coordinates": [11.955692, 57.693029], "type": "Point"}, "properties": {"name": "KASTELLGATAN", "lon": 11.955692, "status": "CLOSED", "stands": 20, "bikes": 0, "update": "2016-02-06T13:09:33", "lat": 57.693029, "address": "Kastellgatan"}, "type": "Feature"}, {"geometry": {"coordinates": [11.966574, 57.711547], "type": "Point"}, "properties": {"name": "LILLA BOMMEN", "lon": 11.966574, "status": "CLOSED", "stands": 20, "bikes": 0, "update": "2016-02-06T13:07:04", "lat": 57.711547, "address": "Lilla Bommen"}, "type": "Feature"}, {"geometry": {"coordinates": [11.9766, 57.701419], "type": "Point"}, "properties": {"name": "VASAGATAN/HEDEN", "lon": 11.9766, "status": "CLOSED", "stands": 25, "bikes": 0, "update": "2016-02-06T13:11:45", "lat": 57.701419, "address": "Vasagatan/Heden"}, "type": "Feature"}, {"geometry": {"coordinates": [11.976117, 57.707647], "type": "Point"}, "properties": {"name": "POSTHUSET/\u00c5KAREPLATSEN", "lon": 11.976117, "status": "CLOSED", "stands": 20, "bikes": 0, "update": "2016-02-06T13:13:51", "lat": 57.707647, "address": "Posthuset/\u00c5kareplatsen"}, "type": "Feature"}, {"geometry": {"coordinates": [11.958548, 57.695909], "type": "Point"}, "properties": {"name": "SKANSTORGET", "lon": 11.958548, "status": "CLOSED", "stands": 30, "bikes": 0, "update": "2016-02-06T13:09:56", "lat": 57.695909, "address": "Skanstorget"}, "type": "Feature"}, {"geometry": {"coordinates": [11.962405, 57.697984], "type": "Point"}, "properties": {"name": "HAGAPARKEN", "lon": 11.962405, "status": "CLOSED", "stands": 25, "bikes": 0, "update": "2016-02-06T13:11:15", "lat": 57.697984, "address": "Hagaparken"}, "type": "Feature"}, {"geometry": {"coordinates": [11.97694, 57.69841], "type": "Point"}, "properties": {"name": "ENGELBREKTSGATAN", "lon": 11.97694, "status": "CLOSED", "stands": 15, "bikes": 0, "update": "2016-02-06T13:09:25", "lat": 57.69841, "address": "Engelbrektsgatan"}, "type": "Feature"}, {"geometry": {"coordinates": [11.992191, 57.701249], "type": "Point"}, "properties": {"name": "\u00c5V\u00c4GEN", "lon": 11.992191, "status": "CLOSED", "stands": 20, "bikes": 0, "update": "2016-02-06T13:10:31", "lat": 57.701249, "address": "\u00c5v\u00e4gen"}, "type": "Feature"}, {"geometry": {"coordinates": [11.946208, 57.698261], "type": "Point"}, "properties": {"name": "TREDJEL\u00c5NG/V\u00c4RMLANDSGATAN", "lon": 11.946208, "status": "CLOSED", "stands": 25, "bikes": 0, "update": "2016-02-06T13:10:01", "lat": 57.698261, "address": "Tredjel\u00e5ng/V\u00e4rmlandsgatan"}, "type": "Feature"}, {"geometry": {"coordinates": [11.979867, 57.699941], "type": "Point"}, "properties": {"name": "HEDEN SYD", "lon": 11.979867, "status": "CLOSED", "stands": 20, "bikes": 0, "update": "2016-02-06T13:07:21", "lat": 57.699941, "address": "Heden Syd"}, "type": "Feature"}, {"geometry": {"coordinates": [11.98322, 57.68542], "type": "Point"}, "properties": {"name": "GIBRALTARG/EKLANDAG", "lon": 11.98322, "status": "CLOSED", "stands": 40, "bikes": 0, "update": "2016-02-06T13:11:23", "lat": 57.68542, "address": "Gibraltargatan/Eklandagatan"}, "type": "Feature"}, {"geometry": {"coordinates": [11.985703, 57.696916], "type": "Point"}, "properties": {"name": "KORSV\u00c4GEN /S\u00d6DRA V\u00c4GEN", "lon": 11.985703, "status": "CLOSED", "stands": 32, "bikes": 0, "update": "2016-02-06T13:09:28", "lat": 57.696916, "address": "Korsv\u00e4gen 1/S\u00f6dra V\u00e4gen"}, "type": "Feature"}, {"geometry": {"coordinates": [11.97234, 57.69691], "type": "Point"}, "properties": {"name": "MOLINSGATAN", "lon": 11.97234, "status": "CLOSED", "stands": 20, "bikes": 0, "update": "2016-02-04T05:07:53", "lat": 57.69691, "address": "Molinsgatan"}, "type": "Feature"}, {"geometry": {"coordinates": [11.970787, 57.709752], "type": "Point"}, "properties": {"name": "NILS-ERICSSON TERMINALEN", "lon": 11.970787, "status": "CLOSED", "stands": 35, "bikes": 0, "update": "2016-02-06T13:09:05", "lat": 57.709752, "address": "Nils-Ericsson Terminalen"}, "type": "Feature"}, {"geometry": {"coordinates": [11.967115, 57.698265], "type": "Point"}, "properties": {"name": "VASAGATAN/SCHILLERSKA", "lon": 11.967115, "status": "CLOSED", "stands": 25, "bikes": 0, "update": "2016-02-06T13:13:00", "lat": 57.698265, "address": "Vasagatan/Schillerska"}, "type": "Feature"}], "type": "FeatureCollection"}