{"features": [{"geometry": {"coordinates": [11.97305, 57.68979], "type": "Point"}, "type": "Feature", "properties": {"status": "CLOSED", "lon": 11.97305, "stands": 50, "address": "Chalmersplatsen", "name": "CHALMERSPLATSEN", "bikes": 0, "update": "2016-02-07T19:51:44", "lat": 57.68979}}, {"geometry": {"coordinates": [11.97974, 57.68953], "type": "Point"}, "type": "Feature", "properties": {"status": "CLOSED", "lon": 11.97974, "stands": 20, "address": "Chalmers Tv\u00e4rgata", "name": "CHALMERS TV\u00c4RGATA", "bikes": 0, "update": "2016-02-07T19:51:12", "lat": 57.68953}}, {"geometry": {"coordinates": [11.968875, 57.702542], "type": "Point"}, "type": "Feature", "properties": {"status": "CLOSED", "lon": 11.968875, "stands": 20, "address": "Kungstorget", "name": "KUNGSTORGET", "bikes": 0, "update": "2016-02-07T19:50:25", "lat": 57.702542}}, {"geometry": {"coordinates": [11.963926, 57.707476], "type": "Point"}, "type": "Feature", "properties": {"status": "CLOSED", "lon": 11.963926, "stands": 20, "address": "Postgatan", "name": "POSTGATAN", "bikes": 0, "update": "2016-02-07T19:53:01", "lat": 57.707476}}, {"geometry": {"coordinates": [11.969008, 57.704639], "type": "Point"}, "type": "Feature", "properties": {"status": "CLOSED", "lon": 11.969008, "stands": 27, "address": "\u00d6stra hamngatan", "name": "\u00d6STRA HAMNGATAN", "bikes": 0, "update": "2016-02-07T19:52:29", "lat": 57.704639}}, {"geometry": {"coordinates": [11.984298, 57.70452], "type": "Point"}, "type": "Feature", "properties": {"status": "CLOSED", "lon": 11.984298, "stands": 20, "address": "Bohusgatan", "name": "BOHUSGATAN", "bikes": 0, "update": "2016-02-07T19:55:36", "lat": 57.70452}}, {"geometry": {"coordinates": [11.958559, 57.693517], "type": "Point"}, "type": "Feature", "properties": {"status": "CLOSED", "lon": 11.958559, "stands": 20, "address": "Brunnsgatan", "name": "BRUNNSGATAN", "bikes": 0, "update": "2016-02-07T19:55:24", "lat": 57.693517}}, {"geometry": {"coordinates": [11.95364, 57.700662], "type": "Point"}, "type": "Feature", "properties": {"status": "CLOSED", "lon": 11.95364, "stands": 31, "address": "Olof Palmes Plats", "name": "OLOF PALMES PLATS", "bikes": 0, "update": "2016-02-07T19:53:46", "lat": 57.700662}}, {"geometry": {"coordinates": [11.97451, 57.69418], "type": "Point"}, "type": "Feature", "properties": {"status": "CLOSED", "lon": 11.97451, "stands": 40, "address": "L\u00e4raregatan/Molinsgatan", "name": "L\u00c4RAREGATAN/MOLINSGATAN", "bikes": 0, "update": "2016-02-07T19:55:18", "lat": 57.69418}}, {"geometry": {"coordinates": [11.992441, 57.704675], "type": "Point"}, "type": "Feature", "properties": {"status": "CLOSED", "lon": 11.992441, "stands": 20, "address": "G\u00e5rdatorget", "name": "G\u00c5RDATORGET", "bikes": 0, "update": "2016-02-07T19:48:06", "lat": 57.704675}}, {"geometry": {"coordinates": [11.973429, 57.700324], "type": "Point"}, "type": "Feature", "properties": {"status": "CLOSED", "lon": 11.973429, "stands": 20, "address": "Valand", "name": "VALAND", "bikes": 0, "update": "2016-02-07T19:49:18", "lat": 57.700324}}, {"geometry": {"coordinates": [11.9806, 57.71185], "type": "Point"}, "type": "Feature", "properties": {"status": "CLOSED", "lon": 11.9806, "stands": 20, "address": "Kruthusgatan", "name": "KRUTHUSGATAN", "bikes": 0, "update": "2016-02-07T19:52:11", "lat": 57.71185}}, {"geometry": {"coordinates": [11.976176, 57.699939], "type": "Point"}, "type": "Feature", "properties": {"status": "CLOSED", "lon": 11.976176, "stands": 25, "address": "Kristinelundsgatan", "name": "KRISTINELUNDSGATAN", "bikes": 0, "update": "2016-02-07T19:52:35", "lat": 57.699939}}, {"geometry": {"coordinates": [11.96012, 57.70337], "type": "Point"}, "type": "Feature", "properties": {"status": "CLOSED", "lon": 11.96012, "stands": 20, "address": "Kungsgatan/Telekasern", "name": "KUNGSGATAN/TELEKASERN", "bikes": 0, "update": "2016-02-07T19:53:03", "lat": 57.70337}}, {"geometry": {"coordinates": [11.96388, 57.70434], "type": "Point"}, "type": "Feature", "properties": {"status": "CLOSED", "lon": 11.96388, "stands": 8, "address": "Domkyrkan", "name": "DOMKYRKAN", "bikes": 0, "update": "2016-01-20T23:24:43", "lat": 57.70434}}, {"geometry": {"coordinates": [11.966421, 57.710396], "type": "Point"}, "type": "Feature", "properties": {"status": "CLOSED", "lon": 11.966421, "stands": 25, "address": "Kanaltorget", "name": "KANALTORGET", "bikes": 0, "update": "2016-02-07T19:49:28", "lat": 57.710396}}, {"geometry": {"coordinates": [11.98472, 57.70884], "type": "Point"}, "type": "Feature", "properties": {"status": "CLOSED", "lon": 11.98472, "stands": 20, "address": "Folkungagatan", "name": "FOLKUNGAGATAN", "bikes": 0, "update": "2016-02-07T19:51:44", "lat": 57.70884}}, {"geometry": {"coordinates": [11.973347, 57.713714], "type": "Point"}, "type": "Feature", "properties": {"status": "CLOSED", "lon": 11.973347, "stands": 23, "address": "Kilsgatan", "name": "KILSGATAN", "bikes": 0, "update": "2016-02-07T19:51:59", "lat": 57.713714}}, {"geometry": {"coordinates": [11.956468, 57.698949], "type": "Point"}, "type": "Feature", "properties": {"status": "CLOSED", "lon": 11.956468, "stands": 25, "address": "Kaponj\u00e4rsgatan", "name": "KAPONJ\u00c4RSGATAN", "bikes": 0, "update": "2016-02-07T19:52:28", "lat": 57.698949}}, {"geometry": {"coordinates": [11.990748, 57.704535], "type": "Point"}, "type": "Feature", "properties": {"status": "CLOSED", "lon": 11.990748, "stands": 31, "address": "\u00c5v\u00e4gen Norra", "name": "\u00c5V\u00c4GEN NORRA", "bikes": 0, "update": "2016-02-07T19:52:48", "lat": 57.704535}}, {"geometry": {"coordinates": [11.973448, 57.707316], "type": "Point"}, "type": "Feature", "properties": {"status": "CLOSED", "lon": 11.973448, "stands": 20, "address": "Slussplatsen", "name": "SLUSSPLATSEN", "bikes": 0, "update": "2016-02-07T19:50:57", "lat": 57.707316}}, {"geometry": {"coordinates": [11.987833, 57.696555], "type": "Point"}, "type": "Feature", "properties": {"status": "CLOSED", "lon": 11.987833, "stands": 25, "address": "Korsv\u00e4gen 2", "name": "KORSV\u00c4GEN", "bikes": 0, "update": "2016-02-07T19:54:19", "lat": 57.696555}}, {"geometry": {"coordinates": [11.955461, 57.702793], "type": "Point"}, "type": "Feature", "properties": {"status": "CLOSED", "lon": 11.955461, "stands": 27, "address": "008_ESPERANTOPLATSEN", "name": "ESPERANTOPLATSEN", "bikes": 0, "update": "2016-02-07T19:49:03", "lat": 57.702793}}, {"geometry": {"coordinates": [11.995107, 57.697923], "type": "Point"}, "type": "Feature", "properties": {"status": "CLOSED", "lon": 11.995107, "stands": 30, "address": "Liseberg Station", "name": "LISEBERG STATION", "bikes": 0, "update": "2016-02-07T19:49:48", "lat": 57.697923}}, {"geometry": {"coordinates": [11.987908, 57.700094], "type": "Point"}, "type": "Feature", "properties": {"status": "CLOSED", "lon": 11.987908, "stands": 30, "address": "Scandinavium", "name": "SCANDINAVIUM", "bikes": 0, "update": "2016-02-07T19:48:59", "lat": 57.700094}}, {"geometry": {"coordinates": [11.947047, 57.689983], "type": "Point"}, "type": "Feature", "properties": {"status": "CLOSED", "lon": 11.947047, "stands": 25, "address": "Slottskogen/Plikta", "name": "SLOTTSKOGEN/PLIKTA", "bikes": 0, "update": "2016-02-07T19:48:12", "lat": 57.689983}}, {"geometry": {"coordinates": [11.967502, 57.707233], "type": "Point"}, "type": "Feature", "properties": {"status": "CLOSED", "lon": 11.967502, "stands": 40, "address": "Gustaf Adolfs Torg", "name": "GUSTAF ADOLFS TORG", "bikes": 0, "update": "2016-02-07T19:54:04", "lat": 57.707233}}, {"geometry": {"coordinates": [11.972077, 57.704263], "type": "Point"}, "type": "Feature", "properties": {"status": "CLOSED", "lon": 11.972077, "stands": 20, "address": "Bastionsplatsen", "name": "BASTIONSPLATSEN", "bikes": 0, "update": "2016-02-07T19:55:08", "lat": 57.704263}}, {"geometry": {"coordinates": [11.983638, 57.707048], "type": "Point"}, "type": "Feature", "properties": {"status": "CLOSED", "lon": 11.983638, "stands": 25, "address": "Ullevigatan", "name": "ULLEVIGATAN", "bikes": 0, "update": "2016-02-07T19:46:49", "lat": 57.707048}}, {"geometry": {"coordinates": [11.97472, 57.716378], "type": "Point"}, "type": "Feature", "properties": {"status": "CLOSED", "lon": 11.97472, "stands": 40, "address": "Gullbergsvass", "name": "GULLBERGSVASS", "bikes": 0, "update": "2016-02-07T19:52:10", "lat": 57.716378}}, {"geometry": {"coordinates": [11.968013, 57.713496], "type": "Point"}, "type": "Feature", "properties": {"status": "CLOSED", "lon": 11.968013, "stands": 29, "address": "L\u00e4ppstiftet", "name": "L\u00c4PPSTIFTET", "bikes": 0, "update": "2016-02-07T19:52:20", "lat": 57.713496}}, {"geometry": {"coordinates": [11.98661, 57.69312], "type": "Point"}, "type": "Feature", "properties": {"status": "CLOSED", "lon": 11.98661, "stands": 20, "address": "Carlanderplatsen", "name": "CARLANDERSPLATSEN", "bikes": 0, "update": "2016-02-07T19:52:20", "lat": 57.69312}}, {"geometry": {"coordinates": [11.959101, 57.706767], "type": "Point"}, "type": "Feature", "properties": {"status": "CLOSED", "lon": 11.959101, "stands": 20, "address": "Packhusplatsen", "name": "PACKHUSPLATSEN", "bikes": 0, "update": "2016-02-07T19:51:19", "lat": 57.706767}}, {"geometry": {"coordinates": [11.98854, 57.69032], "type": "Point"}, "type": "Feature", "properties": {"status": "CLOSED", "lon": 11.98854, "stands": 20, "address": "Eklanda/Utlandagatan", "name": "EKLANDA/UTLANDAGATAN", "bikes": 0, "update": "2016-02-07T19:53:10", "lat": 57.69032}}, {"geometry": {"coordinates": [11.95165, 57.690278], "type": "Point"}, "type": "Feature", "properties": {"status": "CLOSED", "lon": 11.95165, "stands": 20, "address": "Linn\u00e9platsen", "name": "LINN\u00c9PLATSEN", "bikes": 0, "update": "2016-02-07T19:54:49", "lat": 57.690278}}, {"geometry": {"coordinates": [11.97199, 57.69358], "type": "Point"}, "type": "Feature", "properties": {"status": "CLOSED", "lon": 11.97199, "stands": 28, "address": "Kapellplatsen", "name": "KAPELLPLATSEN", "bikes": 0, "update": "2016-02-07T19:50:57", "lat": 57.69358}}, {"geometry": {"coordinates": [11.961987, 57.694554], "type": "Point"}, "type": "Feature", "properties": {"status": "CLOSED", "lon": 11.961987, "stands": 20, "address": "F\u00f6reningsgatan", "name": "F\u00d6RENINGSGATAN", "bikes": 0, "update": "2016-02-07T19:50:58", "lat": 57.694554}}, {"geometry": {"coordinates": [11.951009, 57.696837], "type": "Point"}, "type": "Feature", "properties": {"status": "CLOSED", "lon": 11.951009, "stands": 20, "address": "Hagabion", "name": "HAGABION", "bikes": 0, "update": "2016-02-07T19:52:59", "lat": 57.696837}}, {"geometry": {"coordinates": [11.98798, 57.71119], "type": "Point"}, "type": "Feature", "properties": {"status": "CLOSED", "lon": 11.98798, "stands": 20, "address": "Alstr\u00f6mer/Friggagatan", "name": "ALSTR\u00d6MER/FRIGGAGATAN", "bikes": 0, "update": "2016-02-07T19:53:23", "lat": 57.71119}}, {"geometry": {"coordinates": [11.990553, 57.712435], "type": "Point"}, "type": "Feature", "properties": {"status": "CLOSED", "lon": 11.990553, "stands": 20, "address": "Svingeln", "name": "SVINGELN", "bikes": 0, "update": "2016-02-07T19:49:52", "lat": 57.712435}}, {"geometry": {"coordinates": [11.960571, 57.700685], "type": "Point"}, "type": "Feature", "properties": {"status": "CLOSED", "lon": 11.960571, "stands": 20, "address": "Rosenlundsplatsen", "name": "ROSENLUNDSPLATSEN", "bikes": 0, "update": "2016-02-07T19:52:10", "lat": 57.700685}}, {"geometry": {"coordinates": [11.98021, 57.702955], "type": "Point"}, "type": "Feature", "properties": {"status": "CLOSED", "lon": 11.98021, "stands": 30, "address": "Heden/Stensturegatan", "name": "HEDEN/STENSTUREGATAN", "bikes": 0, "update": "2016-02-07T19:55:05", "lat": 57.702955}}, {"geometry": {"coordinates": [11.99039, 57.70701], "type": "Point"}, "type": "Feature", "properties": {"status": "CLOSED", "lon": 11.99039, "stands": 20, "address": "D\u00e4mmeplatsen", "name": "D\u00c4MMEPLATSEN", "bikes": 0, "update": "2016-02-07T19:54:55", "lat": 57.70701}}, {"geometry": {"coordinates": [11.972737, 57.708074], "type": "Point"}, "type": "Feature", "properties": {"status": "CLOSED", "lon": 11.972737, "stands": 20, "address": "Drottningtorget", "name": "DROTTNINGTORGET", "bikes": 0, "update": "2016-02-07T19:50:06", "lat": 57.708074}}, {"geometry": {"coordinates": [11.941861, 57.699415], "type": "Point"}, "type": "Feature", "properties": {"status": "CLOSED", "lon": 11.941861, "stands": 40, "address": "Masthuggstorget", "name": "MASTHUGGSTORGET", "bikes": 0, "update": "2016-02-07T19:52:20", "lat": 57.699415}}, {"geometry": {"coordinates": [11.98096, 57.69794], "type": "Point"}, "type": "Feature", "properties": {"status": "CLOSED", "lon": 11.98096, "stands": 20, "address": "Berzeliigatan", "name": "BERZELIIGATAN", "bikes": 0, "update": "2016-02-07T19:53:26", "lat": 57.69794}}, {"geometry": {"coordinates": [11.952395, 57.702301], "type": "Point"}, "type": "Feature", "properties": {"status": "CLOSED", "lon": 11.952395, "stands": 30, "address": "Rosenlund/F\u00e4rgel\u00e4get", "name": "ROSENLUND/F\u00c4RJEL\u00c4GET", "bikes": 0, "update": "2016-02-07T19:51:43", "lat": 57.702301}}, {"geometry": {"coordinates": [11.965179, 57.702459], "type": "Point"}, "type": "Feature", "properties": {"status": "CLOSED", "lon": 11.965179, "stands": 25, "address": "Gr\u00f6nsakstorget", "name": "GR\u00d6NSAKSTORGET", "bikes": 0, "update": "2016-02-07T19:51:38", "lat": 57.702459}}, {"geometry": {"coordinates": [11.946097, 57.699968], "type": "Point"}, "type": "Feature", "properties": {"status": "CLOSED", "lon": 11.946097, "stands": 23, "address": "F\u00f6rstal\u00e5ng/V\u00e4rmlandsgatan", "name": "F\u00d6RSTAL\u00c5NG/V\u00c4RMLANDSGATAN", "bikes": 0, "update": "2016-02-07T19:51:36", "lat": 57.699968}}, {"geometry": {"coordinates": [11.985035, 57.702135], "type": "Point"}, "type": "Feature", "properties": {"status": "CLOSED", "lon": 11.985035, "stands": 20, "address": "Bergakungen", "name": "BERGAKUNGEN", "bikes": 0, "update": "2016-02-07T19:50:22", "lat": 57.702135}}, {"geometry": {"coordinates": [11.971552, 57.702482], "type": "Point"}, "type": "Feature", "properties": {"status": "CLOSED", "lon": 11.971552, "stands": 40, "address": "Storan", "name": "STORAN", "bikes": 0, "update": "2016-02-07T19:50:51", "lat": 57.702482}}, {"geometry": {"coordinates": [11.952905, 57.697821], "type": "Point"}, "type": "Feature", "properties": {"status": "CLOSED", "lon": 11.952905, "stands": 20, "address": "Frig\u00e5ngsgatan", "name": "FRIG\u00c5NGSGATAN", "bikes": 0, "update": "2016-02-07T19:46:56", "lat": 57.697821}}, {"geometry": {"coordinates": [11.955692, 57.693029], "type": "Point"}, "type": "Feature", "properties": {"status": "CLOSED", "lon": 11.955692, "stands": 20, "address": "Kastellgatan", "name": "KASTELLGATAN", "bikes": 0, "update": "2016-02-07T19:49:01", "lat": 57.693029}}, {"geometry": {"coordinates": [11.966574, 57.711547], "type": "Point"}, "type": "Feature", "properties": {"status": "CLOSED", "lon": 11.966574, "stands": 20, "address": "Lilla Bommen", "name": "LILLA BOMMEN", "bikes": 0, "update": "2016-02-07T19:49:29", "lat": 57.711547}}, {"geometry": {"coordinates": [11.9766, 57.701419], "type": "Point"}, "type": "Feature", "properties": {"status": "CLOSED", "lon": 11.9766, "stands": 25, "address": "Vasagatan/Heden", "name": "VASAGATAN/HEDEN", "bikes": 0, "update": "2016-02-07T19:54:45", "lat": 57.701419}}, {"geometry": {"coordinates": [11.976117, 57.707647], "type": "Point"}, "type": "Feature", "properties": {"status": "CLOSED", "lon": 11.976117, "stands": 20, "address": "Posthuset/\u00c5kareplatsen", "name": "POSTHUSET/\u00c5KAREPLATSEN", "bikes": 0, "update": "2016-02-07T19:46:57", "lat": 57.707647}}, {"geometry": {"coordinates": [11.958548, 57.695909], "type": "Point"}, "type": "Feature", "properties": {"status": "CLOSED", "lon": 11.958548, "stands": 30, "address": "Skanstorget", "name": "SKANSTORGET", "bikes": 0, "update": "2016-02-07T19:53:04", "lat": 57.695909}}, {"geometry": {"coordinates": [11.962405, 57.697984], "type": "Point"}, "type": "Feature", "properties": {"status": "CLOSED", "lon": 11.962405, "stands": 25, "address": "Hagaparken", "name": "HAGAPARKEN", "bikes": 0, "update": "2016-02-07T19:54:29", "lat": 57.697984}}, {"geometry": {"coordinates": [11.97694, 57.69841], "type": "Point"}, "type": "Feature", "properties": {"status": "CLOSED", "lon": 11.97694, "stands": 15, "address": "Engelbrektsgatan", "name": "ENGELBREKTSGATAN", "bikes": 0, "update": "2016-02-07T19:52:26", "lat": 57.69841}}, {"geometry": {"coordinates": [11.992191, 57.701249], "type": "Point"}, "type": "Feature", "properties": {"status": "CLOSED", "lon": 11.992191, "stands": 20, "address": "\u00c5v\u00e4gen", "name": "\u00c5V\u00c4GEN", "bikes": 0, "update": "2016-02-07T19:54:22", "lat": 57.701249}}, {"geometry": {"coordinates": [11.946208, 57.698261], "type": "Point"}, "type": "Feature", "properties": {"status": "CLOSED", "lon": 11.946208, "stands": 25, "address": "Tredjel\u00e5ng/V\u00e4rmlandsgatan", "name": "TREDJEL\u00c5NG/V\u00c4RMLANDSGATAN", "bikes": 0, "update": "2016-02-07T19:51:48", "lat": 57.698261}}, {"geometry": {"coordinates": [11.979867, 57.699941], "type": "Point"}, "type": "Feature", "properties": {"status": "CLOSED", "lon": 11.979867, "stands": 20, "address": "Heden Syd", "name": "HEDEN SYD", "bikes": 0, "update": "2016-02-07T19:50:37", "lat": 57.699941}}, {"geometry": {"coordinates": [11.98322, 57.68542], "type": "Point"}, "type": "Feature", "properties": {"status": "CLOSED", "lon": 11.98322, "stands": 40, "address": "Gibraltargatan/Eklandagatan", "name": "GIBRALTARG/EKLANDAG", "bikes": 0, "update": "2016-02-07T19:54:41", "lat": 57.68542}}, {"geometry": {"coordinates": [11.985703, 57.696916], "type": "Point"}, "type": "Feature", "properties": {"status": "CLOSED", "lon": 11.985703, "stands": 32, "address": "Korsv\u00e4gen 1/S\u00f6dra V\u00e4gen", "name": "KORSV\u00c4GEN /S\u00d6DRA V\u00c4GEN", "bikes": 0, "update": "2016-02-07T19:52:34", "lat": 57.696916}}, {"geometry": {"coordinates": [11.97234, 57.69691], "type": "Point"}, "type": "Feature", "properties": {"status": "CLOSED", "lon": 11.97234, "stands": 20, "address": "Molinsgatan", "name": "MOLINSGATAN", "bikes": 0, "update": "2016-02-04T05:07:53", "lat": 57.69691}}, {"geometry": {"coordinates": [11.970787, 57.709752], "type": "Point"}, "type": "Feature", "properties": {"status": "CLOSED", "lon": 11.970787, "stands": 35, "address": "Nils-Ericsson Terminalen", "name": "NILS-ERICSSON TERMINALEN", "bikes": 0, "update": "2016-02-07T19:54:01", "lat": 57.709752}}, {"geometry": {"coordinates": [11.967115, 57.698265], "type": "Point"}, "type": "Feature", "properties": {"status": "CLOSED", "lon": 11.967115, "stands": 25, "address": "Vasagatan/Schillerska", "name": "VASAGATAN/SCHILLERSKA", "bikes": 0, "update": "2016-02-07T19:55:25", "lat": 57.698265}}], "type": "FeatureCollection"}