{"features": [{"properties": {"stands": 36, "address": "Chalmersplatsen", "bikes": 14, "lon": 11.97305, "status": "OPEN", "update": "2015-12-21T11:38:30", "name": "CHALMERSPLATSEN", "lat": 57.68979}, "type": "Feature", "geometry": {"type": "Point", "coordinates": [11.97305, 57.68979]}}, {"properties": {"stands": 5, "address": "Chalmers Tv\u00e4rgata", "bikes": 15, "lon": 11.97974, "status": "OPEN", "update": "2015-12-21T11:43:49", "name": "CHALMERS TV\u00c4RGATA", "lat": 57.68953}, "type": "Feature", "geometry": {"type": "Point", "coordinates": [11.97974, 57.68953]}}, {"properties": {"stands": 8, "address": "Kungstorget", "bikes": 12, "lon": 11.968875, "status": "OPEN", "update": "2015-12-21T11:37:34", "name": "KUNGSTORGET", "lat": 57.702542}, "type": "Feature", "geometry": {"type": "Point", "coordinates": [11.968875, 57.702542]}}, {"properties": {"stands": 9, "address": "Postgatan", "bikes": 8, "lon": 11.963926, "status": "OPEN", "update": "2015-12-21T11:43:01", "name": "POSTGATAN", "lat": 57.707476}, "type": "Feature", "geometry": {"type": "Point", "coordinates": [11.963926, 57.707476]}}, {"properties": {"stands": 11, "address": "\u00d6stra hamngatan", "bikes": 16, "lon": 11.969008, "status": "OPEN", "update": "2015-12-21T11:44:05", "name": "\u00d6STRA HAMNGATAN", "lat": 57.704639}, "type": "Feature", "geometry": {"type": "Point", "coordinates": [11.969008, 57.704639]}}, {"properties": {"stands": 1, "address": "Bohusgatan", "bikes": 19, "lon": 11.984298, "status": "OPEN", "update": "2015-12-21T11:36:18", "name": "BOHUSGATAN", "lat": 57.70452}, "type": "Feature", "geometry": {"type": "Point", "coordinates": [11.984298, 57.70452]}}, {"properties": {"stands": 15, "address": "Brunnsgatan", "bikes": 4, "lon": 11.958559, "status": "OPEN", "update": "2015-12-21T11:45:12", "name": "BRUNNSGATAN", "lat": 57.693517}, "type": "Feature", "geometry": {"type": "Point", "coordinates": [11.958559, 57.693517]}}, {"properties": {"stands": 11, "address": "Olof Palmes Plats", "bikes": 15, "lon": 11.95364, "status": "OPEN", "update": "2015-12-21T11:44:14", "name": "OLOF PALMES PLATS", "lat": 57.700662}, "type": "Feature", "geometry": {"type": "Point", "coordinates": [11.95364, 57.700662]}}, {"properties": {"stands": 31, "address": "L\u00e4raregatan/Molinsgatan", "bikes": 9, "lon": 11.97451, "status": "OPEN", "update": "2015-12-21T11:35:50", "name": "L\u00c4RAREGATAN/MOLINSGATAN", "lat": 57.69418}, "type": "Feature", "geometry": {"type": "Point", "coordinates": [11.97451, 57.69418]}}, {"properties": {"stands": 3, "address": "G\u00e5rdatorget", "bikes": 17, "lon": 11.992441, "status": "OPEN", "update": "2015-12-21T11:44:28", "name": "G\u00c5RDATORGET", "lat": 57.704675}, "type": "Feature", "geometry": {"type": "Point", "coordinates": [11.992441, 57.704675]}}, {"properties": {"stands": 17, "address": "Valand", "bikes": 3, "lon": 11.973429, "status": "OPEN", "update": "2015-12-21T11:41:03", "name": "VALAND", "lat": 57.700324}, "type": "Feature", "geometry": {"type": "Point", "coordinates": [11.973429, 57.700324]}}, {"properties": {"stands": 9, "address": "Kruthusgatan", "bikes": 10, "lon": 11.9806, "status": "OPEN", "update": "2015-12-21T11:39:41", "name": "KRUTHUSGATAN", "lat": 57.71185}, "type": "Feature", "geometry": {"type": "Point", "coordinates": [11.9806, 57.71185]}}, {"properties": {"stands": 12, "address": "Kristinelundsgatan", "bikes": 13, "lon": 11.976176, "status": "OPEN", "update": "2015-12-21T11:42:50", "name": "KRISTINELUNDSGATAN", "lat": 57.699939}, "type": "Feature", "geometry": {"type": "Point", "coordinates": [11.976176, 57.699939]}}, {"properties": {"stands": 8, "address": "Kungsgatan/Telekasern", "bikes": 12, "lon": 11.96012, "status": "OPEN", "update": "2015-12-21T11:45:09", "name": "KUNGSGATAN/TELEKASERN", "lat": 57.70337}, "type": "Feature", "geometry": {"type": "Point", "coordinates": [11.96012, 57.70337]}}, {"properties": {"stands": 3, "address": "Domkyrkan", "bikes": 14, "lon": 11.96388, "status": "OPEN", "update": "2015-12-21T11:43:47", "name": "DOMKYRKAN", "lat": 57.70434}, "type": "Feature", "geometry": {"type": "Point", "coordinates": [11.96388, 57.70434]}}, {"properties": {"stands": 14, "address": "Kanaltorget", "bikes": 11, "lon": 11.966421, "status": "OPEN", "update": "2015-12-21T11:39:01", "name": "KANALTORGET", "lat": 57.710396}, "type": "Feature", "geometry": {"type": "Point", "coordinates": [11.966421, 57.710396]}}, {"properties": {"stands": 4, "address": "Folkungagatan", "bikes": 16, "lon": 11.98472, "status": "OPEN", "update": "2015-12-21T11:44:10", "name": "FOLKUNGAGATAN", "lat": 57.70884}, "type": "Feature", "geometry": {"type": "Point", "coordinates": [11.98472, 57.70884]}}, {"properties": {"stands": 10, "address": "Kilsgatan", "bikes": 13, "lon": 11.973347, "status": "OPEN", "update": "2015-12-21T11:44:49", "name": "KILSGATAN", "lat": 57.713714}, "type": "Feature", "geometry": {"type": "Point", "coordinates": [11.973347, 57.713714]}}, {"properties": {"stands": 20, "address": "Kaponj\u00e4rsgatan", "bikes": 5, "lon": 11.956468, "status": "OPEN", "update": "2015-12-21T11:41:21", "name": "KAPONJ\u00c4RSGATAN", "lat": 57.698949}, "type": "Feature", "geometry": {"type": "Point", "coordinates": [11.956468, 57.698949]}}, {"properties": {"stands": 8, "address": "\u00c5v\u00e4gen Norra", "bikes": 22, "lon": 11.990748, "status": "OPEN", "update": "2015-12-21T11:43:45", "name": "\u00c5V\u00c4GEN NORRA", "lat": 57.704535}, "type": "Feature", "geometry": {"type": "Point", "coordinates": [11.990748, 57.704535]}}, {"properties": {"stands": 2, "address": "Slussplatsen", "bikes": 18, "lon": 11.973448, "status": "OPEN", "update": "2015-12-21T11:39:35", "name": "SLUSSPLATSEN", "lat": 57.707316}, "type": "Feature", "geometry": {"type": "Point", "coordinates": [11.973448, 57.707316]}}, {"properties": {"stands": 20, "address": "Korsv\u00e4gen 2", "bikes": 3, "lon": 11.987833, "status": "OPEN", "update": "2015-12-21T11:43:45", "name": "KORSV\u00c4GEN", "lat": 57.696555}, "type": "Feature", "geometry": {"type": "Point", "coordinates": [11.987833, 57.696555]}}, {"properties": {"stands": 16, "address": "008_ESPERANTOPLATSEN", "bikes": 10, "lon": 11.955461, "status": "OPEN", "update": "2015-12-21T11:45:05", "name": "ESPERANTOPLATSEN", "lat": 57.702793}, "type": "Feature", "geometry": {"type": "Point", "coordinates": [11.955461, 57.702793]}}, {"properties": {"stands": 20, "address": "Liseberg Station", "bikes": 10, "lon": 11.995107, "status": "OPEN", "update": "2015-12-21T11:42:42", "name": "LISEBERG STATION", "lat": 57.697923}, "type": "Feature", "geometry": {"type": "Point", "coordinates": [11.995107, 57.697923]}}, {"properties": {"stands": 4, "address": "Scandinavium", "bikes": 24, "lon": 11.987908, "status": "OPEN", "update": "2015-12-21T11:38:17", "name": "SCANDINAVIUM", "lat": 57.700094}, "type": "Feature", "geometry": {"type": "Point", "coordinates": [11.987908, 57.700094]}}, {"properties": {"stands": 25, "address": "Slottskogen/Plikta", "bikes": 0, "lon": 11.947047, "status": "OPEN", "update": "2015-12-21T11:39:15", "name": "SLOTTSKOGEN/PLIKTA", "lat": 57.689983}, "type": "Feature", "geometry": {"type": "Point", "coordinates": [11.947047, 57.689983]}}, {"properties": {"stands": 21, "address": "Gustaf Adolfs Torg", "bikes": 16, "lon": 11.967502, "status": "OPEN", "update": "2015-12-21T11:39:44", "name": "GUSTAF ADOLFS TORG", "lat": 57.707233}, "type": "Feature", "geometry": {"type": "Point", "coordinates": [11.967502, 57.707233]}}, {"properties": {"stands": 5, "address": "Bastionsplatsen", "bikes": 15, "lon": 11.972077, "status": "OPEN", "update": "2015-12-21T11:43:50", "name": "BASTIONSPLATSEN", "lat": 57.704263}, "type": "Feature", "geometry": {"type": "Point", "coordinates": [11.972077, 57.704263]}}, {"properties": {"stands": 6, "address": "Ullevigatan", "bikes": 19, "lon": 11.983638, "status": "OPEN", "update": "2015-12-21T11:41:50", "name": "ULLEVIGATAN", "lat": 57.707048}, "type": "Feature", "geometry": {"type": "Point", "coordinates": [11.983638, 57.707048]}}, {"properties": {"stands": 25, "address": "Gullbergsvass", "bikes": 15, "lon": 11.97472, "status": "OPEN", "update": "2015-12-21T11:35:44", "name": "GULLBERGSVASS", "lat": 57.716378}, "type": "Feature", "geometry": {"type": "Point", "coordinates": [11.97472, 57.716378]}}, {"properties": {"stands": 7, "address": "L\u00e4ppstiftet", "bikes": 22, "lon": 11.968013, "status": "OPEN", "update": "2015-12-21T11:36:44", "name": "L\u00c4PPSTIFTET", "lat": 57.713496}, "type": "Feature", "geometry": {"type": "Point", "coordinates": [11.968013, 57.713496]}}, {"properties": {"stands": 20, "address": "Carlanderplatsen", "bikes": 0, "lon": 11.98661, "status": "OPEN", "update": "2015-12-21T11:38:39", "name": "CARLANDERSPLATSEN", "lat": 57.69312}, "type": "Feature", "geometry": {"type": "Point", "coordinates": [11.98661, 57.69312]}}, {"properties": {"stands": 6, "address": "Packhusplatsen", "bikes": 14, "lon": 11.959101, "status": "OPEN", "update": "2015-12-21T11:40:13", "name": "PACKHUSPLATSEN", "lat": 57.706767}, "type": "Feature", "geometry": {"type": "Point", "coordinates": [11.959101, 57.706767]}}, {"properties": {"stands": 20, "address": "Eklanda/Utlandagatan", "bikes": 0, "lon": 11.98854, "status": "OPEN", "update": "2015-12-21T11:39:39", "name": "EKLANDA/UTLANDAGATAN", "lat": 57.69032}, "type": "Feature", "geometry": {"type": "Point", "coordinates": [11.98854, 57.69032]}}, {"properties": {"stands": 15, "address": "Linn\u00e9platsen", "bikes": 4, "lon": 11.95165, "status": "OPEN", "update": "2015-12-21T11:37:08", "name": "LINN\u00c9PLATSEN", "lat": 57.690278}, "type": "Feature", "geometry": {"type": "Point", "coordinates": [11.95165, 57.690278]}}, {"properties": {"stands": 11, "address": "Kapellplatsen", "bikes": 17, "lon": 11.97199, "status": "OPEN", "update": "2015-12-21T11:44:13", "name": "KAPELLPLATSEN", "lat": 57.69358}, "type": "Feature", "geometry": {"type": "Point", "coordinates": [11.97199, 57.69358]}}, {"properties": {"stands": 20, "address": "F\u00f6reningsgatan", "bikes": 0, "lon": 11.961987, "status": "OPEN", "update": "2015-12-21T11:43:13", "name": "F\u00d6RENINGSGATAN", "lat": 57.694554}, "type": "Feature", "geometry": {"type": "Point", "coordinates": [11.961987, 57.694554]}}, {"properties": {"stands": 12, "address": "Hagabion", "bikes": 8, "lon": 11.951009, "status": "OPEN", "update": "2015-12-21T11:41:38", "name": "HAGABION", "lat": 57.696837}, "type": "Feature", "geometry": {"type": "Point", "coordinates": [11.951009, 57.696837]}}, {"properties": {"stands": 8, "address": "Alstr\u00f6mer/Friggagatan", "bikes": 12, "lon": 11.98798, "status": "OPEN", "update": "2015-12-21T11:41:37", "name": "ALSTR\u00d6MER/FRIGGAGATAN", "lat": 57.71119}, "type": "Feature", "geometry": {"type": "Point", "coordinates": [11.98798, 57.71119]}}, {"properties": {"stands": 20, "address": "Svingeln", "bikes": 0, "lon": 11.990553, "status": "OPEN", "update": "2015-12-21T11:40:18", "name": "SVINGELN", "lat": 57.712435}, "type": "Feature", "geometry": {"type": "Point", "coordinates": [11.990553, 57.712435]}}, {"properties": {"stands": 9, "address": "Rosenlundsplatsen", "bikes": 11, "lon": 11.960571, "status": "OPEN", "update": "2015-12-21T11:40:55", "name": "ROSENLUNDSPLATSEN", "lat": 57.700685}, "type": "Feature", "geometry": {"type": "Point", "coordinates": [11.960571, 57.700685]}}, {"properties": {"stands": 20, "address": "Heden/Stensturegatan", "bikes": 10, "lon": 11.98021, "status": "OPEN", "update": "2015-12-21T11:39:46", "name": "HEDEN/STENSTUREGATAN", "lat": 57.702955}, "type": "Feature", "geometry": {"type": "Point", "coordinates": [11.98021, 57.702955]}}, {"properties": {"stands": 11, "address": "D\u00e4mmeplatsen", "bikes": 9, "lon": 11.99039, "status": "OPEN", "update": "2015-12-21T11:43:47", "name": "D\u00c4MMEPLATSEN", "lat": 57.70701}, "type": "Feature", "geometry": {"type": "Point", "coordinates": [11.99039, 57.70701]}}, {"properties": {"stands": 16, "address": "Drottningtorget", "bikes": 4, "lon": 11.972737, "status": "OPEN", "update": "2015-12-21T11:37:34", "name": "DROTTNINGTORGET", "lat": 57.708074}, "type": "Feature", "geometry": {"type": "Point", "coordinates": [11.972737, 57.708074]}}, {"properties": {"stands": 6, "address": "Masthuggstorget", "bikes": 34, "lon": 11.941861, "status": "OPEN", "update": "2015-12-21T11:44:12", "name": "MASTHUGGSTORGET", "lat": 57.699415}, "type": "Feature", "geometry": {"type": "Point", "coordinates": [11.941861, 57.699415]}}, {"properties": {"stands": 19, "address": "Berzeliigatan", "bikes": 1, "lon": 11.98096, "status": "OPEN", "update": "2015-12-21T11:40:46", "name": "BERZELIIGATAN", "lat": 57.69794}, "type": "Feature", "geometry": {"type": "Point", "coordinates": [11.98096, 57.69794]}}, {"properties": {"stands": 15, "address": "Rosenlund/F\u00e4rgel\u00e4get", "bikes": 15, "lon": 11.952395, "status": "OPEN", "update": "2015-12-21T11:45:14", "name": "ROSENLUND/F\u00c4RJEL\u00c4GET", "lat": 57.702301}, "type": "Feature", "geometry": {"type": "Point", "coordinates": [11.952395, 57.702301]}}, {"properties": {"stands": 7, "address": "Gr\u00f6nsakstorget", "bikes": 18, "lon": 11.965179, "status": "OPEN", "update": "2015-12-21T11:38:12", "name": "GR\u00d6NSAKSTORGET", "lat": 57.702459}, "type": "Feature", "geometry": {"type": "Point", "coordinates": [11.965179, 57.702459]}}, {"properties": {"stands": 19, "address": "F\u00f6rstal\u00e5ng/V\u00e4rmlandsgatan", "bikes": 4, "lon": 11.946097, "status": "OPEN", "update": "2015-12-21T11:39:59", "name": "F\u00d6RSTAL\u00c5NG/V\u00c4RMLANDSGATAN", "lat": 57.699968}, "type": "Feature", "geometry": {"type": "Point", "coordinates": [11.946097, 57.699968]}}, {"properties": {"stands": 1, "address": "Bergakungen", "bikes": 19, "lon": 11.985035, "status": "OPEN", "update": "2015-12-21T11:38:56", "name": "BERGAKUNGEN", "lat": 57.702135}, "type": "Feature", "geometry": {"type": "Point", "coordinates": [11.985035, 57.702135]}}, {"properties": {"stands": 23, "address": "Storan", "bikes": 17, "lon": 11.971552, "status": "OPEN", "update": "2015-12-21T11:41:14", "name": "STORAN", "lat": 57.702482}, "type": "Feature", "geometry": {"type": "Point", "coordinates": [11.971552, 57.702482]}}, {"properties": {"stands": 5, "address": "Frig\u00e5ngsgatan", "bikes": 15, "lon": 11.952905, "status": "OPEN", "update": "2015-12-21T11:45:10", "name": "FRIG\u00c5NGSGATAN", "lat": 57.697821}, "type": "Feature", "geometry": {"type": "Point", "coordinates": [11.952905, 57.697821]}}, {"properties": {"stands": 8, "address": "Kastellgatan", "bikes": 12, "lon": 11.955692, "status": "OPEN", "update": "2015-12-21T11:41:51", "name": "KASTELLGATAN", "lat": 57.693029}, "type": "Feature", "geometry": {"type": "Point", "coordinates": [11.955692, 57.693029]}}, {"properties": {"stands": 15, "address": "Lilla Bommen", "bikes": 5, "lon": 11.966574, "status": "OPEN", "update": "2015-12-21T11:43:25", "name": "LILLA BOMMEN", "lat": 57.711547}, "type": "Feature", "geometry": {"type": "Point", "coordinates": [11.966574, 57.711547]}}, {"properties": {"stands": 16, "address": "Vasagatan/Heden", "bikes": 9, "lon": 11.9766, "status": "OPEN", "update": "2015-12-21T11:38:48", "name": "VASAGATAN/HEDEN", "lat": 57.701419}, "type": "Feature", "geometry": {"type": "Point", "coordinates": [11.9766, 57.701419]}}, {"properties": {"stands": 12, "address": "Posthuset/\u00c5kareplatsen", "bikes": 8, "lon": 11.976117, "status": "OPEN", "update": "2015-12-21T11:44:19", "name": "POSTHUSET/\u00c5KAREPLATSEN", "lat": 57.707647}, "type": "Feature", "geometry": {"type": "Point", "coordinates": [11.976117, 57.707647]}}, {"properties": {"stands": 27, "address": "Skanstorget", "bikes": 3, "lon": 11.958548, "status": "OPEN", "update": "2015-12-21T11:37:11", "name": "SKANSTORGET", "lat": 57.695909}, "type": "Feature", "geometry": {"type": "Point", "coordinates": [11.958548, 57.695909]}}, {"properties": {"stands": 22, "address": "Hagaparken", "bikes": 2, "lon": 11.962405, "status": "OPEN", "update": "2015-12-21T11:43:55", "name": "HAGAPARKEN", "lat": 57.697984}, "type": "Feature", "geometry": {"type": "Point", "coordinates": [11.962405, 57.697984]}}, {"properties": {"stands": 8, "address": "Engelbrektsgatan", "bikes": 7, "lon": 11.97694, "status": "OPEN", "update": "2015-12-21T11:42:23", "name": "ENGELBREKTSGATAN", "lat": 57.69841}, "type": "Feature", "geometry": {"type": "Point", "coordinates": [11.97694, 57.69841]}}, {"properties": {"stands": 4, "address": "\u00c5v\u00e4gen", "bikes": 16, "lon": 11.992191, "status": "OPEN", "update": "2015-12-21T11:36:30", "name": "\u00c5V\u00c4GEN", "lat": 57.701249}, "type": "Feature", "geometry": {"type": "Point", "coordinates": [11.992191, 57.701249]}}, {"properties": {"stands": 16, "address": "Tredjel\u00e5ng/V\u00e4rmlandsgatan", "bikes": 9, "lon": 11.946208, "status": "OPEN", "update": "2015-12-21T11:37:55", "name": "TREDJEL\u00c5NG/V\u00c4RMLANDSGATAN", "lat": 57.698261}, "type": "Feature", "geometry": {"type": "Point", "coordinates": [11.946208, 57.698261]}}, {"properties": {"stands": 19, "address": "Heden Syd", "bikes": 1, "lon": 11.979867, "status": "OPEN", "update": "2015-12-21T11:41:15", "name": "HEDEN SYD", "lat": 57.699941}, "type": "Feature", "geometry": {"type": "Point", "coordinates": [11.979867, 57.699941]}}, {"properties": {"stands": 31, "address": "Gibraltargatan/Eklandagatan", "bikes": 8, "lon": 11.98322, "status": "OPEN", "update": "2015-12-21T11:41:58", "name": "GIBRALTARG/EKLANDAG", "lat": 57.68542}, "type": "Feature", "geometry": {"type": "Point", "coordinates": [11.98322, 57.68542]}}, {"properties": {"stands": 12, "address": "Korsv\u00e4gen 1/S\u00f6dra V\u00e4gen", "bikes": 18, "lon": 11.985703, "status": "OPEN", "update": "2015-12-21T11:38:35", "name": "KORSV\u00c4GEN /S\u00d6DRA V\u00c4GEN", "lat": 57.696916}, "type": "Feature", "geometry": {"type": "Point", "coordinates": [11.985703, 57.696916]}}, {"properties": {"stands": 18, "address": "Molinsgatan", "bikes": 2, "lon": 11.97234, "status": "OPEN", "update": "2015-12-18T23:47:01", "name": "MOLINSGATAN", "lat": 57.69691}, "type": "Feature", "geometry": {"type": "Point", "coordinates": [11.97234, 57.69691]}}, {"properties": {"stands": 22, "address": "Nils-Ericsson Terminalen", "bikes": 12, "lon": 11.970787, "status": "OPEN", "update": "2015-12-21T11:41:04", "name": "NILS-ERICSSON TERMINALEN", "lat": 57.709752}, "type": "Feature", "geometry": {"type": "Point", "coordinates": [11.970787, 57.709752]}}, {"properties": {"stands": 22, "address": "Vasagatan/Schillerska", "bikes": 3, "lon": 11.967115, "status": "OPEN", "update": "2015-12-21T11:36:14", "name": "VASAGATAN/SCHILLERSKA", "lat": 57.698265}, "type": "Feature", "geometry": {"type": "Point", "coordinates": [11.967115, 57.698265]}}], "type": "FeatureCollection"}