<<<<<<< HEAD
{"features": [{"geometry": {"coordinates": [11.97305, 57.68979], "type": "Point"}, "properties": {"stands": 50, "lat": 57.68979, "update": "2016-02-06T12:48:33", "status": "CLOSED", "bikes": 0, "address": "Chalmersplatsen", "name": "CHALMERSPLATSEN", "lon": 11.97305}, "type": "Feature"}, {"geometry": {"coordinates": [11.97974, 57.68953], "type": "Point"}, "properties": {"stands": 20, "lat": 57.68953, "update": "2016-02-06T12:47:51", "status": "CLOSED", "bikes": 0, "address": "Chalmers Tv\u00e4rgata", "name": "CHALMERS TV\u00c4RGATA", "lon": 11.97974}, "type": "Feature"}, {"geometry": {"coordinates": [11.968875, 57.702542], "type": "Point"}, "properties": {"stands": 20, "lat": 57.702542, "update": "2016-02-06T12:46:11", "status": "CLOSED", "bikes": 0, "address": "Kungstorget", "name": "KUNGSTORGET", "lon": 11.968875}, "type": "Feature"}, {"geometry": {"coordinates": [11.963926, 57.707476], "type": "Point"}, "properties": {"stands": 20, "lat": 57.707476, "update": "2016-02-06T12:49:05", "status": "CLOSED", "bikes": 0, "address": "Postgatan", "name": "POSTGATAN", "lon": 11.963926}, "type": "Feature"}, {"geometry": {"coordinates": [11.969008, 57.704639], "type": "Point"}, "properties": {"stands": 27, "lat": 57.704639, "update": "2016-02-06T12:49:08", "status": "CLOSED", "bikes": 0, "address": "\u00d6stra hamngatan", "name": "\u00d6STRA HAMNGATAN", "lon": 11.969008}, "type": "Feature"}, {"geometry": {"coordinates": [11.984298, 57.70452], "type": "Point"}, "properties": {"stands": 20, "lat": 57.70452, "update": "2016-02-06T12:42:16", "status": "CLOSED", "bikes": 0, "address": "Bohusgatan", "name": "BOHUSGATAN", "lon": 11.984298}, "type": "Feature"}, {"geometry": {"coordinates": [11.958559, 57.693517], "type": "Point"}, "properties": {"stands": 20, "lat": 57.693517, "update": "2016-02-06T12:47:36", "status": "CLOSED", "bikes": 0, "address": "Brunnsgatan", "name": "BRUNNSGATAN", "lon": 11.958559}, "type": "Feature"}, {"geometry": {"coordinates": [11.95364, 57.700662], "type": "Point"}, "properties": {"stands": 31, "lat": 57.700662, "update": "2016-02-06T12:50:28", "status": "CLOSED", "bikes": 0, "address": "Olof Palmes Plats", "name": "OLOF PALMES PLATS", "lon": 11.95364}, "type": "Feature"}, {"geometry": {"coordinates": [11.97451, 57.69418], "type": "Point"}, "properties": {"stands": 40, "lat": 57.69418, "update": "2016-02-06T12:41:57", "status": "CLOSED", "bikes": 0, "address": "L\u00e4raregatan/Molinsgatan", "name": "L\u00c4RAREGATAN/MOLINSGATAN", "lon": 11.97451}, "type": "Feature"}, {"geometry": {"coordinates": [11.992441, 57.704675], "type": "Point"}, "properties": {"stands": 20, "lat": 57.704675, "update": "2016-02-06T12:50:16", "status": "CLOSED", "bikes": 0, "address": "G\u00e5rdatorget", "name": "G\u00c5RDATORGET", "lon": 11.992441}, "type": "Feature"}, {"geometry": {"coordinates": [11.973429, 57.700324], "type": "Point"}, "properties": {"stands": 20, "lat": 57.700324, "update": "2016-02-06T12:45:23", "status": "CLOSED", "bikes": 0, "address": "Valand", "name": "VALAND", "lon": 11.973429}, "type": "Feature"}, {"geometry": {"coordinates": [11.9806, 57.71185], "type": "Point"}, "properties": {"stands": 20, "lat": 57.71185, "update": "2016-02-06T12:48:54", "status": "CLOSED", "bikes": 0, "address": "Kruthusgatan", "name": "KRUTHUSGATAN", "lon": 11.9806}, "type": "Feature"}, {"geometry": {"coordinates": [11.976176, 57.699939], "type": "Point"}, "properties": {"stands": 25, "lat": 57.699939, "update": "2016-02-06T12:40:33", "status": "CLOSED", "bikes": 0, "address": "Kristinelundsgatan", "name": "KRISTINELUNDSGATAN", "lon": 11.976176}, "type": "Feature"}, {"geometry": {"coordinates": [11.96012, 57.70337], "type": "Point"}, "properties": {"stands": 20, "lat": 57.70337, "update": "2016-02-06T12:49:05", "status": "CLOSED", "bikes": 0, "address": "Kungsgatan/Telekasern", "name": "KUNGSGATAN/TELEKASERN", "lon": 11.96012}, "type": "Feature"}, {"geometry": {"coordinates": [11.96388, 57.70434], "type": "Point"}, "properties": {"stands": 8, "lat": 57.70434, "update": "2016-01-20T23:24:43", "status": "CLOSED", "bikes": 0, "address": "Domkyrkan", "name": "DOMKYRKAN", "lon": 11.96388}, "type": "Feature"}, {"geometry": {"coordinates": [11.966421, 57.710396], "type": "Point"}, "properties": {"stands": 25, "lat": 57.710396, "update": "2016-02-06T12:46:11", "status": "CLOSED", "bikes": 0, "address": "Kanaltorget", "name": "KANALTORGET", "lon": 11.966421}, "type": "Feature"}, {"geometry": {"coordinates": [11.98472, 57.70884], "type": "Point"}, "properties": {"stands": 20, "lat": 57.70884, "update": "2016-02-06T12:47:41", "status": "CLOSED", "bikes": 0, "address": "Folkungagatan", "name": "FOLKUNGAGATAN", "lon": 11.98472}, "type": "Feature"}, {"geometry": {"coordinates": [11.973347, 57.713714], "type": "Point"}, "properties": {"stands": 23, "lat": 57.713714, "update": "2016-02-06T12:49:01", "status": "CLOSED", "bikes": 0, "address": "Kilsgatan", "name": "KILSGATAN", "lon": 11.973347}, "type": "Feature"}, {"geometry": {"coordinates": [11.956468, 57.698949], "type": "Point"}, "properties": {"stands": 25, "lat": 57.698949, "update": "2016-02-06T12:48:28", "status": "CLOSED", "bikes": 0, "address": "Kaponj\u00e4rsgatan", "name": "KAPONJ\u00c4RSGATAN", "lon": 11.956468}, "type": "Feature"}, {"geometry": {"coordinates": [11.990748, 57.704535], "type": "Point"}, "properties": {"stands": 31, "lat": 57.704535, "update": "2016-02-06T12:47:59", "status": "CLOSED", "bikes": 0, "address": "\u00c5v\u00e4gen Norra", "name": "\u00c5V\u00c4GEN NORRA", "lon": 11.990748}, "type": "Feature"}, {"geometry": {"coordinates": [11.973448, 57.707316], "type": "Point"}, "properties": {"stands": 20, "lat": 57.707316, "update": "2016-02-06T12:42:44", "status": "CLOSED", "bikes": 0, "address": "Slussplatsen", "name": "SLUSSPLATSEN", "lon": 11.973448}, "type": "Feature"}, {"geometry": {"coordinates": [11.987833, 57.696555], "type": "Point"}, "properties": {"stands": 25, "lat": 57.696555, "update": "2016-02-06T12:44:41", "status": "CLOSED", "bikes": 0, "address": "Korsv\u00e4gen 2", "name": "KORSV\u00c4GEN", "lon": 11.987833}, "type": "Feature"}, {"geometry": {"coordinates": [11.955461, 57.702793], "type": "Point"}, "properties": {"stands": 27, "lat": 57.702793, "update": "2016-02-06T12:45:42", "status": "CLOSED", "bikes": 0, "address": "008_ESPERANTOPLATSEN", "name": "ESPERANTOPLATSEN", "lon": 11.955461}, "type": "Feature"}, {"geometry": {"coordinates": [11.995107, 57.697923], "type": "Point"}, "properties": {"stands": 30, "lat": 57.697923, "update": "2016-02-06T12:47:30", "status": "CLOSED", "bikes": 0, "address": "Liseberg Station", "name": "LISEBERG STATION", "lon": 11.995107}, "type": "Feature"}, {"geometry": {"coordinates": [11.987908, 57.700094], "type": "Point"}, "properties": {"stands": 30, "lat": 57.700094, "update": "2016-02-06T12:44:12", "status": "CLOSED", "bikes": 0, "address": "Scandinavium", "name": "SCANDINAVIUM", "lon": 11.987908}, "type": "Feature"}, {"geometry": {"coordinates": [11.947047, 57.689983], "type": "Point"}, "properties": {"stands": 25, "lat": 57.689983, "update": "2016-02-06T12:45:51", "status": "CLOSED", "bikes": 0, "address": "Slottskogen/Plikta", "name": "SLOTTSKOGEN/PLIKTA", "lon": 11.947047}, "type": "Feature"}, {"geometry": {"coordinates": [11.967502, 57.707233], "type": "Point"}, "properties": {"stands": 40, "lat": 57.707233, "update": "2016-02-06T12:50:19", "status": "CLOSED", "bikes": 0, "address": "Gustaf Adolfs Torg", "name": "GUSTAF ADOLFS TORG", "lon": 11.967502}, "type": "Feature"}, {"geometry": {"coordinates": [11.972077, 57.704263], "type": "Point"}, "properties": {"stands": 20, "lat": 57.704263, "update": "2016-02-06T12:41:49", "status": "CLOSED", "bikes": 0, "address": "Bastionsplatsen", "name": "BASTIONSPLATSEN", "lon": 11.972077}, "type": "Feature"}, {"geometry": {"coordinates": [11.983638, 57.707048], "type": "Point"}, "properties": {"stands": 25, "lat": 57.707048, "update": "2016-02-06T12:49:55", "status": "CLOSED", "bikes": 0, "address": "Ullevigatan", "name": "ULLEVIGATAN", "lon": 11.983638}, "type": "Feature"}, {"geometry": {"coordinates": [11.97472, 57.716378], "type": "Point"}, "properties": {"stands": 40, "lat": 57.716378, "update": "2016-02-06T12:48:39", "status": "CLOSED", "bikes": 0, "address": "Gullbergsvass", "name": "GULLBERGSVASS", "lon": 11.97472}, "type": "Feature"}, {"geometry": {"coordinates": [11.968013, 57.713496], "type": "Point"}, "properties": {"stands": 29, "lat": 57.713496, "update": "2016-02-06T12:49:08", "status": "CLOSED", "bikes": 0, "address": "L\u00e4ppstiftet", "name": "L\u00c4PPSTIFTET", "lon": 11.968013}, "type": "Feature"}, {"geometry": {"coordinates": [11.98661, 57.69312], "type": "Point"}, "properties": {"stands": 20, "lat": 57.69312, "update": "2016-02-06T12:42:32", "status": "CLOSED", "bikes": 0, "address": "Carlanderplatsen", "name": "CARLANDERSPLATSEN", "lon": 11.98661}, "type": "Feature"}, {"geometry": {"coordinates": [11.959101, 57.706767], "type": "Point"}, "properties": {"stands": 20, "lat": 57.706767, "update": "2016-02-06T12:47:59", "status": "CLOSED", "bikes": 0, "address": "Packhusplatsen", "name": "PACKHUSPLATSEN", "lon": 11.959101}, "type": "Feature"}, {"geometry": {"coordinates": [11.98854, 57.69032], "type": "Point"}, "properties": {"stands": 20, "lat": 57.69032, "update": "2016-02-06T12:48:56", "status": "CLOSED", "bikes": 0, "address": "Eklanda/Utlandagatan", "name": "EKLANDA/UTLANDAGATAN", "lon": 11.98854}, "type": "Feature"}, {"geometry": {"coordinates": [11.95165, 57.690278], "type": "Point"}, "properties": {"stands": 20, "lat": 57.690278, "update": "2016-02-06T12:48:06", "status": "CLOSED", "bikes": 0, "address": "Linn\u00e9platsen", "name": "LINN\u00c9PLATSEN", "lon": 11.95165}, "type": "Feature"}, {"geometry": {"coordinates": [11.97199, 57.69358], "type": "Point"}, "properties": {"stands": 28, "lat": 57.69358, "update": "2016-02-06T12:46:59", "status": "CLOSED", "bikes": 0, "address": "Kapellplatsen", "name": "KAPELLPLATSEN", "lon": 11.97199}, "type": "Feature"}, {"geometry": {"coordinates": [11.961987, 57.694554], "type": "Point"}, "properties": {"stands": 20, "lat": 57.694554, "update": "2016-02-06T12:47:33", "status": "CLOSED", "bikes": 0, "address": "F\u00f6reningsgatan", "name": "F\u00d6RENINGSGATAN", "lon": 11.961987}, "type": "Feature"}, {"geometry": {"coordinates": [11.951009, 57.696837], "type": "Point"}, "properties": {"stands": 20, "lat": 57.696837, "update": "2016-02-06T12:49:41", "status": "CLOSED", "bikes": 0, "address": "Hagabion", "name": "HAGABION", "lon": 11.951009}, "type": "Feature"}, {"geometry": {"coordinates": [11.98798, 57.71119], "type": "Point"}, "properties": {"stands": 20, "lat": 57.71119, "update": "2016-02-06T12:49:58", "status": "CLOSED", "bikes": 0, "address": "Alstr\u00f6mer/Friggagatan", "name": "ALSTR\u00d6MER/FRIGGAGATAN", "lon": 11.98798}, "type": "Feature"}, {"geometry": {"coordinates": [11.990553, 57.712435], "type": "Point"}, "properties": {"stands": 20, "lat": 57.712435, "update": "2016-02-06T12:47:43", "status": "CLOSED", "bikes": 0, "address": "Svingeln", "name": "SVINGELN", "lon": 11.990553}, "type": "Feature"}, {"geometry": {"coordinates": [11.960571, 57.700685], "type": "Point"}, "properties": {"stands": 20, "lat": 57.700685, "update": "2016-02-06T12:47:08", "status": "CLOSED", "bikes": 0, "address": "Rosenlundsplatsen", "name": "ROSENLUNDSPLATSEN", "lon": 11.960571}, "type": "Feature"}, {"geometry": {"coordinates": [11.98021, 57.702955], "type": "Point"}, "properties": {"stands": 30, "lat": 57.702955, "update": "2016-02-06T12:47:25", "status": "CLOSED", "bikes": 0, "address": "Heden/Stensturegatan", "name": "HEDEN/STENSTUREGATAN", "lon": 11.98021}, "type": "Feature"}, {"geometry": {"coordinates": [11.99039, 57.70701], "type": "Point"}, "properties": {"stands": 20, "lat": 57.70701, "update": "2016-02-06T12:41:28", "status": "CLOSED", "bikes": 0, "address": "D\u00e4mmeplatsen", "name": "D\u00c4MMEPLATSEN", "lon": 11.99039}, "type": "Feature"}, {"geometry": {"coordinates": [11.972737, 57.708074], "type": "Point"}, "properties": {"stands": 20, "lat": 57.708074, "update": "2016-02-06T12:46:44", "status": "CLOSED", "bikes": 0, "address": "Drottningtorget", "name": "DROTTNINGTORGET", "lon": 11.972737}, "type": "Feature"}, {"geometry": {"coordinates": [11.941861, 57.699415], "type": "Point"}, "properties": {"stands": 40, "lat": 57.699415, "update": "2016-02-06T12:49:12", "status": "CLOSED", "bikes": 0, "address": "Masthuggstorget", "name": "MASTHUGGSTORGET", "lon": 11.941861}, "type": "Feature"}, {"geometry": {"coordinates": [11.98096, 57.69794], "type": "Point"}, "properties": {"stands": 20, "lat": 57.69794, "update": "2016-02-06T12:42:09", "status": "CLOSED", "bikes": 0, "address": "Berzeliigatan", "name": "BERZELIIGATAN", "lon": 11.98096}, "type": "Feature"}, {"geometry": {"coordinates": [11.952395, 57.702301], "type": "Point"}, "properties": {"stands": 30, "lat": 57.702301, "update": "2016-02-06T12:48:19", "status": "CLOSED", "bikes": 0, "address": "Rosenlund/F\u00e4rgel\u00e4get", "name": "ROSENLUND/F\u00c4RJEL\u00c4GET", "lon": 11.952395}, "type": "Feature"}, {"geometry": {"coordinates": [11.965179, 57.702459], "type": "Point"}, "properties": {"stands": 25, "lat": 57.702459, "update": "2016-02-06T12:48:08", "status": "CLOSED", "bikes": 0, "address": "Gr\u00f6nsakstorget", "name": "GR\u00d6NSAKSTORGET", "lon": 11.965179}, "type": "Feature"}, {"geometry": {"coordinates": [11.946097, 57.699968], "type": "Point"}, "properties": {"stands": 23, "lat": 57.699968, "update": "2016-02-06T12:48:44", "status": "CLOSED", "bikes": 0, "address": "F\u00f6rstal\u00e5ng/V\u00e4rmlandsgatan", "name": "F\u00d6RSTAL\u00c5NG/V\u00c4RMLANDSGATAN", "lon": 11.946097}, "type": "Feature"}, {"geometry": {"coordinates": [11.985035, 57.702135], "type": "Point"}, "properties": {"stands": 20, "lat": 57.702135, "update": "2016-02-06T12:50:06", "status": "CLOSED", "bikes": 0, "address": "Bergakungen", "name": "BERGAKUNGEN", "lon": 11.985035}, "type": "Feature"}, {"geometry": {"coordinates": [11.971552, 57.702482], "type": "Point"}, "properties": {"stands": 40, "lat": 57.702482, "update": "2016-02-06T12:44:04", "status": "CLOSED", "bikes": 0, "address": "Storan", "name": "STORAN", "lon": 11.971552}, "type": "Feature"}, {"geometry": {"coordinates": [11.952905, 57.697821], "type": "Point"}, "properties": {"stands": 20, "lat": 57.697821, "update": "2016-02-06T12:43:40", "status": "CLOSED", "bikes": 0, "address": "Frig\u00e5ngsgatan", "name": "FRIG\u00c5NGSGATAN", "lon": 11.952905}, "type": "Feature"}, {"geometry": {"coordinates": [11.955692, 57.693029], "type": "Point"}, "properties": {"stands": 20, "lat": 57.693029, "update": "2016-02-06T12:49:24", "status": "CLOSED", "bikes": 0, "address": "Kastellgatan", "name": "KASTELLGATAN", "lon": 11.955692}, "type": "Feature"}, {"geometry": {"coordinates": [11.966574, 57.711547], "type": "Point"}, "properties": {"stands": 20, "lat": 57.711547, "update": "2016-02-06T12:46:54", "status": "CLOSED", "bikes": 0, "address": "Lilla Bommen", "name": "LILLA BOMMEN", "lon": 11.966574}, "type": "Feature"}, {"geometry": {"coordinates": [11.9766, 57.701419], "type": "Point"}, "properties": {"stands": 25, "lat": 57.701419, "update": "2016-02-06T12:41:30", "status": "CLOSED", "bikes": 0, "address": "Vasagatan/Heden", "name": "VASAGATAN/HEDEN", "lon": 11.9766}, "type": "Feature"}, {"geometry": {"coordinates": [11.976117, 57.707647], "type": "Point"}, "properties": {"stands": 20, "lat": 57.707647, "update": "2016-02-06T12:43:38", "status": "CLOSED", "bikes": 0, "address": "Posthuset/\u00c5kareplatsen", "name": "POSTHUSET/\u00c5KAREPLATSEN", "lon": 11.976117}, "type": "Feature"}, {"geometry": {"coordinates": [11.958548, 57.695909], "type": "Point"}, "properties": {"stands": 30, "lat": 57.695909, "update": "2016-02-06T12:49:47", "status": "CLOSED", "bikes": 0, "address": "Skanstorget", "name": "SKANSTORGET", "lon": 11.958548}, "type": "Feature"}, {"geometry": {"coordinates": [11.962405, 57.697984], "type": "Point"}, "properties": {"stands": 25, "lat": 57.697984, "update": "2016-02-06T12:41:01", "status": "CLOSED", "bikes": 0, "address": "Hagaparken", "name": "HAGAPARKEN", "lon": 11.962405}, "type": "Feature"}, {"geometry": {"coordinates": [11.97694, 57.69841], "type": "Point"}, "properties": {"stands": 15, "lat": 57.69841, "update": "2016-02-06T12:49:15", "status": "CLOSED", "bikes": 0, "address": "Engelbrektsgatan", "name": "ENGELBREKTSGATAN", "lon": 11.97694}, "type": "Feature"}, {"geometry": {"coordinates": [11.992191, 57.701249], "type": "Point"}, "properties": {"stands": 20, "lat": 57.701249, "update": "2016-02-06T12:50:23", "status": "CLOSED", "bikes": 0, "address": "\u00c5v\u00e4gen", "name": "\u00c5V\u00c4GEN", "lon": 11.992191}, "type": "Feature"}, {"geometry": {"coordinates": [11.946208, 57.698261], "type": "Point"}, "properties": {"stands": 25, "lat": 57.698261, "update": "2016-02-06T12:49:53", "status": "CLOSED", "bikes": 0, "address": "Tredjel\u00e5ng/V\u00e4rmlandsgatan", "name": "TREDJEL\u00c5NG/V\u00c4RMLANDSGATAN", "lon": 11.946208}, "type": "Feature"}, {"geometry": {"coordinates": [11.979867, 57.699941], "type": "Point"}, "properties": {"stands": 20, "lat": 57.699941, "update": "2016-02-06T12:47:11", "status": "CLOSED", "bikes": 0, "address": "Heden Syd", "name": "HEDEN SYD", "lon": 11.979867}, "type": "Feature"}, {"geometry": {"coordinates": [11.98322, 57.68542], "type": "Point"}, "properties": {"stands": 40, "lat": 57.68542, "update": "2016-02-06T12:41:09", "status": "CLOSED", "bikes": 0, "address": "Gibraltargatan/Eklandagatan", "name": "GIBRALTARG/EKLANDAG", "lon": 11.98322}, "type": "Feature"}, {"geometry": {"coordinates": [11.985703, 57.696916], "type": "Point"}, "properties": {"stands": 32, "lat": 57.696916, "update": "2016-02-06T12:49:19", "status": "CLOSED", "bikes": 0, "address": "Korsv\u00e4gen 1/S\u00f6dra V\u00e4gen", "name": "KORSV\u00c4GEN /S\u00d6DRA V\u00c4GEN", "lon": 11.985703}, "type": "Feature"}, {"geometry": {"coordinates": [11.97234, 57.69691], "type": "Point"}, "properties": {"stands": 20, "lat": 57.69691, "update": "2016-02-04T05:07:53", "status": "CLOSED", "bikes": 0, "address": "Molinsgatan", "name": "MOLINSGATAN", "lon": 11.97234}, "type": "Feature"}, {"geometry": {"coordinates": [11.970787, 57.709752], "type": "Point"}, "properties": {"stands": 35, "lat": 57.709752, "update": "2016-02-06T12:48:56", "status": "CLOSED", "bikes": 0, "address": "Nils-Ericsson Terminalen", "name": "NILS-ERICSSON TERMINALEN", "lon": 11.970787}, "type": "Feature"}, {"geometry": {"coordinates": [11.967115, 57.698265], "type": "Point"}, "properties": {"stands": 25, "lat": 57.698265, "update": "2016-02-06T12:42:47", "status": "CLOSED", "bikes": 0, "address": "Vasagatan/Schillerska", "name": "VASAGATAN/SCHILLERSKA", "lon": 11.967115}, "type": "Feature"}], "type": "FeatureCollection"}
=======
{"type": "FeatureCollection", "features": [{"type": "Feature", "properties": {"lon": 11.97305, "stands": 50, "update": "2016-02-05T16:20:10", "bikes": 0, "lat": 57.68979, "status": "CLOSED", "address": "Chalmersplatsen", "name": "CHALMERSPLATSEN"}, "geometry": {"type": "Point", "coordinates": [11.97305, 57.68979]}}, {"type": "Feature", "properties": {"lon": 11.97974, "stands": 20, "update": "2016-02-05T16:20:10", "bikes": 0, "lat": 57.68953, "status": "CLOSED", "address": "Chalmers Tv\u00e4rgata", "name": "CHALMERS TV\u00c4RGATA"}, "geometry": {"type": "Point", "coordinates": [11.97974, 57.68953]}}, {"type": "Feature", "properties": {"lon": 11.968875, "stands": 20, "update": "2016-02-05T16:22:21", "bikes": 0, "lat": 57.702542, "status": "CLOSED", "address": "Kungstorget", "name": "KUNGSTORGET"}, "geometry": {"type": "Point", "coordinates": [11.968875, 57.702542]}}, {"type": "Feature", "properties": {"lon": 11.963926, "stands": 20, "update": "2016-02-05T16:21:26", "bikes": 0, "lat": 57.707476, "status": "CLOSED", "address": "Postgatan", "name": "POSTGATAN"}, "geometry": {"type": "Point", "coordinates": [11.963926, 57.707476]}}, {"type": "Feature", "properties": {"lon": 11.969008, "stands": 27, "update": "2016-02-05T16:17:53", "bikes": 0, "lat": 57.704639, "status": "CLOSED", "address": "\u00d6stra hamngatan", "name": "\u00d6STRA HAMNGATAN"}, "geometry": {"type": "Point", "coordinates": [11.969008, 57.704639]}}, {"type": "Feature", "properties": {"lon": 11.984298, "stands": 20, "update": "2016-02-05T16:24:10", "bikes": 0, "lat": 57.70452, "status": "CLOSED", "address": "Bohusgatan", "name": "BOHUSGATAN"}, "geometry": {"type": "Point", "coordinates": [11.984298, 57.70452]}}, {"type": "Feature", "properties": {"lon": 11.958559, "stands": 20, "update": "2016-02-05T16:24:40", "bikes": 0, "lat": 57.693517, "status": "CLOSED", "address": "Brunnsgatan", "name": "BRUNNSGATAN"}, "geometry": {"type": "Point", "coordinates": [11.958559, 57.693517]}}, {"type": "Feature", "properties": {"lon": 11.95364, "stands": 31, "update": "2016-02-05T16:22:08", "bikes": 0, "lat": 57.700662, "status": "CLOSED", "address": "Olof Palmes Plats", "name": "OLOF PALMES PLATS"}, "geometry": {"type": "Point", "coordinates": [11.95364, 57.700662]}}, {"type": "Feature", "properties": {"lon": 11.97451, "stands": 40, "update": "2016-02-05T16:23:51", "bikes": 0, "lat": 57.69418, "status": "CLOSED", "address": "L\u00e4raregatan/Molinsgatan", "name": "L\u00c4RAREGATAN/MOLINSGATAN"}, "geometry": {"type": "Point", "coordinates": [11.97451, 57.69418]}}, {"type": "Feature", "properties": {"lon": 11.992441, "stands": 20, "update": "2016-02-05T16:16:31", "bikes": 0, "lat": 57.704675, "status": "CLOSED", "address": "G\u00e5rdatorget", "name": "G\u00c5RDATORGET"}, "geometry": {"type": "Point", "coordinates": [11.992441, 57.704675]}}, {"type": "Feature", "properties": {"lon": 11.973429, "stands": 20, "update": "2016-02-05T16:17:59", "bikes": 0, "lat": 57.700324, "status": "CLOSED", "address": "Valand", "name": "VALAND"}, "geometry": {"type": "Point", "coordinates": [11.973429, 57.700324]}}, {"type": "Feature", "properties": {"lon": 11.9806, "stands": 20, "update": "2016-02-05T16:20:32", "bikes": 0, "lat": 57.71185, "status": "CLOSED", "address": "Kruthusgatan", "name": "KRUTHUSGATAN"}, "geometry": {"type": "Point", "coordinates": [11.9806, 57.71185]}}, {"type": "Feature", "properties": {"lon": 11.976176, "stands": 25, "update": "2016-02-05T16:22:16", "bikes": 0, "lat": 57.699939, "status": "CLOSED", "address": "Kristinelundsgatan", "name": "KRISTINELUNDSGATAN"}, "geometry": {"type": "Point", "coordinates": [11.976176, 57.699939]}}, {"type": "Feature", "properties": {"lon": 11.96012, "stands": 20, "update": "2016-02-05T16:20:44", "bikes": 0, "lat": 57.70337, "status": "CLOSED", "address": "Kungsgatan/Telekasern", "name": "KUNGSGATAN/TELEKASERN"}, "geometry": {"type": "Point", "coordinates": [11.96012, 57.70337]}}, {"type": "Feature", "properties": {"lon": 11.96388, "stands": 8, "update": "2016-01-20T23:24:43", "bikes": 0, "lat": 57.70434, "status": "CLOSED", "address": "Domkyrkan", "name": "DOMKYRKAN"}, "geometry": {"type": "Point", "coordinates": [11.96388, 57.70434]}}, {"type": "Feature", "properties": {"lon": 11.966421, "stands": 25, "update": "2016-02-05T16:17:46", "bikes": 0, "lat": 57.710396, "status": "CLOSED", "address": "Kanaltorget", "name": "KANALTORGET"}, "geometry": {"type": "Point", "coordinates": [11.966421, 57.710396]}}, {"type": "Feature", "properties": {"lon": 11.98472, "stands": 20, "update": "2016-02-05T16:20:04", "bikes": 0, "lat": 57.70884, "status": "CLOSED", "address": "Folkungagatan", "name": "FOLKUNGAGATAN"}, "geometry": {"type": "Point", "coordinates": [11.98472, 57.70884]}}, {"type": "Feature", "properties": {"lon": 11.973347, "stands": 23, "update": "2016-02-05T16:24:26", "bikes": 0, "lat": 57.713714, "status": "CLOSED", "address": "Kilsgatan", "name": "KILSGATAN"}, "geometry": {"type": "Point", "coordinates": [11.973347, 57.713714]}}, {"type": "Feature", "properties": {"lon": 11.956468, "stands": 25, "update": "2016-02-05T16:20:28", "bikes": 0, "lat": 57.698949, "status": "CLOSED", "address": "Kaponj\u00e4rsgatan", "name": "KAPONJ\u00c4RSGATAN"}, "geometry": {"type": "Point", "coordinates": [11.956468, 57.698949]}}, {"type": "Feature", "properties": {"lon": 11.990748, "stands": 31, "update": "2016-02-05T16:22:52", "bikes": 0, "lat": 57.704535, "status": "CLOSED", "address": "\u00c5v\u00e4gen Norra", "name": "\u00c5V\u00c4GEN NORRA"}, "geometry": {"type": "Point", "coordinates": [11.990748, 57.704535]}}, {"type": "Feature", "properties": {"lon": 11.973448, "stands": 20, "update": "2016-02-05T16:24:32", "bikes": 0, "lat": 57.707316, "status": "CLOSED", "address": "Slussplatsen", "name": "SLUSSPLATSEN"}, "geometry": {"type": "Point", "coordinates": [11.973448, 57.707316]}}, {"type": "Feature", "properties": {"lon": 11.987833, "stands": 25, "update": "2016-02-05T16:24:56", "bikes": 0, "lat": 57.696555, "status": "CLOSED", "address": "Korsv\u00e4gen 2", "name": "KORSV\u00c4GEN"}, "geometry": {"type": "Point", "coordinates": [11.987833, 57.696555]}}, {"type": "Feature", "properties": {"lon": 11.955461, "stands": 27, "update": "2016-02-05T16:17:02", "bikes": 0, "lat": 57.702793, "status": "CLOSED", "address": "008_ESPERANTOPLATSEN", "name": "ESPERANTOPLATSEN"}, "geometry": {"type": "Point", "coordinates": [11.955461, 57.702793]}}, {"type": "Feature", "properties": {"lon": 11.995107, "stands": 30, "update": "2016-02-05T16:19:10", "bikes": 0, "lat": 57.697923, "status": "CLOSED", "address": "Liseberg Station", "name": "LISEBERG STATION"}, "geometry": {"type": "Point", "coordinates": [11.995107, 57.697923]}}, {"type": "Feature", "properties": {"lon": 11.987908, "stands": 30, "update": "2016-02-05T16:17:21", "bikes": 0, "lat": 57.700094, "status": "CLOSED", "address": "Scandinavium", "name": "SCANDINAVIUM"}, "geometry": {"type": "Point", "coordinates": [11.987908, 57.700094]}}, {"type": "Feature", "properties": {"lon": 11.947047, "stands": 25, "update": "2016-02-05T16:17:44", "bikes": 0, "lat": 57.689983, "status": "CLOSED", "address": "Slottskogen/Plikta", "name": "SLOTTSKOGEN/PLIKTA"}, "geometry": {"type": "Point", "coordinates": [11.947047, 57.689983]}}, {"type": "Feature", "properties": {"lon": 11.967502, "stands": 40, "update": "2016-02-05T16:22:18", "bikes": 0, "lat": 57.707233, "status": "CLOSED", "address": "Gustaf Adolfs Torg", "name": "GUSTAF ADOLFS TORG"}, "geometry": {"type": "Point", "coordinates": [11.967502, 57.707233]}}, {"type": "Feature", "properties": {"lon": 11.972077, "stands": 20, "update": "2016-02-05T16:22:59", "bikes": 0, "lat": 57.704263, "status": "CLOSED", "address": "Bastionsplatsen", "name": "BASTIONSPLATSEN"}, "geometry": {"type": "Point", "coordinates": [11.972077, 57.704263]}}, {"type": "Feature", "properties": {"lon": 11.983638, "stands": 25, "update": "2016-02-05T16:22:50", "bikes": 0, "lat": 57.707048, "status": "CLOSED", "address": "Ullevigatan", "name": "ULLEVIGATAN"}, "geometry": {"type": "Point", "coordinates": [11.983638, 57.707048]}}, {"type": "Feature", "properties": {"lon": 11.97472, "stands": 40, "update": "2016-02-05T16:20:19", "bikes": 0, "lat": 57.716378, "status": "CLOSED", "address": "Gullbergsvass", "name": "GULLBERGSVASS"}, "geometry": {"type": "Point", "coordinates": [11.97472, 57.716378]}}, {"type": "Feature", "properties": {"lon": 11.968013, "stands": 29, "update": "2016-02-05T16:21:00", "bikes": 0, "lat": 57.713496, "status": "CLOSED", "address": "L\u00e4ppstiftet", "name": "L\u00c4PPSTIFTET"}, "geometry": {"type": "Point", "coordinates": [11.968013, 57.713496]}}, {"type": "Feature", "properties": {"lon": 11.98661, "stands": 20, "update": "2016-02-05T16:24:35", "bikes": 0, "lat": 57.69312, "status": "CLOSED", "address": "Carlanderplatsen", "name": "CARLANDERSPLATSEN"}, "geometry": {"type": "Point", "coordinates": [11.98661, 57.69312]}}, {"type": "Feature", "properties": {"lon": 11.959101, "stands": 20, "update": "2016-02-05T16:18:19", "bikes": 0, "lat": 57.706767, "status": "CLOSED", "address": "Packhusplatsen", "name": "PACKHUSPLATSEN"}, "geometry": {"type": "Point", "coordinates": [11.959101, 57.706767]}}, {"type": "Feature", "properties": {"lon": 11.98854, "stands": 20, "update": "2016-02-05T16:23:26", "bikes": 0, "lat": 57.69032, "status": "CLOSED", "address": "Eklanda/Utlandagatan", "name": "EKLANDA/UTLANDAGATAN"}, "geometry": {"type": "Point", "coordinates": [11.98854, 57.69032]}}, {"type": "Feature", "properties": {"lon": 11.95165, "stands": 20, "update": "2016-02-05T16:16:20", "bikes": 0, "lat": 57.690278, "status": "CLOSED", "address": "Linn\u00e9platsen", "name": "LINN\u00c9PLATSEN"}, "geometry": {"type": "Point", "coordinates": [11.95165, 57.690278]}}, {"type": "Feature", "properties": {"lon": 11.97199, "stands": 28, "update": "2016-02-05T16:19:26", "bikes": 0, "lat": 57.69358, "status": "CLOSED", "address": "Kapellplatsen", "name": "KAPELLPLATSEN"}, "geometry": {"type": "Point", "coordinates": [11.97199, 57.69358]}}, {"type": "Feature", "properties": {"lon": 11.961987, "stands": 20, "update": "2016-02-05T16:19:04", "bikes": 0, "lat": 57.694554, "status": "CLOSED", "address": "F\u00f6reningsgatan", "name": "F\u00d6RENINGSGATAN"}, "geometry": {"type": "Point", "coordinates": [11.961987, 57.694554]}}, {"type": "Feature", "properties": {"lon": 11.951009, "stands": 20, "update": "2016-02-05T16:21:24", "bikes": 0, "lat": 57.696837, "status": "CLOSED", "address": "Hagabion", "name": "HAGABION"}, "geometry": {"type": "Point", "coordinates": [11.951009, 57.696837]}}, {"type": "Feature", "properties": {"lon": 11.98798, "stands": 20, "update": "2016-02-05T16:22:56", "bikes": 0, "lat": 57.71119, "status": "CLOSED", "address": "Alstr\u00f6mer/Friggagatan", "name": "ALSTR\u00d6MER/FRIGGAGATAN"}, "geometry": {"type": "Point", "coordinates": [11.98798, 57.71119]}}, {"type": "Feature", "properties": {"lon": 11.990553, "stands": 20, "update": "2016-02-05T16:20:25", "bikes": 0, "lat": 57.712435, "status": "CLOSED", "address": "Svingeln", "name": "SVINGELN"}, "geometry": {"type": "Point", "coordinates": [11.990553, 57.712435]}}, {"type": "Feature", "properties": {"lon": 11.960571, "stands": 20, "update": "2016-02-05T16:20:29", "bikes": 0, "lat": 57.700685, "status": "CLOSED", "address": "Rosenlundsplatsen", "name": "ROSENLUNDSPLATSEN"}, "geometry": {"type": "Point", "coordinates": [11.960571, 57.700685]}}, {"type": "Feature", "properties": {"lon": 11.98021, "stands": 30, "update": "2016-02-05T16:23:27", "bikes": 0, "lat": 57.702955, "status": "CLOSED", "address": "Heden/Stensturegatan", "name": "HEDEN/STENSTUREGATAN"}, "geometry": {"type": "Point", "coordinates": [11.98021, 57.702955]}}, {"type": "Feature", "properties": {"lon": 11.99039, "stands": 20, "update": "2016-02-05T16:24:21", "bikes": 0, "lat": 57.70701, "status": "CLOSED", "address": "D\u00e4mmeplatsen", "name": "D\u00c4MMEPLATSEN"}, "geometry": {"type": "Point", "coordinates": [11.99039, 57.70701]}}, {"type": "Feature", "properties": {"lon": 11.972737, "stands": 20, "update": "2016-02-05T16:18:21", "bikes": 0, "lat": 57.708074, "status": "CLOSED", "address": "Drottningtorget", "name": "DROTTNINGTORGET"}, "geometry": {"type": "Point", "coordinates": [11.972737, 57.708074]}}, {"type": "Feature", "properties": {"lon": 11.941861, "stands": 40, "update": "2016-02-05T16:20:55", "bikes": 0, "lat": 57.699415, "status": "CLOSED", "address": "Masthuggstorget", "name": "MASTHUGGSTORGET"}, "geometry": {"type": "Point", "coordinates": [11.941861, 57.699415]}}, {"type": "Feature", "properties": {"lon": 11.98096, "stands": 20, "update": "2016-02-05T16:22:50", "bikes": 0, "lat": 57.69794, "status": "CLOSED", "address": "Berzeliigatan", "name": "BERZELIIGATAN"}, "geometry": {"type": "Point", "coordinates": [11.98096, 57.69794]}}, {"type": "Feature", "properties": {"lon": 11.952395, "stands": 30, "update": "2016-02-05T16:20:00", "bikes": 0, "lat": 57.702301, "status": "CLOSED", "address": "Rosenlund/F\u00e4rgel\u00e4get", "name": "ROSENLUND/F\u00c4RJEL\u00c4GET"}, "geometry": {"type": "Point", "coordinates": [11.952395, 57.702301]}}, {"type": "Feature", "properties": {"lon": 11.965179, "stands": 25, "update": "2016-02-05T16:20:33", "bikes": 0, "lat": 57.702459, "status": "CLOSED", "address": "Gr\u00f6nsakstorget", "name": "GR\u00d6NSAKSTORGET"}, "geometry": {"type": "Point", "coordinates": [11.965179, 57.702459]}}, {"type": "Feature", "properties": {"lon": 11.946097, "stands": 23, "update": "2016-02-05T16:20:01", "bikes": 0, "lat": 57.699968, "status": "CLOSED", "address": "F\u00f6rstal\u00e5ng/V\u00e4rmlandsgatan", "name": "F\u00d6RSTAL\u00c5NG/V\u00c4RMLANDSGATAN"}, "geometry": {"type": "Point", "coordinates": [11.946097, 57.699968]}}, {"type": "Feature", "properties": {"lon": 11.985035, "stands": 20, "update": "2016-02-05T16:22:24", "bikes": 0, "lat": 57.702135, "status": "CLOSED", "address": "Bergakungen", "name": "BERGAKUNGEN"}, "geometry": {"type": "Point", "coordinates": [11.985035, 57.702135]}}, {"type": "Feature", "properties": {"lon": 11.971552, "stands": 40, "update": "2016-02-05T16:18:21", "bikes": 0, "lat": 57.702482, "status": "CLOSED", "address": "Storan", "name": "STORAN"}, "geometry": {"type": "Point", "coordinates": [11.971552, 57.702482]}}, {"type": "Feature", "properties": {"lon": 11.952905, "stands": 20, "update": "2016-02-05T16:15:30", "bikes": 0, "lat": 57.697821, "status": "CLOSED", "address": "Frig\u00e5ngsgatan", "name": "FRIG\u00c5NGSGATAN"}, "geometry": {"type": "Point", "coordinates": [11.952905, 57.697821]}}, {"type": "Feature", "properties": {"lon": 11.955692, "stands": 20, "update": "2016-02-05T16:17:22", "bikes": 0, "lat": 57.693029, "status": "CLOSED", "address": "Kastellgatan", "name": "KASTELLGATAN"}, "geometry": {"type": "Point", "coordinates": [11.955692, 57.693029]}}, {"type": "Feature", "properties": {"lon": 11.966574, "stands": 20, "update": "2016-02-05T16:16:42", "bikes": 0, "lat": 57.711547, "status": "CLOSED", "address": "Lilla Bommen", "name": "LILLA BOMMEN"}, "geometry": {"type": "Point", "coordinates": [11.966574, 57.711547]}}, {"type": "Feature", "properties": {"lon": 11.9766, "stands": 25, "update": "2016-02-05T16:21:48", "bikes": 0, "lat": 57.701419, "status": "CLOSED", "address": "Vasagatan/Heden", "name": "VASAGATAN/HEDEN"}, "geometry": {"type": "Point", "coordinates": [11.9766, 57.701419]}}, {"type": "Feature", "properties": {"lon": 11.976117, "stands": 20, "update": "2016-02-05T16:25:25", "bikes": 0, "lat": 57.707647, "status": "CLOSED", "address": "Posthuset/\u00c5kareplatsen", "name": "POSTHUSET/\u00c5KAREPLATSEN"}, "geometry": {"type": "Point", "coordinates": [11.976117, 57.707647]}}, {"type": "Feature", "properties": {"lon": 11.958548, "stands": 30, "update": "2016-02-05T16:21:33", "bikes": 0, "lat": 57.695909, "status": "CLOSED", "address": "Skanstorget", "name": "SKANSTORGET"}, "geometry": {"type": "Point", "coordinates": [11.958548, 57.695909]}}, {"type": "Feature", "properties": {"lon": 11.962405, "stands": 25, "update": "2016-02-05T16:22:45", "bikes": 0, "lat": 57.697984, "status": "CLOSED", "address": "Hagaparken", "name": "HAGAPARKEN"}, "geometry": {"type": "Point", "coordinates": [11.962405, 57.697984]}}, {"type": "Feature", "properties": {"lon": 11.97694, "stands": 15, "update": "2016-02-05T16:20:48", "bikes": 0, "lat": 57.69841, "status": "CLOSED", "address": "Engelbrektsgatan", "name": "ENGELBREKTSGATAN"}, "geometry": {"type": "Point", "coordinates": [11.97694, 57.69841]}}, {"type": "Feature", "properties": {"lon": 11.992191, "stands": 20, "update": "2016-02-05T16:16:50", "bikes": 0, "lat": 57.701249, "status": "CLOSED", "address": "\u00c5v\u00e4gen", "name": "\u00c5V\u00c4GEN"}, "geometry": {"type": "Point", "coordinates": [11.992191, 57.701249]}}, {"type": "Feature", "properties": {"lon": 11.946208, "stands": 25, "update": "2016-02-05T16:17:26", "bikes": 0, "lat": 57.698261, "status": "CLOSED", "address": "Tredjel\u00e5ng/V\u00e4rmlandsgatan", "name": "TREDJEL\u00c5NG/V\u00c4RMLANDSGATAN"}, "geometry": {"type": "Point", "coordinates": [11.946208, 57.698261]}}, {"type": "Feature", "properties": {"lon": 11.979867, "stands": 20, "update": "2016-02-05T16:18:51", "bikes": 0, "lat": 57.699941, "status": "CLOSED", "address": "Heden Syd", "name": "HEDEN SYD"}, "geometry": {"type": "Point", "coordinates": [11.979867, 57.699941]}}, {"type": "Feature", "properties": {"lon": 11.98322, "stands": 40, "update": "2016-02-05T16:23:01", "bikes": 0, "lat": 57.68542, "status": "CLOSED", "address": "Gibraltargatan/Eklandagatan", "name": "GIBRALTARG/EKLANDAG"}, "geometry": {"type": "Point", "coordinates": [11.98322, 57.68542]}}, {"type": "Feature", "properties": {"lon": 11.985703, "stands": 32, "update": "2016-02-05T16:20:56", "bikes": 0, "lat": 57.696916, "status": "CLOSED", "address": "Korsv\u00e4gen 1/S\u00f6dra V\u00e4gen", "name": "KORSV\u00c4GEN /S\u00d6DRA V\u00c4GEN"}, "geometry": {"type": "Point", "coordinates": [11.985703, 57.696916]}}, {"type": "Feature", "properties": {"lon": 11.97234, "stands": 20, "update": "2016-02-04T05:07:53", "bikes": 0, "lat": 57.69691, "status": "CLOSED", "address": "Molinsgatan", "name": "MOLINSGATAN"}, "geometry": {"type": "Point", "coordinates": [11.97234, 57.69691]}}, {"type": "Feature", "properties": {"lon": 11.970787, "stands": 35, "update": "2016-02-05T16:21:12", "bikes": 0, "lat": 57.709752, "status": "CLOSED", "address": "Nils-Ericsson Terminalen", "name": "NILS-ERICSSON TERMINALEN"}, "geometry": {"type": "Point", "coordinates": [11.970787, 57.709752]}}, {"type": "Feature", "properties": {"lon": 11.967115, "stands": 25, "update": "2016-02-05T16:24:39", "bikes": 0, "lat": 57.698265, "status": "CLOSED", "address": "Vasagatan/Schillerska", "name": "VASAGATAN/SCHILLERSKA"}, "geometry": {"type": "Point", "coordinates": [11.967115, 57.698265]}}]}
>>>>>>> cfd44fe469bfa77a7acf8f5783e0815c7de93cf7
