{"type": "FeatureCollection", "features": [{"type": "Feature", "properties": {"status": "CLOSED", "lon": 11.97305, "address": "Chalmersplatsen", "name": "CHALMERSPLATSEN", "bikes": 0, "lat": 57.68979, "stands": 50, "update": "2016-02-06T17:50:54"}, "geometry": {"type": "Point", "coordinates": [11.97305, 57.68979]}}, {"type": "Feature", "properties": {"status": "CLOSED", "lon": 11.97974, "address": "Chalmers Tv\u00e4rgata", "name": "CHALMERS TV\u00c4RGATA", "bikes": 0, "lat": 57.68953, "stands": 20, "update": "2016-02-06T17:50:09"}, "geometry": {"type": "Point", "coordinates": [11.97974, 57.68953]}}, {"type": "Feature", "properties": {"status": "CLOSED", "lon": 11.968875, "address": "Kungstorget", "name": "KUNGSTORGET", "bikes": 0, "lat": 57.702542, "stands": 20, "update": "2016-02-06T17:48:32"}, "geometry": {"type": "Point", "coordinates": [11.968875, 57.702542]}}, {"type": "Feature", "properties": {"status": "CLOSED", "lon": 11.963926, "address": "Postgatan", "name": "POSTGATAN", "bikes": 0, "lat": 57.707476, "stands": 20, "update": "2016-02-06T17:51:25"}, "geometry": {"type": "Point", "coordinates": [11.963926, 57.707476]}}, {"type": "Feature", "properties": {"status": "CLOSED", "lon": 11.969008, "address": "\u00d6stra hamngatan", "name": "\u00d6STRA HAMNGATAN", "bikes": 0, "lat": 57.704639, "stands": 27, "update": "2016-02-06T17:51:29"}, "geometry": {"type": "Point", "coordinates": [11.969008, 57.704639]}}, {"type": "Feature", "properties": {"status": "CLOSED", "lon": 11.984298, "address": "Bohusgatan", "name": "BOHUSGATAN", "bikes": 0, "lat": 57.70452, "stands": 20, "update": "2016-02-06T17:44:30"}, "geometry": {"type": "Point", "coordinates": [11.984298, 57.70452]}}, {"type": "Feature", "properties": {"status": "CLOSED", "lon": 11.958559, "address": "Brunnsgatan", "name": "BRUNNSGATAN", "bikes": 0, "lat": 57.693517, "stands": 20, "update": "2016-02-06T17:49:42"}, "geometry": {"type": "Point", "coordinates": [11.958559, 57.693517]}}, {"type": "Feature", "properties": {"status": "CLOSED", "lon": 11.95364, "address": "Olof Palmes Plats", "name": "OLOF PALMES PLATS", "bikes": 0, "lat": 57.700662, "stands": 31, "update": "2016-02-06T17:52:49"}, "geometry": {"type": "Point", "coordinates": [11.95364, 57.700662]}}, {"type": "Feature", "properties": {"status": "CLOSED", "lon": 11.97451, "address": "L\u00e4raregatan/Molinsgatan", "name": "L\u00c4RAREGATAN/MOLINSGATAN", "bikes": 0, "lat": 57.69418, "stands": 40, "update": "2016-02-06T17:51:41"}, "geometry": {"type": "Point", "coordinates": [11.97451, 57.69418]}}, {"type": "Feature", "properties": {"status": "CLOSED", "lon": 11.992441, "address": "G\u00e5rdatorget", "name": "G\u00c5RDATORGET", "bikes": 0, "lat": 57.704675, "stands": 20, "update": "2016-02-06T17:50:03"}, "geometry": {"type": "Point", "coordinates": [11.992441, 57.704675]}}, {"type": "Feature", "properties": {"status": "CLOSED", "lon": 11.973429, "address": "Valand", "name": "VALAND", "bikes": 0, "lat": 57.700324, "stands": 20, "update": "2016-02-06T17:47:42"}, "geometry": {"type": "Point", "coordinates": [11.973429, 57.700324]}}, {"type": "Feature", "properties": {"status": "CLOSED", "lon": 11.9806, "address": "Kruthusgatan", "name": "KRUTHUSGATAN", "bikes": 0, "lat": 57.71185, "stands": 20, "update": "2016-02-06T17:51:14"}, "geometry": {"type": "Point", "coordinates": [11.9806, 57.71185]}}, {"type": "Feature", "properties": {"status": "CLOSED", "lon": 11.976176, "address": "Kristinelundsgatan", "name": "KRISTINELUNDSGATAN", "bikes": 0, "lat": 57.699939, "stands": 25, "update": "2016-02-06T17:52:51"}, "geometry": {"type": "Point", "coordinates": [11.976176, 57.699939]}}, {"type": "Feature", "properties": {"status": "CLOSED", "lon": 11.96012, "address": "Kungsgatan/Telekasern", "name": "KUNGSGATAN/TELEKASERN", "bikes": 0, "lat": 57.70337, "stands": 20, "update": "2016-02-06T17:51:25"}, "geometry": {"type": "Point", "coordinates": [11.96012, 57.70337]}}, {"type": "Feature", "properties": {"status": "CLOSED", "lon": 11.96388, "address": "Domkyrkan", "name": "DOMKYRKAN", "bikes": 0, "lat": 57.70434, "stands": 8, "update": "2016-01-20T23:24:43"}, "geometry": {"type": "Point", "coordinates": [11.96388, 57.70434]}}, {"type": "Feature", "properties": {"status": "CLOSED", "lon": 11.966421, "address": "Kanaltorget", "name": "KANALTORGET", "bikes": 0, "lat": 57.710396, "stands": 25, "update": "2016-02-06T17:48:31"}, "geometry": {"type": "Point", "coordinates": [11.966421, 57.710396]}}, {"type": "Feature", "properties": {"status": "CLOSED", "lon": 11.98472, "address": "Folkungagatan", "name": "FOLKUNGAGATAN", "bikes": 0, "lat": 57.70884, "stands": 20, "update": "2016-02-06T17:50:02"}, "geometry": {"type": "Point", "coordinates": [11.98472, 57.70884]}}, {"type": "Feature", "properties": {"status": "CLOSED", "lon": 11.973347, "address": "Kilsgatan", "name": "KILSGATAN", "bikes": 0, "lat": 57.713714, "stands": 23, "update": "2016-02-06T17:51:18"}, "geometry": {"type": "Point", "coordinates": [11.973347, 57.713714]}}, {"type": "Feature", "properties": {"status": "CLOSED", "lon": 11.956468, "address": "Kaponj\u00e4rsgatan", "name": "KAPONJ\u00c4RSGATAN", "bikes": 0, "lat": 57.698949, "stands": 25, "update": "2016-02-06T17:50:52"}, "geometry": {"type": "Point", "coordinates": [11.956468, 57.698949]}}, {"type": "Feature", "properties": {"status": "CLOSED", "lon": 11.990748, "address": "\u00c5v\u00e4gen Norra", "name": "\u00c5V\u00c4GEN NORRA", "bikes": 0, "lat": 57.704535, "stands": 31, "update": "2016-02-06T17:50:20"}, "geometry": {"type": "Point", "coordinates": [11.990748, 57.704535]}}, {"type": "Feature", "properties": {"status": "CLOSED", "lon": 11.973448, "address": "Slussplatsen", "name": "SLUSSPLATSEN", "bikes": 0, "lat": 57.707316, "stands": 20, "update": "2016-02-06T17:45:03"}, "geometry": {"type": "Point", "coordinates": [11.973448, 57.707316]}}, {"type": "Feature", "properties": {"status": "CLOSED", "lon": 11.987833, "address": "Korsv\u00e4gen 2", "name": "KORSV\u00c4GEN", "bikes": 0, "lat": 57.696555, "stands": 25, "update": "2016-02-06T17:51:51"}, "geometry": {"type": "Point", "coordinates": [11.987833, 57.696555]}}, {"type": "Feature", "properties": {"status": "CLOSED", "lon": 11.955461, "address": "008_ESPERANTOPLATSEN", "name": "ESPERANTOPLATSEN", "bikes": 0, "lat": 57.702793, "stands": 27, "update": "2016-02-06T17:48:11"}, "geometry": {"type": "Point", "coordinates": [11.955461, 57.702793]}}, {"type": "Feature", "properties": {"status": "CLOSED", "lon": 11.995107, "address": "Liseberg Station", "name": "LISEBERG STATION", "bikes": 0, "lat": 57.697923, "stands": 30, "update": "2016-02-06T17:49:03"}, "geometry": {"type": "Point", "coordinates": [11.995107, 57.697923]}}, {"type": "Feature", "properties": {"status": "CLOSED", "lon": 11.987908, "address": "Scandinavium", "name": "SCANDINAVIUM", "bikes": 0, "lat": 57.700094, "stands": 30, "update": "2016-02-06T17:46:27"}, "geometry": {"type": "Point", "coordinates": [11.987908, 57.700094]}}, {"type": "Feature", "properties": {"status": "CLOSED", "lon": 11.947047, "address": "Slottskogen/Plikta", "name": "SLOTTSKOGEN/PLIKTA", "bikes": 0, "lat": 57.689983, "stands": 25, "update": "2016-02-06T17:47:40"}, "geometry": {"type": "Point", "coordinates": [11.947047, 57.689983]}}, {"type": "Feature", "properties": {"status": "CLOSED", "lon": 11.967502, "address": "Gustaf Adolfs Torg", "name": "GUSTAF ADOLFS TORG", "bikes": 0, "lat": 57.707233, "stands": 40, "update": "2016-02-06T17:53:42"}, "geometry": {"type": "Point", "coordinates": [11.967502, 57.707233]}}, {"type": "Feature", "properties": {"status": "CLOSED", "lon": 11.972077, "address": "Bastionsplatsen", "name": "BASTIONSPLATSEN", "bikes": 0, "lat": 57.704263, "stands": 20, "update": "2016-02-06T17:54:13"}, "geometry": {"type": "Point", "coordinates": [11.972077, 57.704263]}}, {"type": "Feature", "properties": {"status": "CLOSED", "lon": 11.983638, "address": "Ullevigatan", "name": "ULLEVIGATAN", "bikes": 0, "lat": 57.707048, "stands": 25, "update": "2016-02-06T17:49:37"}, "geometry": {"type": "Point", "coordinates": [11.983638, 57.707048]}}, {"type": "Feature", "properties": {"status": "CLOSED", "lon": 11.97472, "address": "Gullbergsvass", "name": "GULLBERGSVASS", "bikes": 0, "lat": 57.716378, "stands": 40, "update": "2016-02-06T17:51:01"}, "geometry": {"type": "Point", "coordinates": [11.97472, 57.716378]}}, {"type": "Feature", "properties": {"status": "CLOSED", "lon": 11.968013, "address": "L\u00e4ppstiftet", "name": "L\u00c4PPSTIFTET", "bikes": 0, "lat": 57.713496, "stands": 29, "update": "2016-02-06T17:51:29"}, "geometry": {"type": "Point", "coordinates": [11.968013, 57.713496]}}, {"type": "Feature", "properties": {"status": "CLOSED", "lon": 11.98661, "address": "Carlanderplatsen", "name": "CARLANDERSPLATSEN", "bikes": 0, "lat": 57.69312, "stands": 20, "update": "2016-02-06T17:44:51"}, "geometry": {"type": "Point", "coordinates": [11.98661, 57.69312]}}, {"type": "Feature", "properties": {"status": "CLOSED", "lon": 11.959101, "address": "Packhusplatsen", "name": "PACKHUSPLATSEN", "bikes": 0, "lat": 57.706767, "stands": 20, "update": "2016-02-06T17:50:16"}, "geometry": {"type": "Point", "coordinates": [11.959101, 57.706767]}}, {"type": "Feature", "properties": {"status": "CLOSED", "lon": 11.98854, "address": "Eklanda/Utlandagatan", "name": "EKLANDA/UTLANDAGATAN", "bikes": 0, "lat": 57.69032, "stands": 20, "update": "2016-02-06T17:48:24"}, "geometry": {"type": "Point", "coordinates": [11.98854, 57.69032]}}, {"type": "Feature", "properties": {"status": "CLOSED", "lon": 11.95165, "address": "Linn\u00e9platsen", "name": "LINN\u00c9PLATSEN", "bikes": 0, "lat": 57.690278, "stands": 20, "update": "2016-02-06T17:45:19"}, "geometry": {"type": "Point", "coordinates": [11.95165, 57.690278]}}, {"type": "Feature", "properties": {"status": "CLOSED", "lon": 11.97199, "address": "Kapellplatsen", "name": "KAPELLPLATSEN", "bikes": 0, "lat": 57.69358, "stands": 28, "update": "2016-02-06T17:49:20"}, "geometry": {"type": "Point", "coordinates": [11.97199, 57.69358]}}, {"type": "Feature", "properties": {"status": "CLOSED", "lon": 11.961987, "address": "F\u00f6reningsgatan", "name": "F\u00d6RENINGSGATAN", "bikes": 0, "lat": 57.694554, "stands": 20, "update": "2016-02-06T17:49:57"}, "geometry": {"type": "Point", "coordinates": [11.961987, 57.694554]}}, {"type": "Feature", "properties": {"status": "CLOSED", "lon": 11.951009, "address": "Hagabion", "name": "HAGABION", "bikes": 0, "lat": 57.696837, "stands": 20, "update": "2016-02-06T17:52:01"}, "geometry": {"type": "Point", "coordinates": [11.951009, 57.696837]}}, {"type": "Feature", "properties": {"status": "CLOSED", "lon": 11.98798, "address": "Alstr\u00f6mer/Friggagatan", "name": "ALSTR\u00d6MER/FRIGGAGATAN", "bikes": 0, "lat": 57.71119, "stands": 20, "update": "2016-02-06T17:52:10"}, "geometry": {"type": "Point", "coordinates": [11.98798, 57.71119]}}, {"type": "Feature", "properties": {"status": "CLOSED", "lon": 11.990553, "address": "Svingeln", "name": "SVINGELN", "bikes": 0, "lat": 57.712435, "stands": 20, "update": "2016-02-06T17:49:26"}, "geometry": {"type": "Point", "coordinates": [11.990553, 57.712435]}}, {"type": "Feature", "properties": {"status": "CLOSED", "lon": 11.960571, "address": "Rosenlundsplatsen", "name": "ROSENLUNDSPLATSEN", "bikes": 0, "lat": 57.700685, "stands": 20, "update": "2016-02-06T17:49:30"}, "geometry": {"type": "Point", "coordinates": [11.960571, 57.700685]}}, {"type": "Feature", "properties": {"status": "CLOSED", "lon": 11.98021, "address": "Heden/Stensturegatan", "name": "HEDEN/STENSTUREGATAN", "bikes": 0, "lat": 57.702955, "stands": 30, "update": "2016-02-06T17:47:10"}, "geometry": {"type": "Point", "coordinates": [11.98021, 57.702955]}}, {"type": "Feature", "properties": {"status": "CLOSED", "lon": 11.99039, "address": "D\u00e4mmeplatsen", "name": "D\u00c4MMEPLATSEN", "bikes": 0, "lat": 57.70701, "stands": 20, "update": "2016-02-06T17:53:38"}, "geometry": {"type": "Point", "coordinates": [11.99039, 57.70701]}}, {"type": "Feature", "properties": {"status": "CLOSED", "lon": 11.972737, "address": "Drottningtorget", "name": "DROTTNINGTORGET", "bikes": 0, "lat": 57.708074, "stands": 20, "update": "2016-02-06T17:49:03"}, "geometry": {"type": "Point", "coordinates": [11.972737, 57.708074]}}, {"type": "Feature", "properties": {"status": "CLOSED", "lon": 11.941861, "address": "Masthuggstorget", "name": "MASTHUGGSTORGET", "bikes": 0, "lat": 57.699415, "stands": 40, "update": "2016-02-06T17:51:29"}, "geometry": {"type": "Point", "coordinates": [11.941861, 57.699415]}}, {"type": "Feature", "properties": {"status": "CLOSED", "lon": 11.98096, "address": "Berzeliigatan", "name": "BERZELIIGATAN", "bikes": 0, "lat": 57.69794, "stands": 20, "update": "2016-02-06T17:44:27"}, "geometry": {"type": "Point", "coordinates": [11.98096, 57.69794]}}, {"type": "Feature", "properties": {"status": "CLOSED", "lon": 11.952395, "address": "Rosenlund/F\u00e4rgel\u00e4get", "name": "ROSENLUND/F\u00c4RJEL\u00c4GET", "bikes": 0, "lat": 57.702301, "stands": 30, "update": "2016-02-06T17:50:39"}, "geometry": {"type": "Point", "coordinates": [11.952395, 57.702301]}}, {"type": "Feature", "properties": {"status": "CLOSED", "lon": 11.965179, "address": "Gr\u00f6nsakstorget", "name": "GR\u00d6NSAKSTORGET", "bikes": 0, "lat": 57.702459, "stands": 25, "update": "2016-02-06T17:50:28"}, "geometry": {"type": "Point", "coordinates": [11.965179, 57.702459]}}, {"type": "Feature", "properties": {"status": "CLOSED", "lon": 11.946097, "address": "F\u00f6rstal\u00e5ng/V\u00e4rmlandsgatan", "name": "F\u00d6RSTAL\u00c5NG/V\u00c4RMLANDSGATAN", "bikes": 0, "lat": 57.699968, "stands": 23, "update": "2016-02-06T17:50:55"}, "geometry": {"type": "Point", "coordinates": [11.946097, 57.699968]}}, {"type": "Feature", "properties": {"status": "CLOSED", "lon": 11.985035, "address": "Bergakungen", "name": "BERGAKUNGEN", "bikes": 0, "lat": 57.702135, "stands": 20, "update": "2016-02-06T17:52:26"}, "geometry": {"type": "Point", "coordinates": [11.985035, 57.702135]}}, {"type": "Feature", "properties": {"status": "CLOSED", "lon": 11.971552, "address": "Storan", "name": "STORAN", "bikes": 0, "lat": 57.702482, "stands": 40, "update": "2016-02-06T17:46:32"}, "geometry": {"type": "Point", "coordinates": [11.971552, 57.702482]}}, {"type": "Feature", "properties": {"status": "CLOSED", "lon": 11.952905, "address": "Frig\u00e5ngsgatan", "name": "FRIG\u00c5NGSGATAN", "bikes": 0, "lat": 57.697821, "stands": 20, "update": "2016-02-06T17:46:00"}, "geometry": {"type": "Point", "coordinates": [11.952905, 57.697821]}}, {"type": "Feature", "properties": {"status": "CLOSED", "lon": 11.955692, "address": "Kastellgatan", "name": "KASTELLGATAN", "bikes": 0, "lat": 57.693029, "stands": 20, "update": "2016-02-06T17:51:44"}, "geometry": {"type": "Point", "coordinates": [11.955692, 57.693029]}}, {"type": "Feature", "properties": {"status": "CLOSED", "lon": 11.966574, "address": "Lilla Bommen", "name": "LILLA BOMMEN", "bikes": 0, "lat": 57.711547, "stands": 20, "update": "2016-02-06T17:49:14"}, "geometry": {"type": "Point", "coordinates": [11.966574, 57.711547]}}, {"type": "Feature", "properties": {"status": "CLOSED", "lon": 11.9766, "address": "Vasagatan/Heden", "name": "VASAGATAN/HEDEN", "bikes": 0, "lat": 57.701419, "stands": 25, "update": "2016-02-06T17:53:54"}, "geometry": {"type": "Point", "coordinates": [11.9766, 57.701419]}}, {"type": "Feature", "properties": {"status": "CLOSED", "lon": 11.976117, "address": "Posthuset/\u00c5kareplatsen", "name": "POSTHUSET/\u00c5KAREPLATSEN", "bikes": 0, "lat": 57.707647, "stands": 20, "update": "2016-02-06T17:46:15"}, "geometry": {"type": "Point", "coordinates": [11.976117, 57.707647]}}, {"type": "Feature", "properties": {"status": "CLOSED", "lon": 11.958548, "address": "Skanstorget", "name": "SKANSTORGET", "bikes": 0, "lat": 57.695909, "stands": 30, "update": "2016-02-06T17:52:09"}, "geometry": {"type": "Point", "coordinates": [11.958548, 57.695909]}}, {"type": "Feature", "properties": {"status": "CLOSED", "lon": 11.962405, "address": "Hagaparken", "name": "HAGAPARKEN", "bikes": 0, "lat": 57.697984, "stands": 25, "update": "2016-02-06T17:53:39"}, "geometry": {"type": "Point", "coordinates": [11.962405, 57.697984]}}, {"type": "Feature", "properties": {"status": "CLOSED", "lon": 11.97694, "address": "Engelbrektsgatan", "name": "ENGELBREKTSGATAN", "bikes": 0, "lat": 57.69841, "stands": 15, "update": "2016-02-06T17:51:38"}, "geometry": {"type": "Point", "coordinates": [11.97694, 57.69841]}}, {"type": "Feature", "properties": {"status": "CLOSED", "lon": 11.992191, "address": "\u00c5v\u00e4gen", "name": "\u00c5V\u00c4GEN", "bikes": 0, "lat": 57.701249, "stands": 20, "update": "2016-02-06T17:52:37"}, "geometry": {"type": "Point", "coordinates": [11.992191, 57.701249]}}, {"type": "Feature", "properties": {"status": "CLOSED", "lon": 11.946208, "address": "Tredjel\u00e5ng/V\u00e4rmlandsgatan", "name": "TREDJEL\u00c5NG/V\u00c4RMLANDSGATAN", "bikes": 0, "lat": 57.698261, "stands": 25, "update": "2016-02-06T17:52:11"}, "geometry": {"type": "Point", "coordinates": [11.946208, 57.698261]}}, {"type": "Feature", "properties": {"status": "CLOSED", "lon": 11.979867, "address": "Heden Syd", "name": "HEDEN SYD", "bikes": 0, "lat": 57.699941, "stands": 20, "update": "2016-02-06T17:49:32"}, "geometry": {"type": "Point", "coordinates": [11.979867, 57.699941]}}, {"type": "Feature", "properties": {"status": "CLOSED", "lon": 11.98322, "address": "Gibraltargatan/Eklandagatan", "name": "GIBRALTARG/EKLANDAG", "bikes": 0, "lat": 57.68542, "stands": 40, "update": "2016-02-06T17:53:34"}, "geometry": {"type": "Point", "coordinates": [11.98322, 57.68542]}}, {"type": "Feature", "properties": {"status": "CLOSED", "lon": 11.985703, "address": "Korsv\u00e4gen 1/S\u00f6dra V\u00e4gen", "name": "KORSV\u00c4GEN /S\u00d6DRA V\u00c4GEN", "bikes": 0, "lat": 57.696916, "stands": 32, "update": "2016-02-06T17:51:38"}, "geometry": {"type": "Point", "coordinates": [11.985703, 57.696916]}}, {"type": "Feature", "properties": {"status": "CLOSED", "lon": 11.97234, "address": "Molinsgatan", "name": "MOLINSGATAN", "bikes": 0, "lat": 57.69691, "stands": 20, "update": "2016-02-04T05:07:53"}, "geometry": {"type": "Point", "coordinates": [11.97234, 57.69691]}}, {"type": "Feature", "properties": {"status": "CLOSED", "lon": 11.970787, "address": "Nils-Ericsson Terminalen", "name": "NILS-ERICSSON TERMINALEN", "bikes": 0, "lat": 57.709752, "stands": 35, "update": "2016-02-06T17:51:15"}, "geometry": {"type": "Point", "coordinates": [11.970787, 57.709752]}}, {"type": "Feature", "properties": {"status": "CLOSED", "lon": 11.967115, "address": "Vasagatan/Schillerska", "name": "VASAGATAN/SCHILLERSKA", "bikes": 0, "lat": 57.698265, "stands": 25, "update": "2016-02-06T17:45:06"}, "geometry": {"type": "Point", "coordinates": [11.967115, 57.698265]}}]}