{"features": [{"properties": {"bikes": 4, "status": "OPEN", "name": "S-Bahnhof Weststadt/S\u00fcdstadt", "stands": 4, "lon": 8.689129, "address": "S-Bahnhof Weststadt/S\u00fcdstadt", "lat": 49.399001}, "geometry": {"type": "Point", "coordinates": [8.689129, 49.399001]}, "type": "Feature"}, {"properties": {"bikes": 7, "status": "OPEN", "name": "Neuenheimer Feld \u2013 Zoo", "stands": 3, "lon": 8.664772, "address": "Neuenheimer Feld \u2013 Zoo", "lat": 49.414965}, "geometry": {"type": "Point", "coordinates": [8.664772, 49.414965]}, "type": "Feature"}, {"properties": {"bikes": 5, "status": "OPEN", "name": "Neuenheimer Feld \u2013 Jahnstra\u00dfe", "stands": 3, "lon": 8.676321, "address": "Neuenheimer Feld \u2013 Jahnstra\u00dfe", "lat": 49.412994}, "geometry": {"type": "Point", "coordinates": [8.676321, 49.412994]}, "type": "Feature"}, {"properties": {"bikes": 4, "status": "OPEN", "name": "Neuenheim \u2013 Ku\u00dfmaulstra\u00dfe", "stands": 2, "lon": 8.690573, "address": "Neuenheim \u2013 Ku\u00dfmaulstra\u00dfe", "lat": 49.418566}, "geometry": {"type": "Point", "coordinates": [8.690573, 49.418566]}, "type": "Feature"}, {"properties": {"bikes": 1, "status": "OPEN", "name": "Altstadt \u2013 Bismarckplatz", "stands": 8, "lon": 8.693788, "address": "Altstadt \u2013 Bismarckplatz", "lat": 49.40867}, "geometry": {"type": "Point", "coordinates": [8.693788, 49.40867]}, "type": "Feature"}, {"properties": {"bikes": 5, "status": "OPEN", "name": "Altstadt \u2013 Universit\u00e4tsplatz", "stands": 5, "lon": 8.706374, "address": "Altstadt \u2013 Universit\u00e4tsplatz", "lat": 49.409935}, "geometry": {"type": "Point", "coordinates": [8.706374, 49.409935]}, "type": "Feature"}, {"properties": {"bikes": 7, "status": "OPEN", "name": "Altstadt \u2013 Stadthalle", "stands": 3, "lon": 8.699137, "address": "Altstadt \u2013 Stadthalle", "lat": 49.411989}, "geometry": {"type": "Point", "coordinates": [8.699137, 49.411989]}, "type": "Feature"}, {"properties": {"bikes": 10, "status": "OPEN", "name": "Neuenheim \u2013 Neckarwiese", "stands": 0, "lon": 8.691880702972412, "address": "Neuenheim \u2013 Neckarwiese", "lat": 49.41326623698236}, "geometry": {"type": "Point", "coordinates": [8.691880702972412, 49.41326623698236]}, "type": "Feature"}, {"properties": {"bikes": 16, "status": "OPEN", "name": "Hauptbahnhof Nord", "stands": 0, "lon": 8.675605058670042, "address": "Hauptbahnhof Nord", "lat": 49.404760170790134}, "geometry": {"type": "Point", "coordinates": [8.675605058670042, 49.404760170790134]}, "type": "Feature"}, {"properties": {"bikes": 15, "status": "OPEN", "name": "Hauptbahnhof Bahnstadt", "stands": 1, "lon": 8.67441415786743, "address": "Hauptbahnhof Bahnstadt", "lat": 49.40326613422078}, "geometry": {"type": "Point", "coordinates": [8.67441415786743, 49.40326613422078]}, "type": "Feature"}, {"properties": {"bikes": 5, "status": "OPEN", "name": "Rohrbach \u2013 Markt", "stands": 5, "lon": 8.687546253204346, "address": "Rohrbach \u2013 Markt", "lat": 49.38036817862823}, "geometry": {"type": "Point", "coordinates": [8.687546253204346, 49.38036817862823]}, "type": "Feature"}, {"properties": {"bikes": 4, "status": "OPEN", "name": "S-Bahnhof Schlierbach/Ziegelhausen", "stands": 2, "lon": 8.761061, "address": "S-Bahnhof Schlierbach/Ziegelhausen", "lat": 49.415281}, "geometry": {"type": "Point", "coordinates": [8.761061, 49.415281]}, "type": "Feature"}, {"properties": {"bikes": 6, "status": "OPEN", "name": "Kirchheim \u2013 Rathaus", "stands": 0, "lon": 8.666115403175354, "address": "Kirchheim \u2013 Rathaus", "lat": 49.37752875887557}, "geometry": {"type": "Point", "coordinates": [8.666115403175354, 49.37752875887557]}, "type": "Feature"}, {"properties": {"bikes": 8, "status": "OPEN", "name": "Ziegelhausen \u2013 Neckarschule", "stands": 0, "lon": 8.756724, "address": "Ziegelhausen \u2013 Neckarschule", "lat": 49.419225}, "geometry": {"type": "Point", "coordinates": [8.756724, 49.419225]}, "type": "Feature"}, {"properties": {"bikes": 6, "status": "OPEN", "name": "Handschuhsheim \u2013 Hans-Thoma-Platz", "stands": 0, "lon": 8.683529, "address": "Handschuhsheim \u2013 Hans-Thoma-Platz", "lat": 49.428303}, "geometry": {"type": "Point", "coordinates": [8.683529, 49.428303]}, "type": "Feature"}, {"properties": {"bikes": 9, "status": "OPEN", "name": "Bahnstadt Halle 02", "stands": 1, "lon": 8.672343492507935, "address": "Bahnstadt Halle 02", "lat": 49.401751106793085}, "geometry": {"type": "Point", "coordinates": [8.672343492507935, 49.401751106793085]}, "type": "Feature"}, {"properties": {"bikes": 7, "status": "OPEN", "name": "Wieblingen Mitte", "stands": 1, "lon": 8.645995, "address": "Wieblingen Mitte", "lat": 49.42343}, "geometry": {"type": "Point", "coordinates": [8.645995, 49.42343]}, "type": "Feature"}, {"properties": {"bikes": 5, "status": "OPEN", "name": "Altstadt - Karlstorbahnhof", "stands": 1, "lon": 8.720510601997375, "address": "Altstadt - Karlstorbahnhof", "lat": 49.41501822676788}, "geometry": {"type": "Point", "coordinates": [8.720510601997375, 49.41501822676788]}, "type": "Feature"}], "type": "FeatureCollection"}