{"type": "FeatureCollection", "features": [{"type": "Feature", "geometry": {"type": "Point", "coordinates": [8.689129, 49.399001]}, "properties": {"bikes": 4, "stands": 4, "name": "S-Bahnhof Weststadt/S\u00fcdstadt", "status": "OPEN", "lon": 8.689129, "lat": 49.399001, "address": "S-Bahnhof Weststadt/S\u00fcdstadt"}}, {"type": "Feature", "geometry": {"type": "Point", "coordinates": [8.664772, 49.414965]}, "properties": {"bikes": 7, "stands": 3, "name": "Neuenheimer Feld \u2013 Zoo", "status": "OPEN", "lon": 8.664772, "lat": 49.414965, "address": "Neuenheimer Feld \u2013 Zoo"}}, {"type": "Feature", "geometry": {"type": "Point", "coordinates": [8.676321, 49.412994]}, "properties": {"bikes": 5, "stands": 3, "name": "Neuenheimer Feld \u2013 Jahnstra\u00dfe", "status": "OPEN", "lon": 8.676321, "lat": 49.412994, "address": "Neuenheimer Feld \u2013 Jahnstra\u00dfe"}}, {"type": "Feature", "geometry": {"type": "Point", "coordinates": [8.690573, 49.418566]}, "properties": {"bikes": 4, "stands": 2, "name": "Neuenheim \u2013 Ku\u00dfmaulstra\u00dfe", "status": "OPEN", "lon": 8.690573, "lat": 49.418566, "address": "Neuenheim \u2013 Ku\u00dfmaulstra\u00dfe"}}, {"type": "Feature", "geometry": {"type": "Point", "coordinates": [8.693788, 49.40867]}, "properties": {"bikes": 1, "stands": 8, "name": "Altstadt \u2013 Bismarckplatz", "status": "OPEN", "lon": 8.693788, "lat": 49.40867, "address": "Altstadt \u2013 Bismarckplatz"}}, {"type": "Feature", "geometry": {"type": "Point", "coordinates": [8.706374, 49.409935]}, "properties": {"bikes": 5, "stands": 5, "name": "Altstadt \u2013 Universit\u00e4tsplatz", "status": "OPEN", "lon": 8.706374, "lat": 49.409935, "address": "Altstadt \u2013 Universit\u00e4tsplatz"}}, {"type": "Feature", "geometry": {"type": "Point", "coordinates": [8.699137, 49.411989]}, "properties": {"bikes": 7, "stands": 3, "name": "Altstadt \u2013 Stadthalle", "status": "OPEN", "lon": 8.699137, "lat": 49.411989, "address": "Altstadt \u2013 Stadthalle"}}, {"type": "Feature", "geometry": {"type": "Point", "coordinates": [8.691880702972412, 49.41326623698236]}, "properties": {"bikes": 10, "stands": 0, "name": "Neuenheim \u2013 Neckarwiese", "status": "OPEN", "lon": 8.691880702972412, "lat": 49.41326623698236, "address": "Neuenheim \u2013 Neckarwiese"}}, {"type": "Feature", "geometry": {"type": "Point", "coordinates": [8.675605058670042, 49.404760170790134]}, "properties": {"bikes": 16, "stands": 0, "name": "Hauptbahnhof Nord", "status": "OPEN", "lon": 8.675605058670042, "lat": 49.404760170790134, "address": "Hauptbahnhof Nord"}}, {"type": "Feature", "geometry": {"type": "Point", "coordinates": [8.67441415786743, 49.40326613422078]}, "properties": {"bikes": 15, "stands": 1, "name": "Hauptbahnhof Bahnstadt", "status": "OPEN", "lon": 8.67441415786743, "lat": 49.40326613422078, "address": "Hauptbahnhof Bahnstadt"}}, {"type": "Feature", "geometry": {"type": "Point", "coordinates": [8.687546253204346, 49.38036817862823]}, "properties": {"bikes": 5, "stands": 5, "name": "Rohrbach \u2013 Markt", "status": "OPEN", "lon": 8.687546253204346, "lat": 49.38036817862823, "address": "Rohrbach \u2013 Markt"}}, {"type": "Feature", "geometry": {"type": "Point", "coordinates": [8.761061, 49.415281]}, "properties": {"bikes": 4, "stands": 2, "name": "S-Bahnhof Schlierbach/Ziegelhausen", "status": "OPEN", "lon": 8.761061, "lat": 49.415281, "address": "S-Bahnhof Schlierbach/Ziegelhausen"}}, {"type": "Feature", "geometry": {"type": "Point", "coordinates": [8.666115403175354, 49.37752875887557]}, "properties": {"bikes": 6, "stands": 0, "name": "Kirchheim \u2013 Rathaus", "status": "OPEN", "lon": 8.666115403175354, "lat": 49.37752875887557, "address": "Kirchheim \u2013 Rathaus"}}, {"type": "Feature", "geometry": {"type": "Point", "coordinates": [8.756724, 49.419225]}, "properties": {"bikes": 8, "stands": 0, "name": "Ziegelhausen \u2013 Neckarschule", "status": "OPEN", "lon": 8.756724, "lat": 49.419225, "address": "Ziegelhausen \u2013 Neckarschule"}}, {"type": "Feature", "geometry": {"type": "Point", "coordinates": [8.683529, 49.428303]}, "properties": {"bikes": 6, "stands": 0, "name": "Handschuhsheim \u2013 Hans-Thoma-Platz", "status": "OPEN", "lon": 8.683529, "lat": 49.428303, "address": "Handschuhsheim \u2013 Hans-Thoma-Platz"}}, {"type": "Feature", "geometry": {"type": "Point", "coordinates": [8.672343492507935, 49.401751106793085]}, "properties": {"bikes": 9, "stands": 1, "name": "Bahnstadt Halle 02", "status": "OPEN", "lon": 8.672343492507935, "lat": 49.401751106793085, "address": "Bahnstadt Halle 02"}}, {"type": "Feature", "geometry": {"type": "Point", "coordinates": [8.645995, 49.42343]}, "properties": {"bikes": 7, "stands": 1, "name": "Wieblingen Mitte", "status": "OPEN", "lon": 8.645995, "lat": 49.42343, "address": "Wieblingen Mitte"}}, {"type": "Feature", "geometry": {"type": "Point", "coordinates": [8.720510601997375, 49.41501822676788]}, "properties": {"bikes": 5, "stands": 1, "name": "Altstadt - Karlstorbahnhof", "status": "OPEN", "lon": 8.720510601997375, "lat": 49.41501822676788, "address": "Altstadt - Karlstorbahnhof"}}]}