<<<<<<< HEAD
{"features": [{"geometry": {"coordinates": [5.403244616491982, 43.250903869637334], "type": "Point"}, "properties": {"stands": 3, "lat": 43.250903869637334, "update": "2016-02-06T12:43:57", "status": "OPEN", "bikes": 18, "address": "MAZARGUES - ROND POINT DE MAZARGUES (OBELISQUE)", "name": "9087-MAZARGUES", "lon": 5.403244616491982}, "type": "Feature"}, {"geometry": {"coordinates": [5.379895702048497, 43.301510278747365], "type": "Point"}, "properties": {"stands": 18, "lat": 43.301510278747365, "update": "2016-02-06T12:42:48", "status": "OPEN", "bikes": 1, "address": "SAINT CHARLES MARSEILLAISES - PLACE DES MARSEILLAISES ANGLE RUE PHILIPPE DE GIRARD", "name": "1301- ST CHARLES MARSEILLAISES", "lon": 5.379895702048497}, "type": "Feature"}, {"geometry": {"coordinates": [5.379650236474981, 43.2896832563691], "type": "Point"}, "properties": {"stands": 14, "lat": 43.2896832563691, "update": "2016-02-06T12:46:01", "status": "OPEN", "bikes": 1, "address": "ROSTAND PREFECTURE - 6 RUE EDMOND ROSTAND ANGLE RUE SYLVABELLE", "name": "6217-ROSTAND - PREFECTURE", "lon": 5.379650236474981}, "type": "Feature"}, {"geometry": {"coordinates": [5.370488134608402, 43.30056201196652], "type": "Point"}, "properties": {"stands": 8, "lat": 43.30056201196652, "update": "2016-02-06T12:47:36", "status": "OPEN", "bikes": 1, "address": "REPUBLIQUE CATHALA - RUE DE LA REPUBLIQUE ANGLE RUE JEAN MARC CATHALA", "name": "2184-REPUBLIQUE-CATHALA", "lon": 5.370488134608402}, "type": "Feature"}, {"geometry": {"coordinates": [5.36651, 43.308731], "type": "Point"}, "properties": {"stands": 5, "lat": 43.308731, "update": "2016-02-06T12:44:35", "status": "OPEN", "bikes": 17, "address": "SOUS A55 AU BOUT DES DOCKS FACE AU 22 QUAI DU LAZARET 13002", "name": "02279 - DOCKS LES TERRASSES DU PORT", "lon": 5.36651}, "type": "Feature"}, {"geometry": {"coordinates": [5.386356771062651, 43.30353946127941], "type": "Point"}, "properties": {"stands": 7, "lat": 43.30353946127941, "update": "2016-02-06T12:47:07", "status": "OPEN", "bikes": 0, "address": "FLAMMARION NATIONAL - BOULEVARD CAMILLE FLAMMARION ANGLE BOULEVARD NATIONAL", "name": "1344 - FLAMMARION NATIONAL", "lon": 5.386356771062651}, "type": "Feature"}, {"geometry": {"coordinates": [5.36697414687028, 43.3051302607768], "type": "Point"}, "properties": {"stands": 6, "lat": 43.3051302607768, "update": "2016-02-06T12:46:42", "status": "OPEN", "bikes": 8, "address": "JOLIETTE DUNKERQUE - PLACE DE LA JOLIETTE ANGLE BOULEVARD DUNKERQUE", "name": "2272- JOLIETTE-DUNKERQUE", "lon": 5.36697414687028}, "type": "Feature"}, {"geometry": {"coordinates": [5.375795816171145, 43.262455920908494], "type": "Point"}, "properties": {"stands": 5, "lat": 43.262455920908494, "update": "2016-02-06T12:47:56", "status": "OPEN", "bikes": 3, "address": "PRADO BORELY - 579 AVENUE DU PRADO", "name": "8068-PRADO BORELY", "lon": 5.375795816171145}, "type": "Feature"}, {"geometry": {"coordinates": [5.394684906357751, 43.302008143688155], "type": "Point"}, "properties": {"stands": 12, "lat": 43.302008143688155, "update": "2016-02-06T12:41:52", "status": "OPEN", "bikes": 0, "address": "LIBERATION CHAPE ESPERANDIEU - BOULAVARD LIBERATION ANGLE RUE CHAPE", "name": "4238-LIBERATION-CHAPE-ESPERANDIEU", "lon": 5.394684906357751}, "type": "Feature"}, {"geometry": {"coordinates": [5.371867606488009, 43.29312239728256], "type": "Point"}, "properties": {"stands": 4, "lat": 43.29312239728256, "update": "2016-02-06T12:47:32", "status": "OPEN", "bikes": 6, "address": "PLACE AUX HUILES - COURS ESTIENNE D'ORVES ANGLE RUE SAINT SAENS", "name": "1003-PLACE AUX HUILES", "lon": 5.371867606488009}, "type": "Feature"}, {"geometry": {"coordinates": [5.375905974276691, 43.292666663006464], "type": "Point"}, "properties": {"stands": 7, "lat": 43.292666663006464, "update": "2016-02-06T12:41:57", "status": "OPEN", "bikes": 8, "address": "SAINTE LULLI - 17 RUE SAINTE", "name": "1216-SAINTE - LULLI", "lon": 5.375905974276691}, "type": "Feature"}, {"geometry": {"coordinates": [5.366479730277853, 43.28923675488644], "type": "Point"}, "properties": {"stands": 12, "lat": 43.28923675488644, "update": "2016-02-06T12:47:24", "status": "OPEN", "bikes": 1, "address": "ENDOUME CORDERIE - 41 RUE D'ENDOUME", "name": "7215-ENDOUME - CORDERIE", "lon": 5.366479730277853}, "type": "Feature"}, {"geometry": {"coordinates": [5.36552550703358, 43.295414354264665], "type": "Point"}, "properties": {"stands": 0, "lat": 43.295414354264665, "update": "2016-02-06T12:46:05", "status": "OPEN", "bikes": 15, "address": "QUAI DU PORT - 148 QUAI DU PORT", "name": "2179-QUAI DU PORT", "lon": 5.36552550703358}, "type": "Feature"}, {"geometry": {"coordinates": [5.402740962235228, 43.2693522531282], "type": "Point"}, "properties": {"stands": 0, "lat": 43.2693522531282, "update": "2016-02-06T12:44:11", "status": "OPEN", "bikes": 16, "address": "SCHLOESSING TEISSERE - ANGLE BOULEVARD SCHLOESSING ET RUE RAYMOND TEISSERE", "name": "9085-SCHLOESING TEISSERE", "lon": 5.402740962235228}, "type": "Feature"}, {"geometry": {"coordinates": [5.379124641857261, 43.289985879061746], "type": "Point"}, "properties": {"stands": 6, "lat": 43.289985879061746, "update": "2016-02-06T12:50:17", "status": "OPEN", "bikes": 3, "address": "PAUL PEYTRAL - 35 BOULEVARD PAUL PEYTRAL", "name": "6100-PAUL PEYTRAL", "lon": 5.379124641857261}, "type": "Feature"}, {"geometry": {"coordinates": [5.401873594694653, 43.25402727813068], "type": "Point"}, "properties": {"stands": 16, "lat": 43.25402727813068, "update": "2016-02-06T12:42:21", "status": "OPEN", "bikes": 3, "address": "391 MICHELET - 391 BOULEVARD MICHELET", "name": "8149-391 MICHELET", "lon": 5.401873594694653}, "type": "Feature"}, {"geometry": {"coordinates": [5.399686062414487, 43.27252367086013], "type": "Point"}, "properties": {"stands": 0, "lat": 43.27252367086013, "update": "2016-02-06T12:45:55", "status": "OPEN", "bikes": 10, "address": "TEISSEIRE ROUBAUD - ANGLE RUE RAYMOND TEISSEIRE ET RUE MAGUY ROUBAUD", "name": "9207- TEISSEIRE - ROUBAUD", "lon": 5.399686062414487}, "type": "Feature"}, {"geometry": {"coordinates": [5.383105742132375, 43.28892000857008], "type": "Point"}, "properties": {"stands": 14, "lat": 43.28892000857008, "update": "2016-02-06T12:42:53", "status": "OPEN", "bikes": 0, "address": "ROME ITALIE BERLIOZ - FACE AU 10 RUE BERLIOZ", "name": "6254-ROME - BERLIOZ - ITALIE", "lon": 5.383105742132375}, "type": "Feature"}, {"geometry": {"coordinates": [5.3901483781149, 43.304681870508325], "type": "Point"}, "properties": {"stands": 15, "lat": 43.304681870508325, "update": "2016-02-06T12:40:23", "status": "OPEN", "bikes": 0, "address": "FLAMMARION GROBET - BOULEVARD CAMILLE FLAMMARION ANGLE RUE LOUIS GROBET", "name": "1343 - FLAMMARION GROBET", "lon": 5.3901483781149}, "type": "Feature"}, {"geometry": {"coordinates": [5.387779642713593, 43.2886166717576], "type": "Point"}, "properties": {"stands": 14, "lat": 43.2886166717576, "update": "2016-02-06T12:40:41", "status": "OPEN", "bikes": 1, "address": "LODI VILLAGE - FACE AU 89 RUE DE LODI", "name": "6113-LODI VILLAGE", "lon": 5.387779642713593}, "type": "Feature"}, {"geometry": {"coordinates": [5.387773261785004, 43.30123319837804], "type": "Point"}, "properties": {"stands": 15, "lat": 43.30123319837804, "update": "2016-02-06T12:46:59", "status": "OPEN", "bikes": 0, "address": "NATIONAL LONGCHAMP - 1 BD NATIONAL ANGLE LONGCHAMP", "name": "1130- NATIONAL LONGCHAMP", "lon": 5.387773261785004}, "type": "Feature"}, {"geometry": {"coordinates": [5.365239906973955, 43.270172262619184], "type": "Point"}, "properties": {"stands": 12, "lat": 43.270172262619184, "update": "2016-02-06T12:45:58", "status": "OPEN", "bikes": 3, "address": "CORNICHE RAPATRIES - CORNICHE J.F. KENNEDY FACE AU MEMORIAL DES RAPATRIES EN DIRECTION DU VIEUX PORT", "name": "7142-CORNICHE RAPATRIES", "lon": 5.365239906973955}, "type": "Feature"}, {"geometry": {"coordinates": [5.393967016838425, 43.26796549967643], "type": "Point"}, "properties": {"stands": 6, "lat": 43.26796549967643, "update": "2016-02-06T12:44:41", "status": "OPEN", "bikes": 9, "address": "MICHELET HUVEAUNE - ANGLE BOULEVARD MICHELET ET RUE JACQUES PICON", "name": "8147 - MICHELET HUVEAUNE", "lon": 5.393967016838425}, "type": "Feature"}, {"geometry": {"coordinates": [5.387375678428276, 43.31181964585524], "type": "Point"}, "properties": {"stands": 6, "lat": 43.31181964585524, "update": "2016-02-06T12:49:06", "status": "OPEN", "bikes": 9, "address": "BELLE DE MAI CADENAT - PLACE BERNARD CADENAT", "name": "3320 - BELLE DE MAI CADENAT", "lon": 5.387375678428276}, "type": "Feature"}, {"geometry": {"coordinates": [5.38678589001619, 43.2865946021474], "type": "Point"}, "properties": {"stands": 14, "lat": 43.2865946021474, "update": "2016-02-06T12:43:13", "status": "OPEN", "bikes": 3, "address": "BAILLE FRIEDLAND - BOULEVARD BAILLE ANGLE RUE DE FRIEDLAND", "name": "6177-BAILLE FRIEDLAND", "lon": 5.38678589001619}, "type": "Feature"}, {"geometry": {"coordinates": [5.39166970262158, 43.2722414899425], "type": "Point"}, "properties": {"stands": 2, "lat": 43.2722414899425, "update": "2016-02-06T12:49:58", "status": "OPEN", "bikes": 18, "address": "Parvis entr\u00e9e parc Chanot", "name": "8307-PRADO MICHELET", "lon": 5.39166970262158}, "type": "Feature"}, {"geometry": {"coordinates": [5.397731278573822, 43.29748821146523], "type": "Point"}, "properties": {"stands": 14, "lat": 43.29748821146523, "update": "2016-02-06T12:45:23", "status": "OPEN", "bikes": 1, "address": "RUE GEORGES - 28 RUE GEORGES", "name": "5103-RUE GEORGES", "lon": 5.397731278573822}, "type": "Feature"}, {"geometry": {"coordinates": [5.38661231791721, 43.29908095432929], "type": "Point"}, "properties": {"stands": 4, "lat": 43.29908095432929, "update": "2016-02-06T12:41:20", "status": "OPEN", "bikes": 6, "address": "ROOSEVELT REFORMES - 7 COURS FRANKLIN ROOSEVELT", "name": "1230-ROOSEVELT - REFORMES", "lon": 5.38661231791721}, "type": "Feature"}, {"geometry": {"coordinates": [5.377690136115547, 43.30380276644441], "type": "Point"}, "properties": {"stands": 12, "lat": 43.30380276644441, "update": "2016-02-06T12:42:17", "status": "OPEN", "bikes": 0, "address": "SAINT CHARLES LECLERC ZATTARA - AVENUE DU GENERAL LECLERC ANGLE RUE ANTOINE ZATTARA", "name": "1345 - SAINT CHARLES LECLERC ZATTARA", "lon": 5.377690136115547}, "type": "Feature"}, {"geometry": {"coordinates": [5.396409806138883, 43.27524269246836], "type": "Point"}, "properties": {"stands": 0, "lat": 43.27524269246836, "update": "2016-02-06T12:46:53", "status": "OPEN", "bikes": 15, "address": "RABATAU TEISSEIRE - ANGLE BOULEVARD RABATAU ET FACE AU 68 RUE RAYMOND TEISSEIRE", "name": "8257-RABATAU - TEISSEIRE", "lon": 5.396409806138883}, "type": "Feature"}, {"geometry": {"coordinates": [5.373860886192452, 43.296824934966864], "type": "Point"}, "properties": {"stands": 3, "lat": 43.296824934966864, "update": "2016-02-06T12:47:10", "status": "OPEN", "bikes": 5, "address": "REPUBLIQUE COUTELLERIE - RUE DE LA REPUBLIQUE ANGLE RUE DE LA COUTELLERIE", "name": "1346- REPUBLIQUE COUTELLERIE", "lon": 5.373860886192452}, "type": "Feature"}, {"geometry": {"coordinates": [5.378423799723321, 43.293485736186526], "type": "Point"}, "properties": {"stands": 0, "lat": 43.293485736186526, "update": "2016-02-06T12:45:06", "status": "OPEN", "bikes": 16, "address": "ST FERREOL DAVSO - RUE FRANCIS DAVSO ANGLE RUE SAINT FERREOL", "name": "1297- ST F\u00c9RR\u00c9OL DAVSO", "lon": 5.378423799723321}, "type": "Feature"}, {"geometry": {"coordinates": [5.398913930872658, 43.25850879475187], "type": "Point"}, "properties": {"stands": 0, "lat": 43.25850879475187, "update": "2016-02-06T12:41:18", "status": "OPEN", "bikes": 14, "address": "MICHELET LUCE - ANGLE BOULEVARD MICHELET ET BOULEVARD LUCE", "name": "9074-MICHELET LUCE", "lon": 5.398913930872658}, "type": "Feature"}, {"geometry": {"coordinates": [5.38545312564012, 43.29441078214159], "type": "Point"}, "properties": {"stands": 14, "lat": 43.29441078214159, "update": "2016-02-06T12:48:20", "status": "OPEN", "bikes": 0, "address": "LA PLAINE SUD - RUE DES TROIS MAGES ANGLE PLACE JEAN JAURES", "name": "1228-LA PLAINE SUD", "lon": 5.38545312564012}, "type": "Feature"}, {"geometry": {"coordinates": [5.39403885378465, 43.28872669088929], "type": "Point"}, "properties": {"stands": 11, "lat": 43.28872669088929, "update": "2016-02-06T12:45:45", "status": "OPEN", "bikes": 0, "address": "BAILLE CONCEPTION  - 145 BOULEVARD BAILLE", "name": "5107-BAILLE CONCEPTION", "lon": 5.39403885378465}, "type": "Feature"}, {"geometry": {"coordinates": [5.369497428189588, 43.30255028371949], "type": "Point"}, "properties": {"stands": 4, "lat": 43.30255028371949, "update": "2016-02-06T12:44:48", "status": "OPEN", "bikes": 1, "address": "RPUBLIQUE DAMES - 68 BOULEVARD DES DAMES", "name": "2030-REPUBLIQUE DAMES", "lon": 5.369497428189588}, "type": "Feature"}, {"geometry": {"coordinates": [5.401285286456447, 43.292800863545835], "type": "Point"}, "properties": {"stands": 7, "lat": 43.292800863545835, "update": "2016-02-06T12:48:32", "status": "OPEN", "bikes": 3, "address": "SAKAKINI SAINT PIERRE - BOULEVARD SAKAKINI ANGLE RUE SAINT PIERRE", "name": "5058 -SAKAKINI - SAINT PIERRE", "lon": 5.401285286456447}, "type": "Feature"}, {"geometry": {"coordinates": [5.3586207351308, 43.2884327278463], "type": "Point"}, "properties": {"stands": 0, "lat": 43.2884327278463, "update": "2016-02-06T12:48:19", "status": "OPEN", "bikes": 14, "address": "2 RUE CAPITAINE DESSEMOND", "name": "7027-PLACE DU 4 SEPTEMBRE", "lon": 5.3586207351308}, "type": "Feature"}, {"geometry": {"coordinates": [5.386461522334788, 43.28350144850817], "type": "Point"}, "properties": {"stands": 9, "lat": 43.28350144850817, "update": "2016-02-06T12:44:36", "status": "OPEN", "bikes": 6, "address": "ROUET - 48 RUE DU ROUET", "name": "6208-ROUET", "lon": 5.386461522334788}, "type": "Feature"}, {"geometry": {"coordinates": [5.370835093727862, 43.29780955608182], "type": "Point"}, "properties": {"stands": 9, "lat": 43.29780955608182, "update": "2016-02-06T12:46:20", "status": "OPEN", "bikes": 11, "address": "GRAND RUE - FACE AU 35 GRAND'RUE", "name": "2012-GRAND RUE", "lon": 5.370835093727862}, "type": "Feature"}, {"geometry": {"coordinates": [5.375339514183368, 43.295686109850145], "type": "Point"}, "properties": {"stands": 0, "lat": 43.295686109850145, "update": "2016-02-06T12:44:54", "status": "OPEN", "bikes": 13, "address": "CANEBIERE REINE ELISABETH - CANEBIERE ANGLE REINE ELISABETH", "name": "1001 - CANEBIERE REINE ELISABETH", "lon": 5.375339514183368}, "type": "Feature"}, {"geometry": {"coordinates": [5.37599738915791, 43.25394372546869], "type": "Point"}, "properties": {"stands": 9, "lat": 43.25394372546869, "update": "2016-02-06T12:41:57", "status": "OPEN", "bikes": 1, "address": "ESCALE BORELY POINTE ROUGE - ESCALE BORELY EN DIRECTION DE L'AVENUE POINTE ROUGE", "name": "8144-ESCALE BORELY POINTE ROUGE", "lon": 5.37599738915791}, "type": "Feature"}, {"geometry": {"coordinates": [5.38279581908046, 43.2668438148239], "type": "Point"}, "properties": {"stands": 7, "lat": 43.2668438148239, "update": "2016-02-06T12:42:24", "status": "OPEN", "bikes": 8, "address": "PRADO GABES - AVENUE DU PRADO ANGLE BD DE GABES", "name": "8067-PRADO GABES", "lon": 5.38279581908046}, "type": "Feature"}, {"geometry": {"coordinates": [5.349696475467313, 43.284213979400505], "type": "Point"}, "properties": {"stands": 0, "lat": 43.284213979400505, "update": "2016-02-06T12:45:40", "status": "OPEN", "bikes": 15, "address": "88 CORNICHE KENNEDY - 88 CORNICHE J.F. KENNEDY", "name": "7062-88 CORNICHE - KENNEDY", "lon": 5.349696475467313}, "type": "Feature"}, {"geometry": {"coordinates": [5.375165446771129, 43.29542125608577], "type": "Point"}, "properties": {"stands": 1, "lat": 43.29542125608577, "update": "2016-02-06T12:45:14", "status": "OPEN", "bikes": 14, "address": "BEAUVAU CANEBIERE - RUE BEAUVAU", "name": "1210-BEAUVAU - CANEBIERE", "lon": 5.375165446771129}, "type": "Feature"}, {"geometry": {"coordinates": [5.383285575102103, 43.286046362122946], "type": "Point"}, "properties": {"stands": 10, "lat": 43.286046362122946, "update": "2016-02-06T12:44:19", "status": "OPEN", "bikes": 9, "address": "CASTELLANE - ROND POINT CASTELLANE DEVANT LE CAFE DE PARIS", "name": "6023- CASTELLANE", "lon": 5.383285575102103}, "type": "Feature"}, {"geometry": {"coordinates": [5.406000803377506, 43.29626340517055], "type": "Point"}, "properties": {"stands": 14, "lat": 43.29626340517055, "update": "2016-02-06T12:41:14", "status": "OPEN", "bikes": 0, "address": "BLANCARDE - GARE DE LA BLANCARDE", "name": "4293- BLANCARDE", "lon": 5.406000803377506}, "type": "Feature"}, {"geometry": {"coordinates": [5.366506599649465, 43.23984252335505], "type": "Point"}, "properties": {"stands": 5, "lat": 43.23984252335505, "update": "2016-02-06T12:43:42", "status": "OPEN", "bikes": 5, "address": "PARC PASTRE - ANGLE AVENUE DE MONTREDON ET AVENUE D'OUTRE MER", "name": "8313- PARC PASTRE", "lon": 5.366506599649465}, "type": "Feature"}, {"geometry": {"coordinates": [5.38299269172725, 43.2921244873688], "type": "Point"}, "properties": {"stands": 10, "lat": 43.2921244873688, "update": "2016-02-06T12:46:29", "status": "OPEN", "bikes": 0, "address": "LIEUTAUD JULIEN - FACE AU 20 BOULEVARD THEODORE THURNER", "name": "6237-LIEUTAUD JULIEN", "lon": 5.38299269172725}, "type": "Feature"}, {"geometry": {"coordinates": [5.381500046726694, 43.29902793826475], "type": "Point"}, "properties": {"stands": 0, "lat": 43.29902793826475, "update": "2016-02-06T12:40:39", "status": "OPEN", "bikes": 15, "address": "GAMBETTA LAFAYETTE - 6 ALLEES LEON GAMBETTA", "name": "1245-GAMBETTA - LAFAYETTE", "lon": 5.381500046726694}, "type": "Feature"}, {"geometry": {"coordinates": [5.373281108125947, 43.26469407213291], "type": "Point"}, "properties": {"stands": 6, "lat": 43.26469407213291, "update": "2016-02-06T12:48:11", "status": "OPEN", "bikes": 9, "address": "PROMENADE POMPIDOU AMIRAL MUSELIER - PROMENADE GEORGES POMPIDOU DEVANT LA PLACE AMIRAL MUSELIER", "name": "8132-PROMENADE POMPIDOU AMIRAL MUSELIER", "lon": 5.373281108125947}, "type": "Feature"}, {"geometry": {"coordinates": [5.376413023650641, 43.25505597847173], "type": "Point"}, "properties": {"stands": 5, "lat": 43.25505597847173, "update": "2016-02-06T12:48:31", "status": "OPEN", "bikes": 15, "address": "ESCALE BORELY - ANGLE ESCALE BORELY ET AVENUE BONNEVEINE", "name": "8145-ESCALE BORELY", "lon": 5.376413023650641}, "type": "Feature"}, {"geometry": {"coordinates": [5.400635371105712, 43.268405140653144], "type": "Point"}, "properties": {"stands": 0, "lat": 43.268405140653144, "update": "2016-02-06T12:46:26", "status": "OPEN", "bikes": 15, "address": "PUGETTE ANDRE - ANGLE AVENUE DU GENERAL ANDRE FACE AU 23 BOULEVARD DE LA PUGETTE", "name": "9219-PUGETTE - ANDRE", "lon": 5.400635371105712}, "type": "Feature"}, {"geometry": {"coordinates": [5.391048744484495, 43.27278734452526], "type": "Point"}, "properties": {"stands": 15, "lat": 43.27278734452526, "update": "2016-02-06T12:43:44", "status": "OPEN", "bikes": 5, "address": "ROND POINT DU PRADO - 300 AVENUE DU PRADO", "name": "8134-ROND POINT DU PRADO", "lon": 5.391048744484495}, "type": "Feature"}, {"geometry": {"coordinates": [5.36771555892562, 43.3047137105911], "type": "Point"}, "properties": {"stands": 2, "lat": 43.3047137105911, "update": "2016-02-06T12:45:26", "status": "OPEN", "bikes": 13, "address": "JOLIETTE FORBIN - PLACE DE LA JOLIETTE ANGLE RUE DE FORBIN", "name": "2341- JOLIETTE FORBIN", "lon": 5.36771555892562}, "type": "Feature"}, {"geometry": {"coordinates": [5.374505152575336, 43.26178202177259], "type": "Point"}, "properties": {"stands": 2, "lat": 43.26178202177259, "update": "2016-02-06T12:49:09", "status": "OPEN", "bikes": 13, "address": "PROMENADE POMPIDOU DAVID -  PROMENADE GEORGES POMPIDOU AU NIVEAU DU ROND POINT DE DAVID", "name": "8131-PROMENADE POMPIDOU DAVID", "lon": 5.374505152575336}, "type": "Feature"}, {"geometry": {"coordinates": [5.379450180172236, 43.28683835122117], "type": "Point"}, "properties": {"stands": 8, "lat": 43.28683835122117, "update": "2016-02-06T12:48:44", "status": "OPEN", "bikes": 6, "address": "153 PARADIS - 153 RUE PARADIS", "name": "6160-153 PARADIS", "lon": 5.379450180172236}, "type": "Feature"}, {"geometry": {"coordinates": [5.398630311705657, 43.301185515493664], "type": "Point"}, "properties": {"stands": 16, "lat": 43.301185515493664, "update": "2016-02-06T12:46:55", "status": "OPEN", "bikes": 3, "address": "FOCH FAYOLLE - ANGLE AVENUE MARECHAL FOCH ET RUE MARECHAL FAYOLLE", "name": "4111-FOCH FAYOLLE", "lon": 5.398630311705657}, "type": "Feature"}, {"geometry": {"coordinates": [5.37224035119238, 43.30598895681527], "type": "Point"}, "properties": {"stands": 11, "lat": 43.30598895681527, "update": "2016-02-06T12:42:22", "status": "OPEN", "bikes": 2, "address": "FORBIN PARIS - RUE DE FORBIN ANGLE BOULEVARD DE PARIS", "name": "2323 -FORBIN PARIS", "lon": 5.37224035119238}, "type": "Feature"}, {"geometry": {"coordinates": [5.39517783172075, 43.25096285100345], "type": "Point"}, "properties": {"stands": 2, "lat": 43.25096285100345, "update": "2016-02-06T12:46:37", "status": "OPEN", "bikes": 11, "address": "MAZARGUES ALMERAS - ANGLE AVENUE DE MAZARGUES ET IMPASSE ALMERAS", "name": "9260- MAZARGUES - ALMERAS", "lon": 5.39517783172075}, "type": "Feature"}, {"geometry": {"coordinates": [5.367786407891749, 43.304190155898155], "type": "Point"}, "properties": {"stands": 6, "lat": 43.304190155898155, "update": "2016-02-06T12:48:03", "status": "OPEN", "bikes": 4, "address": "REPUBLIQUE PLUMIER - RUE DE LA REPUBLIQUE ANGLE RUE PLUMIER", "name": "2327- R\u00c9PUBLIQUE PLUMIER", "lon": 5.367786407891749}, "type": "Feature"}, {"geometry": {"coordinates": [5.377103061958931, 43.297138004748], "type": "Point"}, "properties": {"stands": 2, "lat": 43.297138004748, "update": "2016-02-06T12:48:13", "status": "OPEN", "bikes": 13, "address": "CENTRE BOURSE - RUE BIR HAKEIM ENTREE CENTRE BOURSE", "name": "1005-CENTRE BOURSE", "lon": 5.377103061958931}, "type": "Feature"}, {"geometry": {"coordinates": [5.360224853219125, 43.29224532184672], "type": "Point"}, "properties": {"stands": 3, "lat": 43.29224532184672, "update": "2016-02-06T12:44:19", "status": "OPEN", "bikes": 12, "address": "LIVON VIEUX PORT - 36 BOULEVARD CHARLES LIVON", "name": "7146-LIVON VIEUX PORT", "lon": 5.360224853219125}, "type": "Feature"}, {"geometry": {"coordinates": [5.391331392803749, 43.287814455889425], "type": "Point"}, "properties": {"stands": 6, "lat": 43.287814455889425, "update": "2016-02-06T12:46:04", "status": "OPEN", "bikes": 1, "address": "BAILLE PAURIOL - 114 BOULEVARD BAILLE ANGLE RUE PAURIOL", "name": "5024-BAILLE PAURIOL", "lon": 5.391331392803749}, "type": "Feature"}, {"geometry": {"coordinates": [5.374638177288532, 43.29336790915692], "type": "Point"}, "properties": {"stands": 1, "lat": 43.29336790915692, "update": "2016-02-06T12:45:32", "status": "OPEN", "bikes": 9, "address": "COURS JEAN BALLARD - 5 COURS JEAN BALLARD", "name": "1006-COURS JEAN BALLARD", "lon": 5.374638177288532}, "type": "Feature"}, {"geometry": {"coordinates": [5.384455147739253, 43.275618147775035], "type": "Point"}, "properties": {"stands": 10, "lat": 43.275618147775035, "update": "2016-02-06T12:41:23", "status": "OPEN", "bikes": 0, "address": "PARADIS LORD DUVEEN - 395 RUE PARADIS", "name": "8246-PARADIS - LORD DUVEEN", "lon": 5.384455147739253}, "type": "Feature"}, {"geometry": {"coordinates": [5.387431047255536, 43.27974214607358], "type": "Point"}, "properties": {"stands": 3, "lat": 43.27974214607358, "update": "2016-02-06T12:45:46", "status": "OPEN", "bikes": 10, "address": "PRADO PERIER - 127 AVENUE DU PRADO", "name": "8053-PRADO - PERIER", "lon": 5.387431047255536}, "type": "Feature"}, {"geometry": {"coordinates": [5.37544360265886, 43.260217853801166], "type": "Point"}, "properties": {"stands": 1, "lat": 43.260217853801166, "update": "2016-02-06T12:43:18", "status": "OPEN", "bikes": 17, "address": "MENDES FRANCE HUVEAUNE - AVENUE PEIRRE MENDES FRANCE DEVANT L'ENTREE DU PARC BORELY", "name": "8066-MENDES FRANCE HUVEAUNE", "lon": 5.37544360265886}, "type": "Feature"}, {"geometry": {"coordinates": [5.393973899334583, 43.260699609117914], "type": "Point"}, "properties": {"stands": 6, "lat": 43.260699609117914, "update": "2016-02-06T12:48:38", "status": "OPEN", "bikes": 9, "address": "318 MAZARGUES - FACE AU 318 AVENUE DE MAZARGUES", "name": "8261- 318 MAZARGUES", "lon": 5.393973899334583}, "type": "Feature"}, {"geometry": {"coordinates": [5.37602674729877, 43.29494730625887], "type": "Point"}, "properties": {"stands": 0, "lat": 43.29494730625887, "update": "2016-02-06T12:46:58", "status": "OPEN", "bikes": 10, "address": "GENERAL DE GAULLE PARADIS - PLACE GENERAL DE GAULLE FACE AU 11 RUE PARADIS", "name": "1004-GENERAL DE GAULLE PARADIS", "lon": 5.37602674729877}, "type": "Feature"}, {"geometry": {"coordinates": [5.372259932395231, 43.29076433240633], "type": "Point"}, "properties": {"stands": 13, "lat": 43.29076433240633, "update": "2016-02-06T12:46:13", "status": "OPEN", "bikes": 1, "address": "PLACE CORDERIE - AU CENTRE DE LA PLACE CORDERIE", "name": "6020-PLACE DE LA CORDERIE", "lon": 5.372259932395231}, "type": "Feature"}, {"geometry": {"coordinates": [5.396312199117862, 43.29581102315005], "type": "Point"}, "properties": {"stands": 11, "lat": 43.29581102315005, "update": "2016-02-06T12:41:46", "status": "OPEN", "bikes": 2, "address": "CHAVE CAMAS - BOULEVARD CHAVE ANGLE RUE DU CAMAS", "name": "5280-CHAVE CAMAS", "lon": 5.396312199117862}, "type": "Feature"}, {"geometry": {"coordinates": [5.370540756635374, 43.243802055963265], "type": "Point"}, "properties": {"stands": 10, "lat": 43.243802055963265, "update": "2016-02-06T12:45:16", "status": "OPEN", "bikes": 7, "address": "POINTE ROUGE MONTREDON - ANGLE AVENUE ODESSA ET AVENUE MONTREDON", "name": "8290- POINTE ROUGE - MONTREDON", "lon": 5.370540756635374}, "type": "Feature"}, {"geometry": {"coordinates": [5.392402358314715, 43.263999455764186], "type": "Point"}, "properties": {"stands": 5, "lat": 43.263999455764186, "update": "2016-02-06T12:41:40", "status": "OPEN", "bikes": 7, "address": "MAZARGUES BARRAL - ANGLE AVENUE DE MAZARGUES ET BOULEVARD BARRAL", "name": "8262-MAZARGUES-BARRAL", "lon": 5.392402358314715}, "type": "Feature"}, {"geometry": {"coordinates": [5.378292250179226, 43.304244359587024], "type": "Point"}, "properties": {"stands": 14, "lat": 43.304244359587024, "update": "2016-02-06T12:48:59", "status": "OPEN", "bikes": 1, "address": "SAINT CHARLES FACULTE - BOULEVARD GUSTAVE DESPLACES ANGLE AVENUE DU GENERAL LECLERC", "name": "1316 -ST CHARLES FACULT\u00c9", "lon": 5.378292250179226}, "type": "Feature"}, {"geometry": {"coordinates": [5.357823161216201, 43.29198908246378], "type": "Point"}, "properties": {"stands": 18, "lat": 43.29198908246378, "update": "2016-02-06T12:43:56", "status": "OPEN", "bikes": 2, "address": "LIVON PASTEUR - BOULEVARD CHARLES LIVON ANGLE ESPLANADE DU PHARO", "name": "7025-LIVON PASTEUR", "lon": 5.357823161216201}, "type": "Feature"}, {"geometry": {"coordinates": [5.389298285180646, 43.30050650960441], "type": "Point"}, "properties": {"stands": 9, "lat": 43.30050650960441, "update": "2016-02-06T12:45:39", "status": "OPEN", "bikes": 1, "address": "91 LIBERATION - 91 BOULEVARD DE LA LIBERATION", "name": "2221-91 LIB\u00c9RATION", "lon": 5.389298285180646}, "type": "Feature"}, {"geometry": {"coordinates": [5.372088524255505, 43.267272515671856], "type": "Point"}, "properties": {"stands": 4, "lat": 43.267272515671856, "update": "2016-02-06T12:41:35", "status": "OPEN", "bikes": 11, "address": "PROMENADE POMPIDOU PALM BEACH - 6 PROMENADE GEORGES POMPIDOU", "name": "8065-PROMENADE POMPIDOU PALM BEACH", "lon": 5.372088524255505}, "type": "Feature"}, {"geometry": {"coordinates": [5.399877070301781, 43.29570956843267], "type": "Point"}, "properties": {"stands": 12, "lat": 43.29570956843267, "update": "2016-02-06T12:40:23", "status": "OPEN", "bikes": 0, "address": "SAKAKINI CHAVE - 236 BOULEVARD CHAVE EN DIRECTION DE SAKAKINI", "name": "5060-SAKAKINI CHAVE", "lon": 5.399877070301781}, "type": "Feature"}, {"geometry": {"coordinates": [5.386273779435491, 43.26954179693142], "type": "Point"}, "properties": {"stands": 9, "lat": 43.26954179693142, "update": "2016-02-06T12:47:09", "status": "OPEN", "bikes": 1, "address": "PRADO PARADIS - 390 AVENUE DU PRADO", "name": "8255-PRADO - PARADIS", "lon": 5.386273779435491}, "type": "Feature"}, {"geometry": {"coordinates": [5.397216233775408, 43.298680879912176], "type": "Point"}, "properties": {"stands": 5, "lat": 43.298680879912176, "update": "2016-02-06T12:44:26", "status": "OPEN", "bikes": 5, "address": "PLACE SEBASTOPOL - 20 PLACE SEBASTOPOL", "name": "4057-PLACE SEBASTOPOL", "lon": 5.397216233775408}, "type": "Feature"}, {"geometry": {"coordinates": [5.389411648303773, 43.249867874570256], "type": "Point"}, "properties": {"stands": 1, "lat": 43.249867874570256, "update": "2016-02-06T12:44:47", "status": "OPEN", "bikes": 14, "address": "HAMBOURG RONT POINT GUERRE - BOULEVARD DE HAMBOURG ANGLE ROND POINT PIERRE GUERRE", "name": "8093-HAMBOURG ROND POINT GUERRE", "lon": 5.389411648303773}, "type": "Feature"}, {"geometry": {"coordinates": [5.350628425025786, 43.28250633472905], "type": "Point"}, "properties": {"stands": 3, "lat": 43.28250633472905, "update": "2016-02-06T12:48:21", "status": "OPEN", "bikes": 12, "address": "CORNICHE ENDOUME - 126 CORNICHE J.F. KENNEDY", "name": "7138-CORNICHE  ENDOUME", "lon": 5.350628425025786}, "type": "Feature"}, {"geometry": {"coordinates": [5.393678259953781, 43.305993453766845], "type": "Point"}, "properties": {"stands": 10, "lat": 43.305993453766845, "update": "2016-02-06T12:42:12", "status": "OPEN", "bikes": 0, "address": "FLAMMARION MONTRICHET - PLACE LE VERRIER ANGLE BD FLAMMARION ET  BD MONTRICHET", "name": "4342 - FLAMMARION MONTRICHET", "lon": 5.393678259953781}, "type": "Feature"}, {"geometry": {"coordinates": [5.382390401095631, 43.29562159175117], "type": "Point"}, "properties": {"stands": 7, "lat": 43.29562159175117, "update": "2016-02-06T12:43:43", "status": "OPEN", "bikes": 0, "address": "JULIEN 3 MAGES - COURS JULIEN ANGLE RUE DES TROIS MAGES", "name": "1275- JULIEN - 3 MAGES", "lon": 5.382390401095631}, "type": "Feature"}, {"geometry": {"coordinates": [5.39109605124139, 43.28292930261343], "type": "Point"}, "properties": {"stands": 7, "lat": 43.28292930261343, "update": "2016-02-06T12:50:19", "status": "OPEN", "bikes": 7, "address": "DELPUECH CORINTHE - 29 BOULEVARD DELPUECH", "name": "6187-DELPUECH CORINTHE", "lon": 5.39109605124139}, "type": "Feature"}, {"geometry": {"coordinates": [5.371370384862697, 43.291634709693945], "type": "Point"}, "properties": {"stands": 6, "lat": 43.291634709693945, "update": "2016-02-06T12:49:43", "status": "OPEN", "bikes": 3, "address": "SAINTE NOTRE DAME - 70 RUE SAINTE ANGLE RUE FORT NOTRE DAME", "name": "7212-SAINTE - NOTRE DAME", "lon": 5.371370384862697}, "type": "Feature"}, {"geometry": {"coordinates": [5.386729879719248, 43.293880006338135], "type": "Point"}, "properties": {"stands": 17, "lat": 43.293880006338135, "update": "2016-02-06T12:49:29", "status": "OPEN", "bikes": 0, "address": "PLAINE ST PIERRE - RUE SAINT PIERRE ANGLE PLACE JEAN JAURES", "name": "1226-PLAINE-ST PIERRE", "lon": 5.386729879719248}, "type": "Feature"}, {"geometry": {"coordinates": [5.359258014511654, 43.290716834278136], "type": "Point"}, "properties": {"stands": 5, "lat": 43.290716834278136, "update": "2016-02-06T12:40:23", "status": "OPEN", "bikes": 11, "address": "PASTEUR - 25 AVENUE PASTEUR", "name": "7151-PASTEUR", "lon": 5.359258014511654}, "type": "Feature"}, {"geometry": {"coordinates": [5.397126739923842, 43.24759828978683], "type": "Point"}, "properties": {"stands": 1, "lat": 43.24759828978683, "update": "2016-02-06T12:50:19", "status": "OPEN", "bikes": 14, "address": "LANCIER MARTHELINE - ANGLE CHEMIN DU LANCIER ET AVENUE DE LA  MARTHELINE", "name": "9259-LANCIER-MARTHELINE", "lon": 5.397126739923842}, "type": "Feature"}, {"geometry": {"coordinates": [5.39631317835792, 43.28936342586655], "type": "Point"}, "properties": {"stands": 12, "lat": 43.28936342586655, "update": "2016-02-06T12:40:46", "status": "OPEN", "bikes": 1, "address": "BAILLE HOPITAL CONCEPTION - BOULEVARD BAILLE FACE A L'ENTREE PRINCIPALE DE L'HOPITAL DE LA CONCEPTION", "name": "5284 - BAILLE-HOPITAL-CONCEPTION", "lon": 5.39631317835792}, "type": "Feature"}, {"geometry": {"coordinates": [5.372302255725486, 43.301805741199246], "type": "Point"}, "properties": {"stands": 7, "lat": 43.301805741199246, "update": "2016-02-06T12:40:37", "status": "OPEN", "bikes": 2, "address": "DAMES TERRAS - BOULEVARD DES DAMES ANGLE RUE DU TERRAS", "name": "2240-DAMES - TERRAS", "lon": 5.372302255725486}, "type": "Feature"}, {"geometry": {"coordinates": [5.374740047327954, 43.29924603474944], "type": "Point"}, "properties": {"stands": 3, "lat": 43.29924603474944, "update": "2016-02-06T12:45:00", "status": "OPEN", "bikes": 8, "address": "COLBERT SAINTE BARBE - RUE COLBERT ANGLE RUE SAINTE BARBE", "name": "1302-COLBERT -SAINTE BARBE", "lon": 5.374740047327954}, "type": "Feature"}, {"geometry": {"coordinates": [5.355962903211387, 43.28985620147398], "type": "Point"}, "properties": {"stands": 2, "lat": 43.28985620147398, "update": "2016-02-06T12:48:46", "status": "OPEN", "bikes": 13, "address": "CATALANS CORNICHE - 69 CORNICHE J.F. KENNEDY ANGLE RUE DES CATALANS", "name": "7026-CATALANS CORNICHE", "lon": 5.355962903211387}, "type": "Feature"}, {"geometry": {"coordinates": [5.3707713851323, 43.2961387765145], "type": "Point"}, "properties": {"stands": 17, "lat": 43.2961387765145, "update": "2016-02-06T12:43:19", "status": "OPEN", "bikes": 14, "address": "HOTEL DE VILLE - Face au 42 QUAI DU PORT", "name": "1002-HOTEL DE VILLE", "lon": 5.3707713851323}, "type": "Feature"}, {"geometry": {"coordinates": [5.385593763617925, 43.284775983612235], "type": "Point"}, "properties": {"stands": 22, "lat": 43.284775983612235, "update": "2016-02-06T12:46:48", "status": "OPEN", "bikes": 2, "address": "CANTINI ROUET - FACE AU 27 AVENUE JULES CANTINI", "name": "6176-CANTINI ROUET", "lon": 5.385593763617925}, "type": "Feature"}, {"geometry": {"coordinates": [5.369716218117023, 43.30179774806541], "type": "Point"}, "properties": {"stands": 6, "lat": 43.30179774806541, "update": "2016-02-06T12:44:11", "status": "OPEN", "bikes": 4, "address": "REPUBLIQUE MOISSON - RUE DE LA REPUBLIQUE ANGLE RUE FRANCOIS MOISSON", "name": "2304 - R\u00c9PUBLIQUE MOISSON", "lon": 5.369716218117023}, "type": "Feature"}, {"geometry": {"coordinates": [5.37693066220596, 43.29620767061392], "type": "Point"}, "properties": {"stands": 0, "lat": 43.29620767061392, "update": "2016-02-06T12:42:44", "status": "OPEN", "bikes": 9, "address": "CANEBIERE SAINT FERREOL - ANGLE CANEBIERE SAINT FERREOL", "name": "1191-CANEBIERE-ST FERREOL", "lon": 5.37693066220596}, "type": "Feature"}, {"geometry": {"coordinates": [5.384138435260716, 43.292604598053984], "type": "Point"}, "properties": {"stands": 8, "lat": 43.292604598053984, "update": "2016-02-06T12:48:47", "status": "OPEN", "bikes": 1, "address": "JULIEN BARTHELEMY - 9 RUE 3 FRERES BARTHELEMY", "name": "6114-JULIEN BARTHELEMY", "lon": 5.384138435260716}, "type": "Feature"}, {"geometry": {"coordinates": [5.392179383331833, 43.30143187524121], "type": "Point"}, "properties": {"stands": 6, "lat": 43.30143187524121, "update": "2016-02-06T12:48:30", "status": "OPEN", "bikes": 4, "address": "151 LIBERATION - 151 BOULEVARD DE LA LIBERATION", "name": "2222-151 LIBERATION", "lon": 5.392179383331833}, "type": "Feature"}, {"geometry": {"coordinates": [5.383955032544848, 43.30236655745069], "type": "Point"}, "properties": {"stands": 6, "lat": 43.30236655745069, "update": "2016-02-06T12:45:45", "status": "OPEN", "bikes": 11, "address": "SAINT CHARLES VOLTAIRE LIBERTE - BOULEVARD VOLTAIRE ANGLE BOULEVARD DE LA LIBERTE", "name": "1299- ST CHARLES VOLTAIRE LIBERT\u00c9", "lon": 5.383955032544848}, "type": "Feature"}, {"geometry": {"coordinates": [5.375131220340518, 43.294774773558274], "type": "Point"}, "properties": {"stands": 0, "lat": 43.294774773558274, "update": "2016-02-06T12:45:31", "status": "OPEN", "bikes": 9, "address": "BEAUVAU SUFFREN - RUE BEAUVAU ANGLE RUE BAILLI DE SUFFREN", "name": "1211-BEAUVAU - SUFFREN", "lon": 5.375131220340518}, "type": "Feature"}, {"geometry": {"coordinates": [5.36291062831879, 43.2984594666424], "type": "Point"}, "properties": {"stands": 1, "lat": 43.2984594666424, "update": "2016-02-06T12:45:14", "status": "OPEN", "bikes": 25, "address": "Bd du Littoral, 100 m avant le Mucem, devant l\u2019entr\u00e9e du parking Vieux Port Fort St Jean, direction vieux port", "name": "2200-MUCEM", "lon": 5.36291062831879}, "type": "Feature"}, {"geometry": {"coordinates": [5.385047448641554, 43.29952097558015], "type": "Point"}, "properties": {"stands": 2, "lat": 43.29952097558015, "update": "2016-02-06T12:45:50", "status": "OPEN", "bikes": 15, "address": "STALINGRAD REFORMES - SQUARE STALINGRAD", "name": "1287- STALINGRAD - R\u00c9FORM\u00c9S", "lon": 5.385047448641554}, "type": "Feature"}, {"geometry": {"coordinates": [5.390405906592448, 43.274352269730755], "type": "Point"}, "properties": {"stands": 8, "lat": 43.274352269730755, "update": "2016-02-06T12:50:19", "status": "OPEN", "bikes": 2, "address": "PRADO LATIL - 247 AVENUE DU PRADO", "name": "8308-PRADO LATIL", "lon": 5.390405906592448}, "type": "Feature"}, {"geometry": {"coordinates": [5.385552216536626, 43.26869900851042], "type": "Point"}, "properties": {"stands": 12, "lat": 43.26869900851042, "update": "2016-02-06T12:41:51", "status": "OPEN", "bikes": 1, "address": "397 PRADO - 397 AVENUE DU PRADO", "name": "8202-397 PRADO", "lon": 5.385552216536626}, "type": "Feature"}, {"geometry": {"coordinates": [5.39024943158741, 43.30958891338201], "type": "Point"}, "properties": {"stands": 12, "lat": 43.30958891338201, "update": "2016-02-06T12:42:37", "status": "OPEN", "bikes": 3, "address": "BELLE DE MAI FRICHE - ANGLE RUE GUIBAL ET RUE JOBIN", "name": "3321 - BELLE DE MAI FRICHE", "lon": 5.39024943158741}, "type": "Feature"}, {"geometry": {"coordinates": [5.381324, 43.290022], "type": "Point"}, "properties": {"stands": 8, "lat": 43.290022, "update": "2016-02-06T12:50:00", "status": "OPEN", "bikes": 1, "address": "angle rue de rome rue sylvabelle", "name": "06253 - ROME SYLVABELLE", "lon": 5.381324}, "type": "Feature"}, {"geometry": {"coordinates": [5.375548341850035, 43.290329770206334], "type": "Point"}, "properties": {"stands": 5, "lat": 43.290329770206334, "update": "2016-02-06T12:44:34", "status": "OPEN", "bikes": 3, "address": "PIERRE PUGET BRETEUIL - COURS PIERRE PUGET ANGLE RUE BRETEUIL", "name": "6154-PIERRE PUGET BRETEUIL", "lon": 5.375548341850035}, "type": "Feature"}, {"geometry": {"coordinates": [5.381132215559973, 43.29789631329341], "type": "Point"}, "properties": {"stands": 0, "lat": 43.29789631329341, "update": "2016-02-06T12:41:53", "status": "OPEN", "bikes": 9, "address": "CANEBIERE DUGOMMIER - LA CANEBIERE ANGLE BOULEVARD DUGOMMIER", "name": "1264 - CANEBI\u00c8RE DUGOMMIER", "lon": 5.381132215559973}, "type": "Feature"}, {"geometry": {"coordinates": [5.392112767343369, 43.284456097132846], "type": "Point"}, "properties": {"stands": 13, "lat": 43.284456097132846, "update": "2016-02-06T12:42:42", "status": "OPEN", "bikes": 3, "address": "TOULON MENPENTI - ANGLE AVENUE DE TOULON ET RUE MENPENTI", "name": "6206-TOULON - MENPENTI", "lon": 5.392112767343369}, "type": "Feature"}, {"geometry": {"coordinates": [5.390871390171412, 43.295363145406], "type": "Point"}, "properties": {"stands": 5, "lat": 43.295363145406, "update": "2016-02-06T12:49:15", "status": "OPEN", "bikes": 5, "address": "CHAVE EUGENE PIERRE - BOULEVARD CHAVE ANGLE BOULEVARD EUGENE PIERRE", "name": "5104-CHAVE EUG\u00c8NE PIERRE", "lon": 5.390871390171412}, "type": "Feature"}, {"geometry": {"coordinates": [5.39960982405674, 43.2902407800378], "type": "Point"}, "properties": {"stands": 15, "lat": 43.2902407800378, "update": "2016-02-06T12:49:40", "status": "OPEN", "bikes": 0, "address": "JEAN MOULIN BAILLE - BOULEVARD JEAN  MOULIN ANGLE BOULEVARD BAILLE", "name": "5106-JEAN MOULIN BAILLE", "lon": 5.39960982405674}, "type": "Feature"}, {"geometry": {"coordinates": [5.388799115293999, 43.29899195650368], "type": "Point"}, "properties": {"stands": 10, "lat": 43.29899195650368, "update": "2016-02-06T12:41:56", "status": "OPEN", "bikes": 0, "address": "ROOSEVELT ORAN - 53 COURS FRANKLIN ROOSEVELT ANGLE RUE D'ORAN", "name": "5220-ROOSEVELT - ORAN", "lon": 5.388799115293999}, "type": "Feature"}, {"geometry": {"coordinates": [5.388799649683594, 43.27654702249427], "type": "Point"}, "properties": {"stands": 8, "lat": 43.27654702249427, "update": "2016-02-06T12:44:45", "status": "OPEN", "bikes": 10, "address": "PRADO DUVEEN - 72 AVENUE DU PRADO", "name": "8309- PRADO DUVEEN", "lon": 5.388799649683594}, "type": "Feature"}, {"geometry": {"coordinates": [5.389387542314263, 43.269318556371154], "type": "Point"}, "properties": {"stands": 2, "lat": 43.269318556371154, "update": "2016-02-06T12:45:40", "status": "OPEN", "bikes": 13, "address": "NEGRESKO PAULET - FACE AU 42 RUE NEGRESKO", "name": "8265- N\u00c9GRESKO - PAULET", "lon": 5.389387542314263}, "type": "Feature"}, {"geometry": {"coordinates": [5.366730359523051, 43.30331167287617], "type": "Point"}, "properties": {"stands": 11, "lat": 43.30331167287617, "update": "2016-02-06T12:47:53", "status": "OPEN", "bikes": 2, "address": "DAMES SCHUMANN - 96 BOULEVARD DES DAMES", "name": "2032- DAMES  SCHUMANN", "lon": 5.366730359523051}, "type": "Feature"}, {"geometry": {"coordinates": [5.36370990786361, 43.28946760889984], "type": "Point"}, "properties": {"stands": 8, "lat": 43.28946760889984, "update": "2016-02-06T12:43:05", "status": "OPEN", "bikes": 2, "address": "CORSE SAINT MAURICE - 28 AVENUE DE LA CORSE ANGLE RAMPE SAINT MAURICE", "name": "7153-CORSE ST MAURICE", "lon": 5.36370990786361}, "type": "Feature"}, {"geometry": {"coordinates": [5.374447484757423, 43.24789994774334], "type": "Point"}, "properties": {"stands": 8, "lat": 43.24789994774334, "update": "2016-02-06T12:42:12", "status": "OPEN", "bikes": 12, "address": "VIEILLE CHAPELLE - 35 AVENUE DE LA POINTE ROUGE", "name": "8078-VIEILLE CHAPELLE", "lon": 5.374447484757423}, "type": "Feature"}, {"geometry": {"coordinates": [5.385996090720193, 43.29582518327951], "type": "Point"}, "properties": {"stands": 16, "lat": 43.29582518327951, "update": "2016-02-06T12:48:28", "status": "OPEN", "bikes": 0, "address": "PLAINE BIBLIOTHEQUE - 45 RUE DE LA BIBLIOTHEQUE", "name": "1224-PLAINE - BIBLIOTHEQUE", "lon": 5.385996090720193}, "type": "Feature"}, {"geometry": {"coordinates": [5.401127142110414, 43.29952274790985], "type": "Point"}, "properties": {"stands": 5, "lat": 43.29952274790985, "update": "2016-02-06T12:46:44", "status": "OPEN", "bikes": 6, "address": "SAKAKINI FOCH - BOULAVARD SAKAKINI ANGLE AVENUE MARECHAL FOCH", "name": "4022-SAKAKINI FOCH", "lon": 5.401127142110414}, "type": "Feature"}, {"geometry": {"coordinates": [5.373546945382951, 43.291357465205536], "type": "Point"}, "properties": {"stands": 7, "lat": 43.291357465205536, "update": "2016-02-06T12:50:06", "status": "OPEN", "bikes": 3, "address": "GRIGNAN MARCELLE PAUL - RUE GRIGNAN ANGLE RUE DE LA PAIX MARCELLE PAUL", "name": "1213-GRIGNAN - MARCELLE PAUL", "lon": 5.373546945382951}, "type": "Feature"}], "type": "FeatureCollection"}
=======
{"type": "FeatureCollection", "features": [{"type": "Feature", "properties": {"lon": 5.403244616491982, "stands": 1, "update": "2016-02-05T16:21:41", "bikes": 20, "lat": 43.250903869637334, "status": "OPEN", "address": "MAZARGUES - ROND POINT DE MAZARGUES (OBELISQUE)", "name": "9087-MAZARGUES"}, "geometry": {"type": "Point", "coordinates": [5.403244616491982, 43.250903869637334]}}, {"type": "Feature", "properties": {"lon": 5.379895702048497, "stands": 13, "update": "2016-02-05T16:24:39", "bikes": 6, "lat": 43.301510278747365, "status": "OPEN", "address": "SAINT CHARLES MARSEILLAISES - PLACE DES MARSEILLAISES ANGLE RUE PHILIPPE DE GIRARD", "name": "1301- ST CHARLES MARSEILLAISES"}, "geometry": {"type": "Point", "coordinates": [5.379895702048497, 43.301510278747365]}}, {"type": "Feature", "properties": {"lon": 5.379650236474981, "stands": 6, "update": "2016-02-05T16:23:59", "bikes": 9, "lat": 43.2896832563691, "status": "OPEN", "address": "ROSTAND PREFECTURE - 6 RUE EDMOND ROSTAND ANGLE RUE SYLVABELLE", "name": "6217-ROSTAND - PREFECTURE"}, "geometry": {"type": "Point", "coordinates": [5.379650236474981, 43.2896832563691]}}, {"type": "Feature", "properties": {"lon": 5.370488134608402, "stands": 4, "update": "2016-02-05T16:23:58", "bikes": 5, "lat": 43.30056201196652, "status": "OPEN", "address": "REPUBLIQUE CATHALA - RUE DE LA REPUBLIQUE ANGLE RUE JEAN MARC CATHALA", "name": "2184-REPUBLIQUE-CATHALA"}, "geometry": {"type": "Point", "coordinates": [5.370488134608402, 43.30056201196652]}}, {"type": "Feature", "properties": {"lon": 5.36651, "stands": 5, "update": "2016-02-05T16:21:10", "bikes": 17, "lat": 43.308731, "status": "OPEN", "address": "SOUS A55 AU BOUT DES DOCKS FACE AU 22 QUAI DU LAZARET 13002", "name": "02279 - DOCKS LES TERRASSES DU PORT"}, "geometry": {"type": "Point", "coordinates": [5.36651, 43.308731]}}, {"type": "Feature", "properties": {"lon": 5.386356771062651, "stands": 5, "update": "2016-02-05T16:24:52", "bikes": 2, "lat": 43.30353946127941, "status": "OPEN", "address": "FLAMMARION NATIONAL - BOULEVARD CAMILLE FLAMMARION ANGLE BOULEVARD NATIONAL", "name": "1344 - FLAMMARION NATIONAL"}, "geometry": {"type": "Point", "coordinates": [5.386356771062651, 43.30353946127941]}}, {"type": "Feature", "properties": {"lon": 5.36697414687028, "stands": 7, "update": "2016-02-05T16:22:48", "bikes": 6, "lat": 43.3051302607768, "status": "OPEN", "address": "JOLIETTE DUNKERQUE - PLACE DE LA JOLIETTE ANGLE BOULEVARD DUNKERQUE", "name": "2272- JOLIETTE-DUNKERQUE"}, "geometry": {"type": "Point", "coordinates": [5.36697414687028, 43.3051302607768]}}, {"type": "Feature", "properties": {"lon": 5.375795816171145, "stands": 0, "update": "2016-02-05T16:19:04", "bikes": 8, "lat": 43.262455920908494, "status": "OPEN", "address": "PRADO BORELY - 579 AVENUE DU PRADO", "name": "8068-PRADO BORELY"}, "geometry": {"type": "Point", "coordinates": [5.375795816171145, 43.262455920908494]}}, {"type": "Feature", "properties": {"lon": 5.394684906357751, "stands": 4, "update": "2016-02-05T16:19:28", "bikes": 8, "lat": 43.302008143688155, "status": "OPEN", "address": "LIBERATION CHAPE ESPERANDIEU - BOULAVARD LIBERATION ANGLE RUE CHAPE", "name": "4238-LIBERATION-CHAPE-ESPERANDIEU"}, "geometry": {"type": "Point", "coordinates": [5.394684906357751, 43.302008143688155]}}, {"type": "Feature", "properties": {"lon": 5.371867606488009, "stands": 1, "update": "2016-02-05T16:16:26", "bikes": 9, "lat": 43.29312239728256, "status": "OPEN", "address": "PLACE AUX HUILES - COURS ESTIENNE D'ORVES ANGLE RUE SAINT SAENS", "name": "1003-PLACE AUX HUILES"}, "geometry": {"type": "Point", "coordinates": [5.371867606488009, 43.29312239728256]}}, {"type": "Feature", "properties": {"lon": 5.375905974276691, "stands": 2, "update": "2016-02-05T16:23:59", "bikes": 13, "lat": 43.292666663006464, "status": "OPEN", "address": "SAINTE LULLI - 17 RUE SAINTE", "name": "1216-SAINTE - LULLI"}, "geometry": {"type": "Point", "coordinates": [5.375905974276691, 43.292666663006464]}}, {"type": "Feature", "properties": {"lon": 5.366479730277853, "stands": 12, "update": "2016-02-05T16:23:51", "bikes": 1, "lat": 43.28923675488644, "status": "OPEN", "address": "ENDOUME CORDERIE - 41 RUE D'ENDOUME", "name": "7215-ENDOUME - CORDERIE"}, "geometry": {"type": "Point", "coordinates": [5.366479730277853, 43.28923675488644]}}, {"type": "Feature", "properties": {"lon": 5.36552550703358, "stands": 6, "update": "2016-02-05T16:22:49", "bikes": 9, "lat": 43.295414354264665, "status": "OPEN", "address": "QUAI DU PORT - 148 QUAI DU PORT", "name": "2179-QUAI DU PORT"}, "geometry": {"type": "Point", "coordinates": [5.36552550703358, 43.295414354264665]}}, {"type": "Feature", "properties": {"lon": 5.402740962235228, "stands": 2, "update": "2016-02-05T16:22:11", "bikes": 14, "lat": 43.2693522531282, "status": "OPEN", "address": "SCHLOESSING TEISSERE - ANGLE BOULEVARD SCHLOESSING ET RUE RAYMOND TEISSERE", "name": "9085-SCHLOESING TEISSERE"}, "geometry": {"type": "Point", "coordinates": [5.402740962235228, 43.2693522531282]}}, {"type": "Feature", "properties": {"lon": 5.379124641857261, "stands": 1, "update": "2016-02-05T16:19:36", "bikes": 8, "lat": 43.289985879061746, "status": "OPEN", "address": "PAUL PEYTRAL - 35 BOULEVARD PAUL PEYTRAL", "name": "6100-PAUL PEYTRAL"}, "geometry": {"type": "Point", "coordinates": [5.379124641857261, 43.289985879061746]}}, {"type": "Feature", "properties": {"lon": 5.401873594694653, "stands": 17, "update": "2016-02-05T16:24:02", "bikes": 2, "lat": 43.25402727813068, "status": "OPEN", "address": "391 MICHELET - 391 BOULEVARD MICHELET", "name": "8149-391 MICHELET"}, "geometry": {"type": "Point", "coordinates": [5.401873594694653, 43.25402727813068]}}, {"type": "Feature", "properties": {"lon": 5.399686062414487, "stands": 2, "update": "2016-02-05T16:25:11", "bikes": 8, "lat": 43.27252367086013, "status": "OPEN", "address": "TEISSEIRE ROUBAUD - ANGLE RUE RAYMOND TEISSEIRE ET RUE MAGUY ROUBAUD", "name": "9207- TEISSEIRE - ROUBAUD"}, "geometry": {"type": "Point", "coordinates": [5.399686062414487, 43.27252367086013]}}, {"type": "Feature", "properties": {"lon": 5.383105742132375, "stands": 11, "update": "2016-02-05T16:22:21", "bikes": 3, "lat": 43.28892000857008, "status": "OPEN", "address": "ROME ITALIE BERLIOZ - FACE AU 10 RUE BERLIOZ", "name": "6254-ROME - BERLIOZ - ITALIE"}, "geometry": {"type": "Point", "coordinates": [5.383105742132375, 43.28892000857008]}}, {"type": "Feature", "properties": {"lon": 5.3901483781149, "stands": 15, "update": "2016-02-05T16:18:00", "bikes": 0, "lat": 43.304681870508325, "status": "OPEN", "address": "FLAMMARION GROBET - BOULEVARD CAMILLE FLAMMARION ANGLE RUE LOUIS GROBET", "name": "1343 - FLAMMARION GROBET"}, "geometry": {"type": "Point", "coordinates": [5.3901483781149, 43.304681870508325]}}, {"type": "Feature", "properties": {"lon": 5.387779642713593, "stands": 13, "update": "2016-02-05T16:25:00", "bikes": 2, "lat": 43.2886166717576, "status": "OPEN", "address": "LODI VILLAGE - FACE AU 89 RUE DE LODI", "name": "6113-LODI VILLAGE"}, "geometry": {"type": "Point", "coordinates": [5.387779642713593, 43.2886166717576]}}, {"type": "Feature", "properties": {"lon": 5.387773261785004, "stands": 11, "update": "2016-02-05T16:21:47", "bikes": 4, "lat": 43.30123319837804, "status": "OPEN", "address": "NATIONAL LONGCHAMP - 1 BD NATIONAL ANGLE LONGCHAMP", "name": "1130- NATIONAL LONGCHAMP"}, "geometry": {"type": "Point", "coordinates": [5.387773261785004, 43.30123319837804]}}, {"type": "Feature", "properties": {"lon": 5.365239906973955, "stands": 9, "update": "2016-02-05T16:23:53", "bikes": 6, "lat": 43.270172262619184, "status": "OPEN", "address": "CORNICHE RAPATRIES - CORNICHE J.F. KENNEDY FACE AU MEMORIAL DES RAPATRIES EN DIRECTION DU VIEUX PORT", "name": "7142-CORNICHE RAPATRIES"}, "geometry": {"type": "Point", "coordinates": [5.365239906973955, 43.270172262619184]}}, {"type": "Feature", "properties": {"lon": 5.393967016838425, "stands": 9, "update": "2016-02-05T16:23:56", "bikes": 6, "lat": 43.26796549967643, "status": "OPEN", "address": "MICHELET HUVEAUNE - ANGLE BOULEVARD MICHELET ET RUE JACQUES PICON", "name": "8147 - MICHELET HUVEAUNE"}, "geometry": {"type": "Point", "coordinates": [5.393967016838425, 43.26796549967643]}}, {"type": "Feature", "properties": {"lon": 5.387375678428276, "stands": 6, "update": "2016-02-05T16:16:39", "bikes": 9, "lat": 43.31181964585524, "status": "OPEN", "address": "BELLE DE MAI CADENAT - PLACE BERNARD CADENAT", "name": "3320 - BELLE DE MAI CADENAT"}, "geometry": {"type": "Point", "coordinates": [5.387375678428276, 43.31181964585524]}}, {"type": "Feature", "properties": {"lon": 5.38678589001619, "stands": 17, "update": "2016-02-05T16:17:58", "bikes": 0, "lat": 43.2865946021474, "status": "OPEN", "address": "BAILLE FRIEDLAND - BOULEVARD BAILLE ANGLE RUE DE FRIEDLAND", "name": "6177-BAILLE FRIEDLAND"}, "geometry": {"type": "Point", "coordinates": [5.38678589001619, 43.2865946021474]}}, {"type": "Feature", "properties": {"lon": 5.39166970262158, "stands": 5, "update": "2016-02-05T16:16:33", "bikes": 15, "lat": 43.2722414899425, "status": "OPEN", "address": "Parvis entr\u00e9e parc Chanot", "name": "8307-PRADO MICHELET"}, "geometry": {"type": "Point", "coordinates": [5.39166970262158, 43.2722414899425]}}, {"type": "Feature", "properties": {"lon": 5.397731278573822, "stands": 13, "update": "2016-02-05T16:23:32", "bikes": 2, "lat": 43.29748821146523, "status": "OPEN", "address": "RUE GEORGES - 28 RUE GEORGES", "name": "5103-RUE GEORGES"}, "geometry": {"type": "Point", "coordinates": [5.397731278573822, 43.29748821146523]}}, {"type": "Feature", "properties": {"lon": 5.38661231791721, "stands": 8, "update": "2016-02-05T16:19:46", "bikes": 2, "lat": 43.29908095432929, "status": "OPEN", "address": "ROOSEVELT REFORMES - 7 COURS FRANKLIN ROOSEVELT", "name": "1230-ROOSEVELT - REFORMES"}, "geometry": {"type": "Point", "coordinates": [5.38661231791721, 43.29908095432929]}}, {"type": "Feature", "properties": {"lon": 5.377690136115547, "stands": 9, "update": "2016-02-05T16:21:08", "bikes": 3, "lat": 43.30380276644441, "status": "OPEN", "address": "SAINT CHARLES LECLERC ZATTARA - AVENUE DU GENERAL LECLERC ANGLE RUE ANTOINE ZATTARA", "name": "1345 - SAINT CHARLES LECLERC ZATTARA"}, "geometry": {"type": "Point", "coordinates": [5.377690136115547, 43.30380276644441]}}, {"type": "Feature", "properties": {"lon": 5.396409806138883, "stands": 7, "update": "2016-02-05T16:17:38", "bikes": 8, "lat": 43.27524269246836, "status": "OPEN", "address": "RABATAU TEISSEIRE - ANGLE BOULEVARD RABATAU ET FACE AU 68 RUE RAYMOND TEISSEIRE", "name": "8257-RABATAU - TEISSEIRE"}, "geometry": {"type": "Point", "coordinates": [5.396409806138883, 43.27524269246836]}}, {"type": "Feature", "properties": {"lon": 5.373860886192452, "stands": 1, "update": "2016-02-05T16:22:36", "bikes": 7, "lat": 43.296824934966864, "status": "OPEN", "address": "REPUBLIQUE COUTELLERIE - RUE DE LA REPUBLIQUE ANGLE RUE DE LA COUTELLERIE", "name": "1346- REPUBLIQUE COUTELLERIE"}, "geometry": {"type": "Point", "coordinates": [5.373860886192452, 43.296824934966864]}}, {"type": "Feature", "properties": {"lon": 5.378423799723321, "stands": 4, "update": "2016-02-05T16:24:23", "bikes": 12, "lat": 43.293485736186526, "status": "OPEN", "address": "ST FERREOL DAVSO - RUE FRANCIS DAVSO ANGLE RUE SAINT FERREOL", "name": "1297- ST F\u00c9RR\u00c9OL DAVSO"}, "geometry": {"type": "Point", "coordinates": [5.378423799723321, 43.293485736186526]}}, {"type": "Feature", "properties": {"lon": 5.398913930872658, "stands": 4, "update": "2016-02-05T16:18:22", "bikes": 10, "lat": 43.25850879475187, "status": "OPEN", "address": "MICHELET LUCE - ANGLE BOULEVARD MICHELET ET BOULEVARD LUCE", "name": "9074-MICHELET LUCE"}, "geometry": {"type": "Point", "coordinates": [5.398913930872658, 43.25850879475187]}}, {"type": "Feature", "properties": {"lon": 5.38545312564012, "stands": 5, "update": "2016-02-05T16:21:20", "bikes": 9, "lat": 43.29441078214159, "status": "OPEN", "address": "LA PLAINE SUD - RUE DES TROIS MAGES ANGLE PLACE JEAN JAURES", "name": "1228-LA PLAINE SUD"}, "geometry": {"type": "Point", "coordinates": [5.38545312564012, 43.29441078214159]}}, {"type": "Feature", "properties": {"lon": 5.39403885378465, "stands": 11, "update": "2016-02-05T16:21:25", "bikes": 0, "lat": 43.28872669088929, "status": "OPEN", "address": "BAILLE CONCEPTION  - 145 BOULEVARD BAILLE", "name": "5107-BAILLE CONCEPTION"}, "geometry": {"type": "Point", "coordinates": [5.39403885378465, 43.28872669088929]}}, {"type": "Feature", "properties": {"lon": 5.369497428189588, "stands": 3, "update": "2016-02-05T16:19:31", "bikes": 2, "lat": 43.30255028371949, "status": "OPEN", "address": "RPUBLIQUE DAMES - 68 BOULEVARD DES DAMES", "name": "2030-REPUBLIQUE DAMES"}, "geometry": {"type": "Point", "coordinates": [5.369497428189588, 43.30255028371949]}}, {"type": "Feature", "properties": {"lon": 5.401285286456447, "stands": 5, "update": "2016-02-05T16:24:23", "bikes": 5, "lat": 43.292800863545835, "status": "OPEN", "address": "SAKAKINI SAINT PIERRE - BOULEVARD SAKAKINI ANGLE RUE SAINT PIERRE", "name": "5058 -SAKAKINI - SAINT PIERRE"}, "geometry": {"type": "Point", "coordinates": [5.401285286456447, 43.292800863545835]}}, {"type": "Feature", "properties": {"lon": 5.3586207351308, "stands": 13, "update": "2016-02-05T16:22:09", "bikes": 1, "lat": 43.2884327278463, "status": "OPEN", "address": "2 RUE CAPITAINE DESSEMOND", "name": "7027-PLACE DU 4 SEPTEMBRE"}, "geometry": {"type": "Point", "coordinates": [5.3586207351308, 43.2884327278463]}}, {"type": "Feature", "properties": {"lon": 5.386461522334788, "stands": 7, "update": "2016-02-05T16:24:57", "bikes": 8, "lat": 43.28350144850817, "status": "OPEN", "address": "ROUET - 48 RUE DU ROUET", "name": "6208-ROUET"}, "geometry": {"type": "Point", "coordinates": [5.386461522334788, 43.28350144850817]}}, {"type": "Feature", "properties": {"lon": 5.370835093727862, "stands": 9, "update": "2016-02-05T16:18:50", "bikes": 11, "lat": 43.29780955608182, "status": "OPEN", "address": "GRAND RUE - FACE AU 35 GRAND'RUE", "name": "2012-GRAND RUE"}, "geometry": {"type": "Point", "coordinates": [5.370835093727862, 43.29780955608182]}}, {"type": "Feature", "properties": {"lon": 5.375339514183368, "stands": 0, "update": "2016-02-05T16:16:34", "bikes": 13, "lat": 43.295686109850145, "status": "OPEN", "address": "CANEBIERE REINE ELISABETH - CANEBIERE ANGLE REINE ELISABETH", "name": "1001 - CANEBIERE REINE ELISABETH"}, "geometry": {"type": "Point", "coordinates": [5.375339514183368, 43.295686109850145]}}, {"type": "Feature", "properties": {"lon": 5.37599738915791, "stands": 4, "update": "2016-02-05T16:16:29", "bikes": 6, "lat": 43.25394372546869, "status": "OPEN", "address": "ESCALE BORELY POINTE ROUGE - ESCALE BORELY EN DIRECTION DE L'AVENUE POINTE ROUGE", "name": "8144-ESCALE BORELY POINTE ROUGE"}, "geometry": {"type": "Point", "coordinates": [5.37599738915791, 43.25394372546869]}}, {"type": "Feature", "properties": {"lon": 5.38279581908046, "stands": 5, "update": "2016-02-05T16:20:10", "bikes": 10, "lat": 43.2668438148239, "status": "OPEN", "address": "PRADO GABES - AVENUE DU PRADO ANGLE BD DE GABES", "name": "8067-PRADO GABES"}, "geometry": {"type": "Point", "coordinates": [5.38279581908046, 43.2668438148239]}}, {"type": "Feature", "properties": {"lon": 5.349696475467313, "stands": 5, "update": "2016-02-05T16:16:46", "bikes": 10, "lat": 43.284213979400505, "status": "OPEN", "address": "88 CORNICHE KENNEDY - 88 CORNICHE J.F. KENNEDY", "name": "7062-88 CORNICHE - KENNEDY"}, "geometry": {"type": "Point", "coordinates": [5.349696475467313, 43.284213979400505]}}, {"type": "Feature", "properties": {"lon": 5.375165446771129, "stands": 6, "update": "2016-02-05T16:25:10", "bikes": 9, "lat": 43.29542125608577, "status": "OPEN", "address": "BEAUVAU CANEBIERE - RUE BEAUVAU", "name": "1210-BEAUVAU - CANEBIERE"}, "geometry": {"type": "Point", "coordinates": [5.375165446771129, 43.29542125608577]}}, {"type": "Feature", "properties": {"lon": 5.383285575102103, "stands": 18, "update": "2016-02-05T16:21:26", "bikes": 1, "lat": 43.286046362122946, "status": "OPEN", "address": "CASTELLANE - ROND POINT CASTELLANE DEVANT LE CAFE DE PARIS", "name": "6023- CASTELLANE"}, "geometry": {"type": "Point", "coordinates": [5.383285575102103, 43.286046362122946]}}, {"type": "Feature", "properties": {"lon": 5.406000803377506, "stands": 14, "update": "2016-02-05T16:18:55", "bikes": 0, "lat": 43.29626340517055, "status": "OPEN", "address": "BLANCARDE - GARE DE LA BLANCARDE", "name": "4293- BLANCARDE"}, "geometry": {"type": "Point", "coordinates": [5.406000803377506, 43.29626340517055]}}, {"type": "Feature", "properties": {"lon": 5.366506599649465, "stands": 5, "update": "2016-02-05T16:20:15", "bikes": 5, "lat": 43.23984252335505, "status": "OPEN", "address": "PARC PASTRE - ANGLE AVENUE DE MONTREDON ET AVENUE D'OUTRE MER", "name": "8313- PARC PASTRE"}, "geometry": {"type": "Point", "coordinates": [5.366506599649465, 43.23984252335505]}}, {"type": "Feature", "properties": {"lon": 5.38299269172725, "stands": 10, "update": "2016-02-05T16:18:33", "bikes": 0, "lat": 43.2921244873688, "status": "OPEN", "address": "LIEUTAUD JULIEN - FACE AU 20 BOULEVARD THEODORE THURNER", "name": "6237-LIEUTAUD JULIEN"}, "geometry": {"type": "Point", "coordinates": [5.38299269172725, 43.2921244873688]}}, {"type": "Feature", "properties": {"lon": 5.381500046726694, "stands": 0, "update": "2016-02-05T16:16:12", "bikes": 15, "lat": 43.29902793826475, "status": "OPEN", "address": "GAMBETTA LAFAYETTE - 6 ALLEES LEON GAMBETTA", "name": "1245-GAMBETTA - LAFAYETTE"}, "geometry": {"type": "Point", "coordinates": [5.381500046726694, 43.29902793826475]}}, {"type": "Feature", "properties": {"lon": 5.373281108125947, "stands": 10, "update": "2016-02-05T16:19:30", "bikes": 5, "lat": 43.26469407213291, "status": "OPEN", "address": "PROMENADE POMPIDOU AMIRAL MUSELIER - PROMENADE GEORGES POMPIDOU DEVANT LA PLACE AMIRAL MUSELIER", "name": "8132-PROMENADE POMPIDOU AMIRAL MUSELIER"}, "geometry": {"type": "Point", "coordinates": [5.373281108125947, 43.26469407213291]}}, {"type": "Feature", "properties": {"lon": 5.376413023650641, "stands": 11, "update": "2016-02-05T16:24:35", "bikes": 9, "lat": 43.25505597847173, "status": "OPEN", "address": "ESCALE BORELY - ANGLE ESCALE BORELY ET AVENUE BONNEVEINE", "name": "8145-ESCALE BORELY"}, "geometry": {"type": "Point", "coordinates": [5.376413023650641, 43.25505597847173]}}, {"type": "Feature", "properties": {"lon": 5.400635371105712, "stands": 0, "update": "2016-02-05T16:23:25", "bikes": 15, "lat": 43.268405140653144, "status": "OPEN", "address": "PUGETTE ANDRE - ANGLE AVENUE DU GENERAL ANDRE FACE AU 23 BOULEVARD DE LA PUGETTE", "name": "9219-PUGETTE - ANDRE"}, "geometry": {"type": "Point", "coordinates": [5.400635371105712, 43.268405140653144]}}, {"type": "Feature", "properties": {"lon": 5.391048744484495, "stands": 3, "update": "2016-02-05T16:20:44", "bikes": 16, "lat": 43.27278734452526, "status": "OPEN", "address": "ROND POINT DU PRADO - 300 AVENUE DU PRADO", "name": "8134-ROND POINT DU PRADO"}, "geometry": {"type": "Point", "coordinates": [5.391048744484495, 43.27278734452526]}}, {"type": "Feature", "properties": {"lon": 5.36771555892562, "stands": 4, "update": "2016-02-05T16:20:40", "bikes": 11, "lat": 43.3047137105911, "status": "OPEN", "address": "JOLIETTE FORBIN - PLACE DE LA JOLIETTE ANGLE RUE DE FORBIN", "name": "2341- JOLIETTE FORBIN"}, "geometry": {"type": "Point", "coordinates": [5.36771555892562, 43.3047137105911]}}, {"type": "Feature", "properties": {"lon": 5.374505152575336, "stands": 1, "update": "2016-02-05T16:22:33", "bikes": 14, "lat": 43.26178202177259, "status": "OPEN", "address": "PROMENADE POMPIDOU DAVID -  PROMENADE GEORGES POMPIDOU AU NIVEAU DU ROND POINT DE DAVID", "name": "8131-PROMENADE POMPIDOU DAVID"}, "geometry": {"type": "Point", "coordinates": [5.374505152575336, 43.26178202177259]}}, {"type": "Feature", "properties": {"lon": 5.379450180172236, "stands": 1, "update": "2016-02-05T16:22:03", "bikes": 13, "lat": 43.28683835122117, "status": "OPEN", "address": "153 PARADIS - 153 RUE PARADIS", "name": "6160-153 PARADIS"}, "geometry": {"type": "Point", "coordinates": [5.379450180172236, 43.28683835122117]}}, {"type": "Feature", "properties": {"lon": 5.398630311705657, "stands": 7, "update": "2016-02-05T16:23:28", "bikes": 12, "lat": 43.301185515493664, "status": "OPEN", "address": "FOCH FAYOLLE - ANGLE AVENUE MARECHAL FOCH ET RUE MARECHAL FAYOLLE", "name": "4111-FOCH FAYOLLE"}, "geometry": {"type": "Point", "coordinates": [5.398630311705657, 43.301185515493664]}}, {"type": "Feature", "properties": {"lon": 5.37224035119238, "stands": 6, "update": "2016-02-05T16:24:55", "bikes": 7, "lat": 43.30598895681527, "status": "OPEN", "address": "FORBIN PARIS - RUE DE FORBIN ANGLE BOULEVARD DE PARIS", "name": "2323 -FORBIN PARIS"}, "geometry": {"type": "Point", "coordinates": [5.37224035119238, 43.30598895681527]}}, {"type": "Feature", "properties": {"lon": 5.39517783172075, "stands": 1, "update": "2016-02-05T16:17:15", "bikes": 12, "lat": 43.25096285100345, "status": "OPEN", "address": "MAZARGUES ALMERAS - ANGLE AVENUE DE MAZARGUES ET IMPASSE ALMERAS", "name": "9260- MAZARGUES - ALMERAS"}, "geometry": {"type": "Point", "coordinates": [5.39517783172075, 43.25096285100345]}}, {"type": "Feature", "properties": {"lon": 5.367786407891749, "stands": 1, "update": "2016-02-05T16:16:29", "bikes": 9, "lat": 43.304190155898155, "status": "OPEN", "address": "REPUBLIQUE PLUMIER - RUE DE LA REPUBLIQUE ANGLE RUE PLUMIER", "name": "2327- R\u00c9PUBLIQUE PLUMIER"}, "geometry": {"type": "Point", "coordinates": [5.367786407891749, 43.304190155898155]}}, {"type": "Feature", "properties": {"lon": 5.377103061958931, "stands": 0, "update": "2016-02-05T16:21:33", "bikes": 15, "lat": 43.297138004748, "status": "OPEN", "address": "CENTRE BOURSE - RUE BIR HAKEIM ENTREE CENTRE BOURSE", "name": "1005-CENTRE BOURSE"}, "geometry": {"type": "Point", "coordinates": [5.377103061958931, 43.297138004748]}}, {"type": "Feature", "properties": {"lon": 5.360224853219125, "stands": 14, "update": "2016-02-05T16:22:58", "bikes": 1, "lat": 43.29224532184672, "status": "OPEN", "address": "LIVON VIEUX PORT - 36 BOULEVARD CHARLES LIVON", "name": "7146-LIVON VIEUX PORT"}, "geometry": {"type": "Point", "coordinates": [5.360224853219125, 43.29224532184672]}}, {"type": "Feature", "properties": {"lon": 5.391331392803749, "stands": 5, "update": "2016-02-05T16:16:53", "bikes": 2, "lat": 43.287814455889425, "status": "OPEN", "address": "BAILLE PAURIOL - 114 BOULEVARD BAILLE ANGLE RUE PAURIOL", "name": "5024-BAILLE PAURIOL"}, "geometry": {"type": "Point", "coordinates": [5.391331392803749, 43.287814455889425]}}, {"type": "Feature", "properties": {"lon": 5.374638177288532, "stands": 0, "update": "2016-02-05T16:20:16", "bikes": 10, "lat": 43.29336790915692, "status": "OPEN", "address": "COURS JEAN BALLARD - 5 COURS JEAN BALLARD", "name": "1006-COURS JEAN BALLARD"}, "geometry": {"type": "Point", "coordinates": [5.374638177288532, 43.29336790915692]}}, {"type": "Feature", "properties": {"lon": 5.384455147739253, "stands": 10, "update": "2016-02-05T16:23:51", "bikes": 0, "lat": 43.275618147775035, "status": "OPEN", "address": "PARADIS LORD DUVEEN - 395 RUE PARADIS", "name": "8246-PARADIS - LORD DUVEEN"}, "geometry": {"type": "Point", "coordinates": [5.384455147739253, 43.275618147775035]}}, {"type": "Feature", "properties": {"lon": 5.387431047255536, "stands": 10, "update": "2016-02-05T16:22:58", "bikes": 3, "lat": 43.27974214607358, "status": "OPEN", "address": "PRADO PERIER - 127 AVENUE DU PRADO", "name": "8053-PRADO - PERIER"}, "geometry": {"type": "Point", "coordinates": [5.387431047255536, 43.27974214607358]}}, {"type": "Feature", "properties": {"lon": 5.37544360265886, "stands": 10, "update": "2016-02-05T16:21:09", "bikes": 8, "lat": 43.260217853801166, "status": "OPEN", "address": "MENDES FRANCE HUVEAUNE - AVENUE PEIRRE MENDES FRANCE DEVANT L'ENTREE DU PARC BORELY", "name": "8066-MENDES FRANCE HUVEAUNE"}, "geometry": {"type": "Point", "coordinates": [5.37544360265886, 43.260217853801166]}}, {"type": "Feature", "properties": {"lon": 5.393973899334583, "stands": 10, "update": "2016-02-05T16:16:17", "bikes": 5, "lat": 43.260699609117914, "status": "OPEN", "address": "318 MAZARGUES - FACE AU 318 AVENUE DE MAZARGUES", "name": "8261- 318 MAZARGUES"}, "geometry": {"type": "Point", "coordinates": [5.393973899334583, 43.260699609117914]}}, {"type": "Feature", "properties": {"lon": 5.37602674729877, "stands": 3, "update": "2016-02-05T16:22:13", "bikes": 7, "lat": 43.29494730625887, "status": "OPEN", "address": "GENERAL DE GAULLE PARADIS - PLACE GENERAL DE GAULLE FACE AU 11 RUE PARADIS", "name": "1004-GENERAL DE GAULLE PARADIS"}, "geometry": {"type": "Point", "coordinates": [5.37602674729877, 43.29494730625887]}}, {"type": "Feature", "properties": {"lon": 5.372259932395231, "stands": 10, "update": "2016-02-05T16:22:38", "bikes": 4, "lat": 43.29076433240633, "status": "OPEN", "address": "PLACE CORDERIE - AU CENTRE DE LA PLACE CORDERIE", "name": "6020-PLACE DE LA CORDERIE"}, "geometry": {"type": "Point", "coordinates": [5.372259932395231, 43.29076433240633]}}, {"type": "Feature", "properties": {"lon": 5.396312199117862, "stands": 13, "update": "2016-02-05T16:19:00", "bikes": 0, "lat": 43.29581102315005, "status": "OPEN", "address": "CHAVE CAMAS - BOULEVARD CHAVE ANGLE RUE DU CAMAS", "name": "5280-CHAVE CAMAS"}, "geometry": {"type": "Point", "coordinates": [5.396312199117862, 43.29581102315005]}}, {"type": "Feature", "properties": {"lon": 5.370540756635374, "stands": 9, "update": "2016-02-05T16:24:48", "bikes": 8, "lat": 43.243802055963265, "status": "OPEN", "address": "POINTE ROUGE MONTREDON - ANGLE AVENUE ODESSA ET AVENUE MONTREDON", "name": "8290- POINTE ROUGE - MONTREDON"}, "geometry": {"type": "Point", "coordinates": [5.370540756635374, 43.243802055963265]}}, {"type": "Feature", "properties": {"lon": 5.392402358314715, "stands": 10, "update": "2016-02-05T16:23:41", "bikes": 2, "lat": 43.263999455764186, "status": "OPEN", "address": "MAZARGUES BARRAL - ANGLE AVENUE DE MAZARGUES ET BOULEVARD BARRAL", "name": "8262-MAZARGUES-BARRAL"}, "geometry": {"type": "Point", "coordinates": [5.392402358314715, 43.263999455764186]}}, {"type": "Feature", "properties": {"lon": 5.378292250179226, "stands": 15, "update": "2016-02-05T16:15:38", "bikes": 0, "lat": 43.304244359587024, "status": "OPEN", "address": "SAINT CHARLES FACULTE - BOULEVARD GUSTAVE DESPLACES ANGLE AVENUE DU GENERAL LECLERC", "name": "1316 -ST CHARLES FACULT\u00c9"}, "geometry": {"type": "Point", "coordinates": [5.378292250179226, 43.304244359587024]}}, {"type": "Feature", "properties": {"lon": 5.357823161216201, "stands": 16, "update": "2016-02-05T16:17:34", "bikes": 4, "lat": 43.29198908246378, "status": "OPEN", "address": "LIVON PASTEUR - BOULEVARD CHARLES LIVON ANGLE ESPLANADE DU PHARO", "name": "7025-LIVON PASTEUR"}, "geometry": {"type": "Point", "coordinates": [5.357823161216201, 43.29198908246378]}}, {"type": "Feature", "properties": {"lon": 5.389298285180646, "stands": 5, "update": "2016-02-05T16:16:24", "bikes": 5, "lat": 43.30050650960441, "status": "OPEN", "address": "91 LIBERATION - 91 BOULEVARD DE LA LIBERATION", "name": "2221-91 LIB\u00c9RATION"}, "geometry": {"type": "Point", "coordinates": [5.389298285180646, 43.30050650960441]}}, {"type": "Feature", "properties": {"lon": 5.372088524255505, "stands": 5, "update": "2016-02-05T16:25:07", "bikes": 10, "lat": 43.267272515671856, "status": "OPEN", "address": "PROMENADE POMPIDOU PALM BEACH - 6 PROMENADE GEORGES POMPIDOU", "name": "8065-PROMENADE POMPIDOU PALM BEACH"}, "geometry": {"type": "Point", "coordinates": [5.372088524255505, 43.267272515671856]}}, {"type": "Feature", "properties": {"lon": 5.399877070301781, "stands": 9, "update": "2016-02-05T16:22:52", "bikes": 3, "lat": 43.29570956843267, "status": "OPEN", "address": "SAKAKINI CHAVE - 236 BOULEVARD CHAVE EN DIRECTION DE SAKAKINI", "name": "5060-SAKAKINI CHAVE"}, "geometry": {"type": "Point", "coordinates": [5.399877070301781, 43.29570956843267]}}, {"type": "Feature", "properties": {"lon": 5.386273779435491, "stands": 9, "update": "2016-02-05T16:22:30", "bikes": 1, "lat": 43.26954179693142, "status": "OPEN", "address": "PRADO PARADIS - 390 AVENUE DU PRADO", "name": "8255-PRADO - PARADIS"}, "geometry": {"type": "Point", "coordinates": [5.386273779435491, 43.26954179693142]}}, {"type": "Feature", "properties": {"lon": 5.397216233775408, "stands": 10, "update": "2016-02-05T16:18:54", "bikes": 0, "lat": 43.298680879912176, "status": "OPEN", "address": "PLACE SEBASTOPOL - 20 PLACE SEBASTOPOL", "name": "4057-PLACE SEBASTOPOL"}, "geometry": {"type": "Point", "coordinates": [5.397216233775408, 43.298680879912176]}}, {"type": "Feature", "properties": {"lon": 5.389411648303773, "stands": 5, "update": "2016-02-05T16:20:40", "bikes": 10, "lat": 43.249867874570256, "status": "OPEN", "address": "HAMBOURG RONT POINT GUERRE - BOULEVARD DE HAMBOURG ANGLE ROND POINT PIERRE GUERRE", "name": "8093-HAMBOURG ROND POINT GUERRE"}, "geometry": {"type": "Point", "coordinates": [5.389411648303773, 43.249867874570256]}}, {"type": "Feature", "properties": {"lon": 5.350628425025786, "stands": 4, "update": "2016-02-05T16:18:09", "bikes": 11, "lat": 43.28250633472905, "status": "OPEN", "address": "CORNICHE ENDOUME - 126 CORNICHE J.F. KENNEDY", "name": "7138-CORNICHE  ENDOUME"}, "geometry": {"type": "Point", "coordinates": [5.350628425025786, 43.28250633472905]}}, {"type": "Feature", "properties": {"lon": 5.393678259953781, "stands": 10, "update": "2016-02-05T16:16:57", "bikes": 0, "lat": 43.305993453766845, "status": "OPEN", "address": "FLAMMARION MONTRICHET - PLACE LE VERRIER ANGLE BD FLAMMARION ET  BD MONTRICHET", "name": "4342 - FLAMMARION MONTRICHET"}, "geometry": {"type": "Point", "coordinates": [5.393678259953781, 43.305993453766845]}}, {"type": "Feature", "properties": {"lon": 5.382390401095631, "stands": 7, "update": "2016-02-05T16:16:33", "bikes": 0, "lat": 43.29562159175117, "status": "OPEN", "address": "JULIEN 3 MAGES - COURS JULIEN ANGLE RUE DES TROIS MAGES", "name": "1275- JULIEN - 3 MAGES"}, "geometry": {"type": "Point", "coordinates": [5.382390401095631, 43.29562159175117]}}, {"type": "Feature", "properties": {"lon": 5.39109605124139, "stands": 6, "update": "2016-02-05T16:17:57", "bikes": 8, "lat": 43.28292930261343, "status": "OPEN", "address": "DELPUECH CORINTHE - 29 BOULEVARD DELPUECH", "name": "6187-DELPUECH CORINTHE"}, "geometry": {"type": "Point", "coordinates": [5.39109605124139, 43.28292930261343]}}, {"type": "Feature", "properties": {"lon": 5.371370384862697, "stands": 5, "update": "2016-02-05T16:24:10", "bikes": 4, "lat": 43.291634709693945, "status": "OPEN", "address": "SAINTE NOTRE DAME - 70 RUE SAINTE ANGLE RUE FORT NOTRE DAME", "name": "7212-SAINTE - NOTRE DAME"}, "geometry": {"type": "Point", "coordinates": [5.371370384862697, 43.291634709693945]}}, {"type": "Feature", "properties": {"lon": 5.386729879719248, "stands": 17, "update": "2016-02-05T16:23:54", "bikes": 0, "lat": 43.293880006338135, "status": "OPEN", "address": "PLAINE ST PIERRE - RUE SAINT PIERRE ANGLE PLACE JEAN JAURES", "name": "1226-PLAINE-ST PIERRE"}, "geometry": {"type": "Point", "coordinates": [5.386729879719248, 43.293880006338135]}}, {"type": "Feature", "properties": {"lon": 5.359258014511654, "stands": 5, "update": "2016-02-05T16:22:40", "bikes": 11, "lat": 43.290716834278136, "status": "OPEN", "address": "PASTEUR - 25 AVENUE PASTEUR", "name": "7151-PASTEUR"}, "geometry": {"type": "Point", "coordinates": [5.359258014511654, 43.290716834278136]}}, {"type": "Feature", "properties": {"lon": 5.397126739923842, "stands": 4, "update": "2016-02-05T16:24:55", "bikes": 11, "lat": 43.24759828978683, "status": "OPEN", "address": "LANCIER MARTHELINE - ANGLE CHEMIN DU LANCIER ET AVENUE DE LA  MARTHELINE", "name": "9259-LANCIER-MARTHELINE"}, "geometry": {"type": "Point", "coordinates": [5.397126739923842, 43.24759828978683]}}, {"type": "Feature", "properties": {"lon": 5.39631317835792, "stands": 13, "update": "2016-02-05T16:18:34", "bikes": 0, "lat": 43.28936342586655, "status": "OPEN", "address": "BAILLE HOPITAL CONCEPTION - BOULEVARD BAILLE FACE A L'ENTREE PRINCIPALE DE L'HOPITAL DE LA CONCEPTION", "name": "5284 - BAILLE-HOPITAL-CONCEPTION"}, "geometry": {"type": "Point", "coordinates": [5.39631317835792, 43.28936342586655]}}, {"type": "Feature", "properties": {"lon": 5.372302255725486, "stands": 7, "update": "2016-02-05T16:23:30", "bikes": 2, "lat": 43.301805741199246, "status": "OPEN", "address": "DAMES TERRAS - BOULEVARD DES DAMES ANGLE RUE DU TERRAS", "name": "2240-DAMES - TERRAS"}, "geometry": {"type": "Point", "coordinates": [5.372302255725486, 43.301805741199246]}}, {"type": "Feature", "properties": {"lon": 5.374740047327954, "stands": 4, "update": "2016-02-05T16:24:26", "bikes": 7, "lat": 43.29924603474944, "status": "OPEN", "address": "COLBERT SAINTE BARBE - RUE COLBERT ANGLE RUE SAINTE BARBE", "name": "1302-COLBERT -SAINTE BARBE"}, "geometry": {"type": "Point", "coordinates": [5.374740047327954, 43.29924603474944]}}, {"type": "Feature", "properties": {"lon": 5.355962903211387, "stands": 2, "update": "2016-02-05T16:17:14", "bikes": 13, "lat": 43.28985620147398, "status": "OPEN", "address": "CATALANS CORNICHE - 69 CORNICHE J.F. KENNEDY ANGLE RUE DES CATALANS", "name": "7026-CATALANS CORNICHE"}, "geometry": {"type": "Point", "coordinates": [5.355962903211387, 43.28985620147398]}}, {"type": "Feature", "properties": {"lon": 5.3707713851323, "stands": 23, "update": "2016-02-05T16:22:55", "bikes": 8, "lat": 43.2961387765145, "status": "OPEN", "address": "HOTEL DE VILLE - Face au 42 QUAI DU PORT", "name": "1002-HOTEL DE VILLE"}, "geometry": {"type": "Point", "coordinates": [5.3707713851323, 43.2961387765145]}}, {"type": "Feature", "properties": {"lon": 5.385593763617925, "stands": 24, "update": "2016-02-05T16:24:12", "bikes": 0, "lat": 43.284775983612235, "status": "OPEN", "address": "CANTINI ROUET - FACE AU 27 AVENUE JULES CANTINI", "name": "6176-CANTINI ROUET"}, "geometry": {"type": "Point", "coordinates": [5.385593763617925, 43.284775983612235]}}, {"type": "Feature", "properties": {"lon": 5.369716218117023, "stands": 4, "update": "2016-02-05T16:18:01", "bikes": 6, "lat": 43.30179774806541, "status": "OPEN", "address": "REPUBLIQUE MOISSON - RUE DE LA REPUBLIQUE ANGLE RUE FRANCOIS MOISSON", "name": "2304 - R\u00c9PUBLIQUE MOISSON"}, "geometry": {"type": "Point", "coordinates": [5.369716218117023, 43.30179774806541]}}, {"type": "Feature", "properties": {"lon": 5.37693066220596, "stands": 0, "update": "2016-02-05T16:20:35", "bikes": 10, "lat": 43.29620767061392, "status": "OPEN", "address": "CANEBIERE SAINT FERREOL - ANGLE CANEBIERE SAINT FERREOL", "name": "1191-CANEBIERE-ST FERREOL"}, "geometry": {"type": "Point", "coordinates": [5.37693066220596, 43.29620767061392]}}, {"type": "Feature", "properties": {"lon": 5.384138435260716, "stands": 9, "update": "2016-02-05T16:19:43", "bikes": 0, "lat": 43.292604598053984, "status": "OPEN", "address": "JULIEN BARTHELEMY - 9 RUE 3 FRERES BARTHELEMY", "name": "6114-JULIEN BARTHELEMY"}, "geometry": {"type": "Point", "coordinates": [5.384138435260716, 43.292604598053984]}}, {"type": "Feature", "properties": {"lon": 5.392179383331833, "stands": 4, "update": "2016-02-05T16:16:46", "bikes": 6, "lat": 43.30143187524121, "status": "OPEN", "address": "151 LIBERATION - 151 BOULEVARD DE LA LIBERATION", "name": "2222-151 LIBERATION"}, "geometry": {"type": "Point", "coordinates": [5.392179383331833, 43.30143187524121]}}, {"type": "Feature", "properties": {"lon": 5.383955032544848, "stands": 2, "update": "2016-02-05T16:17:10", "bikes": 15, "lat": 43.30236655745069, "status": "OPEN", "address": "SAINT CHARLES VOLTAIRE LIBERTE - BOULEVARD VOLTAIRE ANGLE BOULEVARD DE LA LIBERTE", "name": "1299- ST CHARLES VOLTAIRE LIBERT\u00c9"}, "geometry": {"type": "Point", "coordinates": [5.383955032544848, 43.30236655745069]}}, {"type": "Feature", "properties": {"lon": 5.375131220340518, "stands": 0, "update": "2016-02-05T16:16:54", "bikes": 9, "lat": 43.294774773558274, "status": "OPEN", "address": "BEAUVAU SUFFREN - RUE BEAUVAU ANGLE RUE BAILLI DE SUFFREN", "name": "1211-BEAUVAU - SUFFREN"}, "geometry": {"type": "Point", "coordinates": [5.375131220340518, 43.294774773558274]}}, {"type": "Feature", "properties": {"lon": 5.36291062831879, "stands": 21, "update": "2016-02-05T16:21:35", "bikes": 5, "lat": 43.2984594666424, "status": "OPEN", "address": "Bd du Littoral, 100 m avant le Mucem, devant l\u2019entr\u00e9e du parking Vieux Port Fort St Jean, direction vieux port", "name": "2200-MUCEM"}, "geometry": {"type": "Point", "coordinates": [5.36291062831879, 43.2984594666424]}}, {"type": "Feature", "properties": {"lon": 5.385047448641554, "stands": 17, "update": "2016-02-05T16:24:02", "bikes": 0, "lat": 43.29952097558015, "status": "OPEN", "address": "STALINGRAD REFORMES - SQUARE STALINGRAD", "name": "1287- STALINGRAD - R\u00c9FORM\u00c9S"}, "geometry": {"type": "Point", "coordinates": [5.385047448641554, 43.29952097558015]}}, {"type": "Feature", "properties": {"lon": 5.390405906592448, "stands": 10, "update": "2016-02-05T16:24:16", "bikes": 0, "lat": 43.274352269730755, "status": "OPEN", "address": "PRADO LATIL - 247 AVENUE DU PRADO", "name": "8308-PRADO LATIL"}, "geometry": {"type": "Point", "coordinates": [5.390405906592448, 43.274352269730755]}}, {"type": "Feature", "properties": {"lon": 5.385552216536626, "stands": 3, "update": "2016-02-05T16:15:46", "bikes": 10, "lat": 43.26869900851042, "status": "OPEN", "address": "397 PRADO - 397 AVENUE DU PRADO", "name": "8202-397 PRADO"}, "geometry": {"type": "Point", "coordinates": [5.385552216536626, 43.26869900851042]}}, {"type": "Feature", "properties": {"lon": 5.39024943158741, "stands": 8, "update": "2016-02-05T16:23:21", "bikes": 7, "lat": 43.30958891338201, "status": "OPEN", "address": "BELLE DE MAI FRICHE - ANGLE RUE GUIBAL ET RUE JOBIN", "name": "3321 - BELLE DE MAI FRICHE"}, "geometry": {"type": "Point", "coordinates": [5.39024943158741, 43.30958891338201]}}, {"type": "Feature", "properties": {"lon": 5.381324, "stands": 9, "update": "2016-02-05T16:21:30", "bikes": 0, "lat": 43.290022, "status": "OPEN", "address": "angle rue de rome rue sylvabelle", "name": "06253 - ROME SYLVABELLE"}, "geometry": {"type": "Point", "coordinates": [5.381324, 43.290022]}}, {"type": "Feature", "properties": {"lon": 5.375548341850035, "stands": 4, "update": "2016-02-05T16:24:01", "bikes": 4, "lat": 43.290329770206334, "status": "OPEN", "address": "PIERRE PUGET BRETEUIL - COURS PIERRE PUGET ANGLE RUE BRETEUIL", "name": "6154-PIERRE PUGET BRETEUIL"}, "geometry": {"type": "Point", "coordinates": [5.375548341850035, 43.290329770206334]}}, {"type": "Feature", "properties": {"lon": 5.381132215559973, "stands": 1, "update": "2016-02-05T16:23:25", "bikes": 8, "lat": 43.29789631329341, "status": "OPEN", "address": "CANEBIERE DUGOMMIER - LA CANEBIERE ANGLE BOULEVARD DUGOMMIER", "name": "1264 - CANEBI\u00c8RE DUGOMMIER"}, "geometry": {"type": "Point", "coordinates": [5.381132215559973, 43.29789631329341]}}, {"type": "Feature", "properties": {"lon": 5.392112767343369, "stands": 13, "update": "2016-02-05T16:22:53", "bikes": 3, "lat": 43.284456097132846, "status": "OPEN", "address": "TOULON MENPENTI - ANGLE AVENUE DE TOULON ET RUE MENPENTI", "name": "6206-TOULON - MENPENTI"}, "geometry": {"type": "Point", "coordinates": [5.392112767343369, 43.284456097132846]}}, {"type": "Feature", "properties": {"lon": 5.390871390171412, "stands": 8, "update": "2016-02-05T16:24:24", "bikes": 2, "lat": 43.295363145406, "status": "OPEN", "address": "CHAVE EUGENE PIERRE - BOULEVARD CHAVE ANGLE BOULEVARD EUGENE PIERRE", "name": "5104-CHAVE EUG\u00c8NE PIERRE"}, "geometry": {"type": "Point", "coordinates": [5.390871390171412, 43.295363145406]}}, {"type": "Feature", "properties": {"lon": 5.39960982405674, "stands": 7, "update": "2016-02-05T16:24:16", "bikes": 8, "lat": 43.2902407800378, "status": "OPEN", "address": "JEAN MOULIN BAILLE - BOULEVARD JEAN  MOULIN ANGLE BOULEVARD BAILLE", "name": "5106-JEAN MOULIN BAILLE"}, "geometry": {"type": "Point", "coordinates": [5.39960982405674, 43.2902407800378]}}, {"type": "Feature", "properties": {"lon": 5.388799115293999, "stands": 10, "update": "2016-02-05T16:21:17", "bikes": 0, "lat": 43.29899195650368, "status": "OPEN", "address": "ROOSEVELT ORAN - 53 COURS FRANKLIN ROOSEVELT ANGLE RUE D'ORAN", "name": "5220-ROOSEVELT - ORAN"}, "geometry": {"type": "Point", "coordinates": [5.388799115293999, 43.29899195650368]}}, {"type": "Feature", "properties": {"lon": 5.388799649683594, "stands": 11, "update": "2016-02-05T16:23:08", "bikes": 7, "lat": 43.27654702249427, "status": "OPEN", "address": "PRADO DUVEEN - 72 AVENUE DU PRADO", "name": "8309- PRADO DUVEEN"}, "geometry": {"type": "Point", "coordinates": [5.388799649683594, 43.27654702249427]}}, {"type": "Feature", "properties": {"lon": 5.389387542314263, "stands": 2, "update": "2016-02-05T16:19:30", "bikes": 13, "lat": 43.269318556371154, "status": "OPEN", "address": "NEGRESKO PAULET - FACE AU 42 RUE NEGRESKO", "name": "8265- N\u00c9GRESKO - PAULET"}, "geometry": {"type": "Point", "coordinates": [5.389387542314263, 43.269318556371154]}}, {"type": "Feature", "properties": {"lon": 5.366730359523051, "stands": 4, "update": "2016-02-05T16:21:00", "bikes": 9, "lat": 43.30331167287617, "status": "OPEN", "address": "DAMES SCHUMANN - 96 BOULEVARD DES DAMES", "name": "2032- DAMES  SCHUMANN"}, "geometry": {"type": "Point", "coordinates": [5.366730359523051, 43.30331167287617]}}, {"type": "Feature", "properties": {"lon": 5.36370990786361, "stands": 8, "update": "2016-02-05T16:16:04", "bikes": 2, "lat": 43.28946760889984, "status": "OPEN", "address": "CORSE SAINT MAURICE - 28 AVENUE DE LA CORSE ANGLE RAMPE SAINT MAURICE", "name": "7153-CORSE ST MAURICE"}, "geometry": {"type": "Point", "coordinates": [5.36370990786361, 43.28946760889984]}}, {"type": "Feature", "properties": {"lon": 5.374447484757423, "stands": 2, "update": "2016-02-05T16:17:06", "bikes": 18, "lat": 43.24789994774334, "status": "OPEN", "address": "VIEILLE CHAPELLE - 35 AVENUE DE LA POINTE ROUGE", "name": "8078-VIEILLE CHAPELLE"}, "geometry": {"type": "Point", "coordinates": [5.374447484757423, 43.24789994774334]}}, {"type": "Feature", "properties": {"lon": 5.385996090720193, "stands": 16, "update": "2016-02-05T16:16:15", "bikes": 0, "lat": 43.29582518327951, "status": "OPEN", "address": "PLAINE BIBLIOTHEQUE - 45 RUE DE LA BIBLIOTHEQUE", "name": "1224-PLAINE - BIBLIOTHEQUE"}, "geometry": {"type": "Point", "coordinates": [5.385996090720193, 43.29582518327951]}}, {"type": "Feature", "properties": {"lon": 5.401127142110414, "stands": 10, "update": "2016-02-05T16:19:29", "bikes": 1, "lat": 43.29952274790985, "status": "OPEN", "address": "SAKAKINI FOCH - BOULAVARD SAKAKINI ANGLE AVENUE MARECHAL FOCH", "name": "4022-SAKAKINI FOCH"}, "geometry": {"type": "Point", "coordinates": [5.401127142110414, 43.29952274790985]}}, {"type": "Feature", "properties": {"lon": 5.373546945382951, "stands": 5, "update": "2016-02-05T16:24:56", "bikes": 5, "lat": 43.291357465205536, "status": "OPEN", "address": "GRIGNAN MARCELLE PAUL - RUE GRIGNAN ANGLE RUE DE LA PAIX MARCELLE PAUL", "name": "1213-GRIGNAN - MARCELLE PAUL"}, "geometry": {"type": "Point", "coordinates": [5.373546945382951, 43.291357465205536]}}]}
>>>>>>> cfd44fe469bfa77a7acf8f5783e0815c7de93cf7
