{"type": "FeatureCollection", "features": [{"type": "Feature", "geometry": {"type": "Point", "coordinates": [5.403244616491982, 43.250903869637334]}, "properties": {"bikes": 18, "stands": 2, "name": "9087-MAZARGUES", "status": "OPEN", "lon": 5.403244616491982, "lat": 43.250903869637334, "update": "2016-02-08T21:06:33", "address": "MAZARGUES - ROND POINT DE MAZARGUES (OBELISQUE)"}}, {"type": "Feature", "geometry": {"type": "Point", "coordinates": [5.379895702048497, 43.301510278747365]}, "properties": {"bikes": 0, "stands": 19, "name": "1301- ST CHARLES MARSEILLAISES", "status": "OPEN", "lon": 5.379895702048497, "lat": 43.301510278747365, "update": "2016-02-08T21:10:12", "address": "SAINT CHARLES MARSEILLAISES - PLACE DES MARSEILLAISES ANGLE RUE PHILIPPE DE GIRARD"}}, {"type": "Feature", "geometry": {"type": "Point", "coordinates": [5.379650236474981, 43.2896832563691]}, "properties": {"bikes": 0, "stands": 15, "name": "6217-ROSTAND - PREFECTURE", "status": "OPEN", "lon": 5.379650236474981, "lat": 43.2896832563691, "update": "2016-02-08T21:06:28", "address": "ROSTAND PREFECTURE - 6 RUE EDMOND ROSTAND ANGLE RUE SYLVABELLE"}}, {"type": "Feature", "geometry": {"type": "Point", "coordinates": [5.370488134608402, 43.30056201196652]}, "properties": {"bikes": 9, "stands": 0, "name": "2184-REPUBLIQUE-CATHALA", "status": "OPEN", "lon": 5.370488134608402, "lat": 43.30056201196652, "update": "2016-02-08T21:00:39", "address": "REPUBLIQUE CATHALA - RUE DE LA REPUBLIQUE ANGLE RUE JEAN MARC CATHALA"}}, {"type": "Feature", "geometry": {"type": "Point", "coordinates": [5.36651, 43.308731]}, "properties": {"bikes": 6, "stands": 16, "name": "02279 - DOCKS LES TERRASSES DU PORT", "status": "OPEN", "lon": 5.36651, "lat": 43.308731, "update": "2016-02-08T21:06:46", "address": "SOUS A55 AU BOUT DES DOCKS FACE AU 22 QUAI DU LAZARET 13002"}}, {"type": "Feature", "geometry": {"type": "Point", "coordinates": [5.386356771062651, 43.30353946127941]}, "properties": {"bikes": 3, "stands": 4, "name": "1344 - FLAMMARION NATIONAL", "status": "OPEN", "lon": 5.386356771062651, "lat": 43.30353946127941, "update": "2016-02-08T21:05:04", "address": "FLAMMARION NATIONAL - BOULEVARD CAMILLE FLAMMARION ANGLE BOULEVARD NATIONAL"}}, {"type": "Feature", "geometry": {"type": "Point", "coordinates": [5.36697414687028, 43.3051302607768]}, "properties": {"bikes": 4, "stands": 9, "name": "2272- JOLIETTE-DUNKERQUE", "status": "OPEN", "lon": 5.36697414687028, "lat": 43.3051302607768, "update": "2016-02-08T21:08:43", "address": "JOLIETTE DUNKERQUE - PLACE DE LA JOLIETTE ANGLE BOULEVARD DUNKERQUE"}}, {"type": "Feature", "geometry": {"type": "Point", "coordinates": [5.375795816171145, 43.262455920908494]}, "properties": {"bikes": 6, "stands": 1, "name": "8068-PRADO BORELY", "status": "OPEN", "lon": 5.375795816171145, "lat": 43.262455920908494, "update": "2016-02-08T21:05:49", "address": "PRADO BORELY - 579 AVENUE DU PRADO"}}, {"type": "Feature", "geometry": {"type": "Point", "coordinates": [5.394684906357751, 43.302008143688155]}, "properties": {"bikes": 0, "stands": 12, "name": "4238-LIBERATION-CHAPE-ESPERANDIEU", "status": "OPEN", "lon": 5.394684906357751, "lat": 43.302008143688155, "update": "2016-02-08T21:01:11", "address": "LIBERATION CHAPE ESPERANDIEU - BOULAVARD LIBERATION ANGLE RUE CHAPE"}}, {"type": "Feature", "geometry": {"type": "Point", "coordinates": [5.371867606488009, 43.29312239728256]}, "properties": {"bikes": 10, "stands": 0, "name": "1003-PLACE AUX HUILES", "status": "OPEN", "lon": 5.371867606488009, "lat": 43.29312239728256, "update": "2016-02-08T21:08:43", "address": "PLACE AUX HUILES - COURS ESTIENNE D'ORVES ANGLE RUE SAINT SAENS"}}, {"type": "Feature", "geometry": {"type": "Point", "coordinates": [5.375905974276691, 43.292666663006464]}, "properties": {"bikes": 14, "stands": 1, "name": "1216-SAINTE - LULLI", "status": "OPEN", "lon": 5.375905974276691, "lat": 43.292666663006464, "update": "2016-02-08T21:07:20", "address": "SAINTE LULLI - 17 RUE SAINTE"}}, {"type": "Feature", "geometry": {"type": "Point", "coordinates": [5.366479730277853, 43.28923675488644]}, "properties": {"bikes": 5, "stands": 8, "name": "7215-ENDOUME - CORDERIE", "status": "OPEN", "lon": 5.366479730277853, "lat": 43.28923675488644, "update": "2016-02-08T21:08:28", "address": "ENDOUME CORDERIE - 41 RUE D'ENDOUME"}}, {"type": "Feature", "geometry": {"type": "Point", "coordinates": [5.36552550703358, 43.295414354264665]}, "properties": {"bikes": 14, "stands": 0, "name": "2179-QUAI DU PORT", "status": "OPEN", "lon": 5.36552550703358, "lat": 43.295414354264665, "update": "2016-02-08T21:07:25", "address": "QUAI DU PORT - 148 QUAI DU PORT"}}, {"type": "Feature", "geometry": {"type": "Point", "coordinates": [5.402740962235228, 43.2693522531282]}, "properties": {"bikes": 7, "stands": 9, "name": "9085-SCHLOESING TEISSERE", "status": "OPEN", "lon": 5.402740962235228, "lat": 43.2693522531282, "update": "2016-02-08T21:02:57", "address": "SCHLOESSING TEISSERE - ANGLE BOULEVARD SCHLOESSING ET RUE RAYMOND TEISSERE"}}, {"type": "Feature", "geometry": {"type": "Point", "coordinates": [5.379124641857261, 43.289985879061746]}, "properties": {"bikes": 0, "stands": 9, "name": "6100-PAUL PEYTRAL", "status": "OPEN", "lon": 5.379124641857261, "lat": 43.289985879061746, "update": "2016-02-08T21:00:32", "address": "PAUL PEYTRAL - 35 BOULEVARD PAUL PEYTRAL"}}, {"type": "Feature", "geometry": {"type": "Point", "coordinates": [5.401873594694653, 43.25402727813068]}, "properties": {"bikes": 1, "stands": 18, "name": "8149-391 MICHELET", "status": "OPEN", "lon": 5.401873594694653, "lat": 43.25402727813068, "update": "2016-02-08T21:00:48", "address": "391 MICHELET - 391 BOULEVARD MICHELET"}}, {"type": "Feature", "geometry": {"type": "Point", "coordinates": [5.399686062414487, 43.27252367086013]}, "properties": {"bikes": 0, "stands": 10, "name": "9207- TEISSEIRE - ROUBAUD", "status": "OPEN", "lon": 5.399686062414487, "lat": 43.27252367086013, "update": "2016-02-08T21:06:57", "address": "TEISSEIRE ROUBAUD - ANGLE RUE RAYMOND TEISSEIRE ET RUE MAGUY ROUBAUD"}}, {"type": "Feature", "geometry": {"type": "Point", "coordinates": [5.383105742132375, 43.28892000857008]}, "properties": {"bikes": 2, "stands": 11, "name": "6254-ROME - BERLIOZ - ITALIE", "status": "OPEN", "lon": 5.383105742132375, "lat": 43.28892000857008, "update": "2016-02-08T21:05:02", "address": "ROME ITALIE BERLIOZ - FACE AU 10 RUE BERLIOZ"}}, {"type": "Feature", "geometry": {"type": "Point", "coordinates": [5.3901483781149, 43.304681870508325]}, "properties": {"bikes": 6, "stands": 9, "name": "1343 - FLAMMARION GROBET", "status": "OPEN", "lon": 5.3901483781149, "lat": 43.304681870508325, "update": "2016-02-08T21:06:51", "address": "FLAMMARION GROBET - BOULEVARD CAMILLE FLAMMARION ANGLE RUE LOUIS GROBET"}}, {"type": "Feature", "geometry": {"type": "Point", "coordinates": [5.387779642713593, 43.2886166717576]}, "properties": {"bikes": 1, "stands": 14, "name": "6113-LODI VILLAGE", "status": "OPEN", "lon": 5.387779642713593, "lat": 43.2886166717576, "update": "2016-02-08T21:09:56", "address": "LODI VILLAGE - FACE AU 89 RUE DE LODI"}}, {"type": "Feature", "geometry": {"type": "Point", "coordinates": [5.387773261785004, 43.30123319837804]}, "properties": {"bikes": 12, "stands": 3, "name": "1130- NATIONAL LONGCHAMP", "status": "OPEN", "lon": 5.387773261785004, "lat": 43.30123319837804, "update": "2016-02-08T21:03:42", "address": "NATIONAL LONGCHAMP - 1 BD NATIONAL ANGLE LONGCHAMP"}}, {"type": "Feature", "geometry": {"type": "Point", "coordinates": [5.365239906973955, 43.270172262619184]}, "properties": {"bikes": 7, "stands": 8, "name": "7142-CORNICHE RAPATRIES", "status": "OPEN", "lon": 5.365239906973955, "lat": 43.270172262619184, "update": "2016-02-08T21:06:17", "address": "CORNICHE RAPATRIES - CORNICHE J.F. KENNEDY FACE AU MEMORIAL DES RAPATRIES EN DIRECTION DU VIEUX PORT"}}, {"type": "Feature", "geometry": {"type": "Point", "coordinates": [5.393967016838425, 43.26796549967643]}, "properties": {"bikes": 8, "stands": 6, "name": "8147 - MICHELET HUVEAUNE", "status": "OPEN", "lon": 5.393967016838425, "lat": 43.26796549967643, "update": "2016-02-08T21:04:05", "address": "MICHELET HUVEAUNE - ANGLE BOULEVARD MICHELET ET RUE JACQUES PICON"}}, {"type": "Feature", "geometry": {"type": "Point", "coordinates": [5.387375678428276, 43.31181964585524]}, "properties": {"bikes": 13, "stands": 2, "name": "3320 - BELLE DE MAI CADENAT", "status": "OPEN", "lon": 5.387375678428276, "lat": 43.31181964585524, "update": "2016-02-08T21:08:22", "address": "BELLE DE MAI CADENAT - PLACE BERNARD CADENAT"}}, {"type": "Feature", "geometry": {"type": "Point", "coordinates": [5.38678589001619, 43.2865946021474]}, "properties": {"bikes": 12, "stands": 5, "name": "6177-BAILLE FRIEDLAND", "status": "OPEN", "lon": 5.38678589001619, "lat": 43.2865946021474, "update": "2016-02-08T21:09:07", "address": "BAILLE FRIEDLAND - BOULEVARD BAILLE ANGLE RUE DE FRIEDLAND"}}, {"type": "Feature", "geometry": {"type": "Point", "coordinates": [5.39166970262158, 43.2722414899425]}, "properties": {"bikes": 1, "stands": 19, "name": "8307-PRADO MICHELET", "status": "OPEN", "lon": 5.39166970262158, "lat": 43.2722414899425, "update": "2016-02-08T21:02:26", "address": "Parvis entr\u00e9e parc Chanot"}}, {"type": "Feature", "geometry": {"type": "Point", "coordinates": [5.397731278573822, 43.29748821146523]}, "properties": {"bikes": 2, "stands": 12, "name": "5103-RUE GEORGES", "status": "OPEN", "lon": 5.397731278573822, "lat": 43.29748821146523, "update": "2016-02-08T21:03:33", "address": "RUE GEORGES - 28 RUE GEORGES"}}, {"type": "Feature", "geometry": {"type": "Point", "coordinates": [5.38661231791721, 43.29908095432929]}, "properties": {"bikes": 0, "stands": 10, "name": "1230-ROOSEVELT - REFORMES", "status": "OPEN", "lon": 5.38661231791721, "lat": 43.29908095432929, "update": "2016-02-08T21:09:22", "address": "ROOSEVELT REFORMES - 7 COURS FRANKLIN ROOSEVELT"}}, {"type": "Feature", "geometry": {"type": "Point", "coordinates": [5.377690136115547, 43.30380276644441]}, "properties": {"bikes": 1, "stands": 11, "name": "1345 - SAINT CHARLES LECLERC ZATTARA", "status": "OPEN", "lon": 5.377690136115547, "lat": 43.30380276644441, "update": "2016-02-08T21:04:09", "address": "SAINT CHARLES LECLERC ZATTARA - AVENUE DU GENERAL LECLERC ANGLE RUE ANTOINE ZATTARA"}}, {"type": "Feature", "geometry": {"type": "Point", "coordinates": [5.396409806138883, 43.27524269246836]}, "properties": {"bikes": 14, "stands": 1, "name": "8257-RABATAU - TEISSEIRE", "status": "OPEN", "lon": 5.396409806138883, "lat": 43.27524269246836, "update": "2016-02-08T21:07:39", "address": "RABATAU TEISSEIRE - ANGLE BOULEVARD RABATAU ET FACE AU 68 RUE RAYMOND TEISSEIRE"}}, {"type": "Feature", "geometry": {"type": "Point", "coordinates": [5.373860886192452, 43.296824934966864]}, "properties": {"bikes": 8, "stands": 0, "name": "1346- REPUBLIQUE COUTELLERIE", "status": "OPEN", "lon": 5.373860886192452, "lat": 43.296824934966864, "update": "2016-02-08T21:01:38", "address": "REPUBLIQUE COUTELLERIE - RUE DE LA REPUBLIQUE ANGLE RUE DE LA COUTELLERIE"}}, {"type": "Feature", "geometry": {"type": "Point", "coordinates": [5.378423799723321, 43.293485736186526]}, "properties": {"bikes": 12, "stands": 4, "name": "1297- ST F\u00c9RR\u00c9OL DAVSO", "status": "OPEN", "lon": 5.378423799723321, "lat": 43.293485736186526, "update": "2016-02-08T21:00:20", "address": "ST FERREOL DAVSO - RUE FRANCIS DAVSO ANGLE RUE SAINT FERREOL"}}, {"type": "Feature", "geometry": {"type": "Point", "coordinates": [5.398913930872658, 43.25850879475187]}, "properties": {"bikes": 10, "stands": 4, "name": "9074-MICHELET LUCE", "status": "OPEN", "lon": 5.398913930872658, "lat": 43.25850879475187, "update": "2016-02-08T21:08:37", "address": "MICHELET LUCE - ANGLE BOULEVARD MICHELET ET BOULEVARD LUCE"}}, {"type": "Feature", "geometry": {"type": "Point", "coordinates": [5.38545312564012, 43.29441078214159]}, "properties": {"bikes": 0, "stands": 14, "name": "1228-LA PLAINE SUD", "status": "OPEN", "lon": 5.38545312564012, "lat": 43.29441078214159, "update": "2016-02-08T21:05:03", "address": "LA PLAINE SUD - RUE DES TROIS MAGES ANGLE PLACE JEAN JAURES"}}, {"type": "Feature", "geometry": {"type": "Point", "coordinates": [5.39403885378465, 43.28872669088929]}, "properties": {"bikes": 1, "stands": 10, "name": "5107-BAILLE CONCEPTION", "status": "OPEN", "lon": 5.39403885378465, "lat": 43.28872669088929, "update": "2016-02-08T21:10:03", "address": "BAILLE CONCEPTION  - 145 BOULEVARD BAILLE"}}, {"type": "Feature", "geometry": {"type": "Point", "coordinates": [5.369497428189588, 43.30255028371949]}, "properties": {"bikes": 4, "stands": 0, "name": "2030-REPUBLIQUE DAMES", "status": "OPEN", "lon": 5.369497428189588, "lat": 43.30255028371949, "update": "2016-02-08T21:05:34", "address": "RPUBLIQUE DAMES - 68 BOULEVARD DES DAMES"}}, {"type": "Feature", "geometry": {"type": "Point", "coordinates": [5.401285286456447, 43.292800863545835]}, "properties": {"bikes": 5, "stands": 5, "name": "5058 -SAKAKINI - SAINT PIERRE", "status": "OPEN", "lon": 5.401285286456447, "lat": 43.292800863545835, "update": "2016-02-08T21:05:15", "address": "SAKAKINI SAINT PIERRE - BOULEVARD SAKAKINI ANGLE RUE SAINT PIERRE"}}, {"type": "Feature", "geometry": {"type": "Point", "coordinates": [5.3586207351308, 43.2884327278463]}, "properties": {"bikes": 14, "stands": 0, "name": "7027-PLACE DU 4 SEPTEMBRE", "status": "OPEN", "lon": 5.3586207351308, "lat": 43.2884327278463, "update": "2016-02-08T21:03:50", "address": "2 RUE CAPITAINE DESSEMOND"}}, {"type": "Feature", "geometry": {"type": "Point", "coordinates": [5.386461522334788, 43.28350144850817]}, "properties": {"bikes": 15, "stands": 0, "name": "6208-ROUET", "status": "OPEN", "lon": 5.386461522334788, "lat": 43.28350144850817, "update": "2016-02-08T21:04:07", "address": "ROUET - 48 RUE DU ROUET"}}, {"type": "Feature", "geometry": {"type": "Point", "coordinates": [5.370835093727862, 43.29780955608182]}, "properties": {"bikes": 13, "stands": 6, "name": "2012-GRAND RUE", "status": "OPEN", "lon": 5.370835093727862, "lat": 43.29780955608182, "update": "2016-02-08T21:04:58", "address": "GRAND RUE - FACE AU 35 GRAND'RUE"}}, {"type": "Feature", "geometry": {"type": "Point", "coordinates": [5.375339514183368, 43.295686109850145]}, "properties": {"bikes": 14, "stands": 0, "name": "1001 - CANEBIERE REINE ELISABETH", "status": "OPEN", "lon": 5.375339514183368, "lat": 43.295686109850145, "update": "2016-02-08T21:01:10", "address": "CANEBIERE REINE ELISABETH - CANEBIERE ANGLE REINE ELISABETH"}}, {"type": "Feature", "geometry": {"type": "Point", "coordinates": [5.37599738915791, 43.25394372546869]}, "properties": {"bikes": 10, "stands": 0, "name": "8144-ESCALE BORELY POINTE ROUGE", "status": "OPEN", "lon": 5.37599738915791, "lat": 43.25394372546869, "update": "2016-02-08T21:07:13", "address": "ESCALE BORELY POINTE ROUGE - ESCALE BORELY EN DIRECTION DE L'AVENUE POINTE ROUGE"}}, {"type": "Feature", "geometry": {"type": "Point", "coordinates": [5.38279581908046, 43.2668438148239]}, "properties": {"bikes": 9, "stands": 6, "name": "8067-PRADO GABES", "status": "OPEN", "lon": 5.38279581908046, "lat": 43.2668438148239, "update": "2016-02-08T21:10:10", "address": "PRADO GABES - AVENUE DU PRADO ANGLE BD DE GABES"}}, {"type": "Feature", "geometry": {"type": "Point", "coordinates": [5.349696475467313, 43.284213979400505]}, "properties": {"bikes": 15, "stands": 0, "name": "7062-88 CORNICHE - KENNEDY", "status": "OPEN", "lon": 5.349696475467313, "lat": 43.284213979400505, "update": "2016-02-08T21:09:30", "address": "88 CORNICHE KENNEDY - 88 CORNICHE J.F. KENNEDY"}}, {"type": "Feature", "geometry": {"type": "Point", "coordinates": [5.375165446771129, 43.29542125608577]}, "properties": {"bikes": 14, "stands": 0, "name": "1210-BEAUVAU - CANEBIERE", "status": "OPEN", "lon": 5.375165446771129, "lat": 43.29542125608577, "update": "2016-02-08T21:07:52", "address": "BEAUVAU CANEBIERE - RUE BEAUVAU"}}, {"type": "Feature", "geometry": {"type": "Point", "coordinates": [5.383285575102103, 43.286046362122946]}, "properties": {"bikes": 2, "stands": 18, "name": "6023- CASTELLANE", "status": "OPEN", "lon": 5.383285575102103, "lat": 43.286046362122946, "update": "2016-02-08T21:08:30", "address": "CASTELLANE - ROND POINT CASTELLANE DEVANT LE CAFE DE PARIS"}}, {"type": "Feature", "geometry": {"type": "Point", "coordinates": [5.406000803377506, 43.29626340517055]}, "properties": {"bikes": 0, "stands": 14, "name": "4293- BLANCARDE", "status": "OPEN", "lon": 5.406000803377506, "lat": 43.29626340517055, "update": "2016-02-08T21:04:07", "address": "BLANCARDE - GARE DE LA BLANCARDE"}}, {"type": "Feature", "geometry": {"type": "Point", "coordinates": [5.366506599649465, 43.23984252335505]}, "properties": {"bikes": 3, "stands": 7, "name": "8313- PARC PASTRE", "status": "OPEN", "lon": 5.366506599649465, "lat": 43.23984252335505, "update": "2016-02-08T21:01:00", "address": "PARC PASTRE - ANGLE AVENUE DE MONTREDON ET AVENUE D'OUTRE MER"}}, {"type": "Feature", "geometry": {"type": "Point", "coordinates": [5.38299269172725, 43.2921244873688]}, "properties": {"bikes": 3, "stands": 7, "name": "6237-LIEUTAUD JULIEN", "status": "OPEN", "lon": 5.38299269172725, "lat": 43.2921244873688, "update": "2016-02-08T21:01:00", "address": "LIEUTAUD JULIEN - FACE AU 20 BOULEVARD THEODORE THURNER"}}, {"type": "Feature", "geometry": {"type": "Point", "coordinates": [5.381500046726694, 43.29902793826475]}, "properties": {"bikes": 15, "stands": 0, "name": "1245-GAMBETTA - LAFAYETTE", "status": "OPEN", "lon": 5.381500046726694, "lat": 43.29902793826475, "update": "2016-02-08T21:10:13", "address": "GAMBETTA LAFAYETTE - 6 ALLEES LEON GAMBETTA"}}, {"type": "Feature", "geometry": {"type": "Point", "coordinates": [5.373281108125947, 43.26469407213291]}, "properties": {"bikes": 12, "stands": 3, "name": "8132-PROMENADE POMPIDOU AMIRAL MUSELIER", "status": "OPEN", "lon": 5.373281108125947, "lat": 43.26469407213291, "update": "2016-02-08T21:02:21", "address": "PROMENADE POMPIDOU AMIRAL MUSELIER - PROMENADE GEORGES POMPIDOU DEVANT LA PLACE AMIRAL MUSELIER"}}, {"type": "Feature", "geometry": {"type": "Point", "coordinates": [5.376413023650641, 43.25505597847173]}, "properties": {"bikes": 17, "stands": 3, "name": "8145-ESCALE BORELY", "status": "OPEN", "lon": 5.376413023650641, "lat": 43.25505597847173, "update": "2016-02-08T21:05:58", "address": "ESCALE BORELY - ANGLE ESCALE BORELY ET AVENUE BONNEVEINE"}}, {"type": "Feature", "geometry": {"type": "Point", "coordinates": [5.400635371105712, 43.268405140653144]}, "properties": {"bikes": 13, "stands": 2, "name": "9219-PUGETTE - ANDRE", "status": "OPEN", "lon": 5.400635371105712, "lat": 43.268405140653144, "update": "2016-02-08T21:03:15", "address": "PUGETTE ANDRE - ANGLE AVENUE DU GENERAL ANDRE FACE AU 23 BOULEVARD DE LA PUGETTE"}}, {"type": "Feature", "geometry": {"type": "Point", "coordinates": [5.391048744484495, 43.27278734452526]}, "properties": {"bikes": 0, "stands": 19, "name": "8134-ROND POINT DU PRADO", "status": "OPEN", "lon": 5.391048744484495, "lat": 43.27278734452526, "update": "2016-02-08T21:09:09", "address": "ROND POINT DU PRADO - 300 AVENUE DU PRADO"}}, {"type": "Feature", "geometry": {"type": "Point", "coordinates": [5.36771555892562, 43.3047137105911]}, "properties": {"bikes": 14, "stands": 0, "name": "2341- JOLIETTE FORBIN", "status": "OPEN", "lon": 5.36771555892562, "lat": 43.3047137105911, "update": "2016-02-08T21:04:37", "address": "JOLIETTE FORBIN - PLACE DE LA JOLIETTE ANGLE RUE DE FORBIN"}}, {"type": "Feature", "geometry": {"type": "Point", "coordinates": [5.374505152575336, 43.26178202177259]}, "properties": {"bikes": 13, "stands": 2, "name": "8131-PROMENADE POMPIDOU DAVID", "status": "OPEN", "lon": 5.374505152575336, "lat": 43.26178202177259, "update": "2016-02-08T21:06:43", "address": "PROMENADE POMPIDOU DAVID -  PROMENADE GEORGES POMPIDOU AU NIVEAU DU ROND POINT DE DAVID"}}, {"type": "Feature", "geometry": {"type": "Point", "coordinates": [5.379450180172236, 43.28683835122117]}, "properties": {"bikes": 12, "stands": 2, "name": "6160-153 PARADIS", "status": "OPEN", "lon": 5.379450180172236, "lat": 43.28683835122117, "update": "2016-02-08T21:00:55", "address": "153 PARADIS - 153 RUE PARADIS"}}, {"type": "Feature", "geometry": {"type": "Point", "coordinates": [5.398630311705657, 43.301185515493664]}, "properties": {"bikes": 2, "stands": 17, "name": "4111-FOCH FAYOLLE", "status": "OPEN", "lon": 5.398630311705657, "lat": 43.301185515493664, "update": "2016-02-08T21:07:53", "address": "FOCH FAYOLLE - ANGLE AVENUE MARECHAL FOCH ET RUE MARECHAL FAYOLLE"}}, {"type": "Feature", "geometry": {"type": "Point", "coordinates": [5.37224035119238, 43.30598895681527]}, "properties": {"bikes": 1, "stands": 12, "name": "2323 -FORBIN PARIS", "status": "OPEN", "lon": 5.37224035119238, "lat": 43.30598895681527, "update": "2016-02-08T21:08:40", "address": "FORBIN PARIS - RUE DE FORBIN ANGLE BOULEVARD DE PARIS"}}, {"type": "Feature", "geometry": {"type": "Point", "coordinates": [5.39517783172075, 43.25096285100345]}, "properties": {"bikes": 6, "stands": 7, "name": "9260- MAZARGUES - ALMERAS", "status": "OPEN", "lon": 5.39517783172075, "lat": 43.25096285100345, "update": "2016-02-08T21:04:31", "address": "MAZARGUES ALMERAS - ANGLE AVENUE DE MAZARGUES ET IMPASSE ALMERAS"}}, {"type": "Feature", "geometry": {"type": "Point", "coordinates": [5.367786407891749, 43.304190155898155]}, "properties": {"bikes": 9, "stands": 1, "name": "2327- R\u00c9PUBLIQUE PLUMIER", "status": "OPEN", "lon": 5.367786407891749, "lat": 43.304190155898155, "update": "2016-02-08T21:05:07", "address": "REPUBLIQUE PLUMIER - RUE DE LA REPUBLIQUE ANGLE RUE PLUMIER"}}, {"type": "Feature", "geometry": {"type": "Point", "coordinates": [5.377103061958931, 43.297138004748]}, "properties": {"bikes": 10, "stands": 3, "name": "1005-CENTRE BOURSE", "status": "OPEN", "lon": 5.377103061958931, "lat": 43.297138004748, "update": "2016-02-08T21:00:28", "address": "CENTRE BOURSE - RUE BIR HAKEIM ENTREE CENTRE BOURSE"}}, {"type": "Feature", "geometry": {"type": "Point", "coordinates": [5.360224853219125, 43.29224532184672]}, "properties": {"bikes": 1, "stands": 14, "name": "7146-LIVON VIEUX PORT", "status": "OPEN", "lon": 5.360224853219125, "lat": 43.29224532184672, "update": "2016-02-08T21:02:11", "address": "LIVON VIEUX PORT - 36 BOULEVARD CHARLES LIVON"}}, {"type": "Feature", "geometry": {"type": "Point", "coordinates": [5.391331392803749, 43.287814455889425]}, "properties": {"bikes": 0, "stands": 7, "name": "5024-BAILLE PAURIOL", "status": "OPEN", "lon": 5.391331392803749, "lat": 43.287814455889425, "update": "2016-02-08T21:02:24", "address": "BAILLE PAURIOL - 114 BOULEVARD BAILLE ANGLE RUE PAURIOL"}}, {"type": "Feature", "geometry": {"type": "Point", "coordinates": [5.374638177288532, 43.29336790915692]}, "properties": {"bikes": 10, "stands": 0, "name": "1006-COURS JEAN BALLARD", "status": "OPEN", "lon": 5.374638177288532, "lat": 43.29336790915692, "update": "2016-02-08T21:09:42", "address": "COURS JEAN BALLARD - 5 COURS JEAN BALLARD"}}, {"type": "Feature", "geometry": {"type": "Point", "coordinates": [5.384455147739253, 43.275618147775035]}, "properties": {"bikes": 1, "stands": 9, "name": "8246-PARADIS - LORD DUVEEN", "status": "OPEN", "lon": 5.384455147739253, "lat": 43.275618147775035, "update": "2016-02-08T21:02:33", "address": "PARADIS LORD DUVEEN - 395 RUE PARADIS"}}, {"type": "Feature", "geometry": {"type": "Point", "coordinates": [5.387431047255536, 43.27974214607358]}, "properties": {"bikes": 11, "stands": 2, "name": "8053-PRADO - PERIER", "status": "OPEN", "lon": 5.387431047255536, "lat": 43.27974214607358, "update": "2016-02-08T21:07:08", "address": "PRADO PERIER - 127 AVENUE DU PRADO"}}, {"type": "Feature", "geometry": {"type": "Point", "coordinates": [5.37544360265886, 43.260217853801166]}, "properties": {"bikes": 15, "stands": 3, "name": "8066-MENDES FRANCE HUVEAUNE", "status": "OPEN", "lon": 5.37544360265886, "lat": 43.260217853801166, "update": "2016-02-08T21:07:24", "address": "MENDES FRANCE HUVEAUNE - AVENUE PEIRRE MENDES FRANCE DEVANT L'ENTREE DU PARC BORELY"}}, {"type": "Feature", "geometry": {"type": "Point", "coordinates": [5.393973899334583, 43.260699609117914]}, "properties": {"bikes": 15, "stands": 0, "name": "8261- 318 MAZARGUES", "status": "OPEN", "lon": 5.393973899334583, "lat": 43.260699609117914, "update": "2016-02-08T21:00:48", "address": "318 MAZARGUES - FACE AU 318 AVENUE DE MAZARGUES"}}, {"type": "Feature", "geometry": {"type": "Point", "coordinates": [5.37602674729877, 43.29494730625887]}, "properties": {"bikes": 8, "stands": 0, "name": "1004-GENERAL DE GAULLE PARADIS", "status": "OPEN", "lon": 5.37602674729877, "lat": 43.29494730625887, "update": "2016-02-08T21:01:12", "address": "GENERAL DE GAULLE PARADIS - PLACE GENERAL DE GAULLE FACE AU 11 RUE PARADIS"}}, {"type": "Feature", "geometry": {"type": "Point", "coordinates": [5.372259932395231, 43.29076433240633]}, "properties": {"bikes": 11, "stands": 4, "name": "6020-PLACE DE LA CORDERIE", "status": "OPEN", "lon": 5.372259932395231, "lat": 43.29076433240633, "update": "2016-02-08T21:02:52", "address": "PLACE CORDERIE - AU CENTRE DE LA PLACE CORDERIE"}}, {"type": "Feature", "geometry": {"type": "Point", "coordinates": [5.396312199117862, 43.29581102315005]}, "properties": {"bikes": 3, "stands": 10, "name": "5280-CHAVE CAMAS", "status": "OPEN", "lon": 5.396312199117862, "lat": 43.29581102315005, "update": "2016-02-08T21:08:20", "address": "CHAVE CAMAS - BOULEVARD CHAVE ANGLE RUE DU CAMAS"}}, {"type": "Feature", "geometry": {"type": "Point", "coordinates": [5.370540756635374, 43.243802055963265]}, "properties": {"bikes": 12, "stands": 5, "name": "8290- POINTE ROUGE - MONTREDON", "status": "OPEN", "lon": 5.370540756635374, "lat": 43.243802055963265, "update": "2016-02-08T21:04:09", "address": "POINTE ROUGE MONTREDON - ANGLE AVENUE ODESSA ET AVENUE MONTREDON"}}, {"type": "Feature", "geometry": {"type": "Point", "coordinates": [5.392402358314715, 43.263999455764186]}, "properties": {"bikes": 9, "stands": 3, "name": "8262-MAZARGUES-BARRAL", "status": "OPEN", "lon": 5.392402358314715, "lat": 43.263999455764186, "update": "2016-02-08T21:01:49", "address": "MAZARGUES BARRAL - ANGLE AVENUE DE MAZARGUES ET BOULEVARD BARRAL"}}, {"type": "Feature", "geometry": {"type": "Point", "coordinates": [5.378292250179226, 43.304244359587024]}, "properties": {"bikes": 0, "stands": 15, "name": "1316 -ST CHARLES FACULT\u00c9", "status": "OPEN", "lon": 5.378292250179226, "lat": 43.304244359587024, "update": "2016-02-08T21:09:51", "address": "SAINT CHARLES FACULTE - BOULEVARD GUSTAVE DESPLACES ANGLE AVENUE DU GENERAL LECLERC"}}, {"type": "Feature", "geometry": {"type": "Point", "coordinates": [5.357823161216201, 43.29198908246378]}, "properties": {"bikes": 3, "stands": 17, "name": "7025-LIVON PASTEUR", "status": "OPEN", "lon": 5.357823161216201, "lat": 43.29198908246378, "update": "2016-02-08T21:06:15", "address": "LIVON PASTEUR - BOULEVARD CHARLES LIVON ANGLE ESPLANADE DU PHARO"}}, {"type": "Feature", "geometry": {"type": "Point", "coordinates": [5.389298285180646, 43.30050650960441]}, "properties": {"bikes": 1, "stands": 9, "name": "2221-91 LIB\u00c9RATION", "status": "OPEN", "lon": 5.389298285180646, "lat": 43.30050650960441, "update": "2016-02-08T21:04:43", "address": "91 LIBERATION - 91 BOULEVARD DE LA LIBERATION"}}, {"type": "Feature", "geometry": {"type": "Point", "coordinates": [5.372088524255505, 43.267272515671856]}, "properties": {"bikes": 10, "stands": 5, "name": "8065-PROMENADE POMPIDOU PALM BEACH", "status": "OPEN", "lon": 5.372088524255505, "lat": 43.267272515671856, "update": "2016-02-08T21:03:32", "address": "PROMENADE POMPIDOU PALM BEACH - 6 PROMENADE GEORGES POMPIDOU"}}, {"type": "Feature", "geometry": {"type": "Point", "coordinates": [5.399877070301781, 43.29570956843267]}, "properties": {"bikes": 0, "stands": 12, "name": "5060-SAKAKINI CHAVE", "status": "OPEN", "lon": 5.399877070301781, "lat": 43.29570956843267, "update": "2016-02-08T21:08:41", "address": "SAKAKINI CHAVE - 236 BOULEVARD CHAVE EN DIRECTION DE SAKAKINI"}}, {"type": "Feature", "geometry": {"type": "Point", "coordinates": [5.386273779435491, 43.26954179693142]}, "properties": {"bikes": 0, "stands": 10, "name": "8255-PRADO - PARADIS", "status": "OPEN", "lon": 5.386273779435491, "lat": 43.26954179693142, "update": "2016-02-08T21:10:01", "address": "PRADO PARADIS - 390 AVENUE DU PRADO"}}, {"type": "Feature", "geometry": {"type": "Point", "coordinates": [5.397216233775408, 43.298680879912176]}, "properties": {"bikes": 0, "stands": 10, "name": "4057-PLACE SEBASTOPOL", "status": "OPEN", "lon": 5.397216233775408, "lat": 43.298680879912176, "update": "2016-02-08T21:08:11", "address": "PLACE SEBASTOPOL - 20 PLACE SEBASTOPOL"}}, {"type": "Feature", "geometry": {"type": "Point", "coordinates": [5.389411648303773, 43.249867874570256]}, "properties": {"bikes": 3, "stands": 8, "name": "8093-HAMBOURG ROND POINT GUERRE", "status": "OPEN", "lon": 5.389411648303773, "lat": 43.249867874570256, "update": "2016-02-08T21:01:52", "address": "HAMBOURG RONT POINT GUERRE - BOULEVARD DE HAMBOURG ANGLE ROND POINT PIERRE GUERRE"}}, {"type": "Feature", "geometry": {"type": "Point", "coordinates": [5.350628425025786, 43.28250633472905]}, "properties": {"bikes": 10, "stands": 5, "name": "7138-CORNICHE  ENDOUME", "status": "OPEN", "lon": 5.350628425025786, "lat": 43.28250633472905, "update": "2016-02-08T21:02:40", "address": "CORNICHE ENDOUME - 126 CORNICHE J.F. KENNEDY"}}, {"type": "Feature", "geometry": {"type": "Point", "coordinates": [5.393678259953781, 43.305993453766845]}, "properties": {"bikes": 2, "stands": 8, "name": "4342 - FLAMMARION MONTRICHET", "status": "OPEN", "lon": 5.393678259953781, "lat": 43.305993453766845, "update": "2016-02-08T21:05:58", "address": "FLAMMARION MONTRICHET - PLACE LE VERRIER ANGLE BD FLAMMARION ET  BD MONTRICHET"}}, {"type": "Feature", "geometry": {"type": "Point", "coordinates": [5.382390401095631, 43.29562159175117]}, "properties": {"bikes": 1, "stands": 6, "name": "1275- JULIEN - 3 MAGES", "status": "OPEN", "lon": 5.382390401095631, "lat": 43.29562159175117, "update": "2016-02-08T21:00:42", "address": "JULIEN 3 MAGES - COURS JULIEN ANGLE RUE DES TROIS MAGES"}}, {"type": "Feature", "geometry": {"type": "Point", "coordinates": [5.39109605124139, 43.28292930261343]}, "properties": {"bikes": 3, "stands": 11, "name": "6187-DELPUECH CORINTHE", "status": "OPEN", "lon": 5.39109605124139, "lat": 43.28292930261343, "update": "2016-02-08T21:04:33", "address": "DELPUECH CORINTHE - 29 BOULEVARD DELPUECH"}}, {"type": "Feature", "geometry": {"type": "Point", "coordinates": [5.371370384862697, 43.291634709693945]}, "properties": {"bikes": 9, "stands": 0, "name": "7212-SAINTE - NOTRE DAME", "status": "OPEN", "lon": 5.371370384862697, "lat": 43.291634709693945, "update": "2016-02-08T21:03:15", "address": "SAINTE NOTRE DAME - 70 RUE SAINTE ANGLE RUE FORT NOTRE DAME"}}, {"type": "Feature", "geometry": {"type": "Point", "coordinates": [5.386729879719248, 43.293880006338135]}, "properties": {"bikes": 0, "stands": 17, "name": "1226-PLAINE-ST PIERRE", "status": "OPEN", "lon": 5.386729879719248, "lat": 43.293880006338135, "update": "2016-02-08T21:05:21", "address": "PLAINE ST PIERRE - RUE SAINT PIERRE ANGLE PLACE JEAN JAURES"}}, {"type": "Feature", "geometry": {"type": "Point", "coordinates": [5.359258014511654, 43.290716834278136]}, "properties": {"bikes": 7, "stands": 9, "name": "7151-PASTEUR", "status": "OPEN", "lon": 5.359258014511654, "lat": 43.290716834278136, "update": "2016-02-08T21:04:40", "address": "PASTEUR - 25 AVENUE PASTEUR"}}, {"type": "Feature", "geometry": {"type": "Point", "coordinates": [5.397126739923842, 43.24759828978683]}, "properties": {"bikes": 10, "stands": 5, "name": "9259-LANCIER-MARTHELINE", "status": "OPEN", "lon": 5.397126739923842, "lat": 43.24759828978683, "update": "2016-02-08T21:09:38", "address": "LANCIER MARTHELINE - ANGLE CHEMIN DU LANCIER ET AVENUE DE LA  MARTHELINE"}}, {"type": "Feature", "geometry": {"type": "Point", "coordinates": [5.39631317835792, 43.28936342586655]}, "properties": {"bikes": 0, "stands": 13, "name": "5284 - BAILLE-HOPITAL-CONCEPTION", "status": "OPEN", "lon": 5.39631317835792, "lat": 43.28936342586655, "update": "2016-02-08T21:00:55", "address": "BAILLE HOPITAL CONCEPTION - BOULEVARD BAILLE FACE A L'ENTREE PRINCIPALE DE L'HOPITAL DE LA CONCEPTION"}}, {"type": "Feature", "geometry": {"type": "Point", "coordinates": [5.372302255725486, 43.301805741199246]}, "properties": {"bikes": 1, "stands": 8, "name": "2240-DAMES - TERRAS", "status": "OPEN", "lon": 5.372302255725486, "lat": 43.301805741199246, "update": "2016-02-08T21:00:32", "address": "DAMES TERRAS - BOULEVARD DES DAMES ANGLE RUE DU TERRAS"}}, {"type": "Feature", "geometry": {"type": "Point", "coordinates": [5.374740047327954, 43.29924603474944]}, "properties": {"bikes": 11, "stands": 0, "name": "1302-COLBERT -SAINTE BARBE", "status": "OPEN", "lon": 5.374740047327954, "lat": 43.29924603474944, "update": "2016-02-08T21:04:18", "address": "COLBERT SAINTE BARBE - RUE COLBERT ANGLE RUE SAINTE BARBE"}}, {"type": "Feature", "geometry": {"type": "Point", "coordinates": [5.355962903211387, 43.28985620147398]}, "properties": {"bikes": 14, "stands": 1, "name": "7026-CATALANS CORNICHE", "status": "OPEN", "lon": 5.355962903211387, "lat": 43.28985620147398, "update": "2016-02-08T21:03:13", "address": "CATALANS CORNICHE - 69 CORNICHE J.F. KENNEDY ANGLE RUE DES CATALANS"}}, {"type": "Feature", "geometry": {"type": "Point", "coordinates": [5.3707713851323, 43.2961387765145]}, "properties": {"bikes": 28, "stands": 3, "name": "1002-HOTEL DE VILLE", "status": "OPEN", "lon": 5.3707713851323, "lat": 43.2961387765145, "update": "2016-02-08T21:03:26", "address": "HOTEL DE VILLE - Face au 42 QUAI DU PORT"}}, {"type": "Feature", "geometry": {"type": "Point", "coordinates": [5.385593763617925, 43.284775983612235]}, "properties": {"bikes": 14, "stands": 10, "name": "6176-CANTINI ROUET", "status": "OPEN", "lon": 5.385593763617925, "lat": 43.284775983612235, "update": "2016-02-08T21:03:00", "address": "CANTINI ROUET - FACE AU 27 AVENUE JULES CANTINI"}}, {"type": "Feature", "geometry": {"type": "Point", "coordinates": [5.369716218117023, 43.30179774806541]}, "properties": {"bikes": 10, "stands": 0, "name": "2304 - R\u00c9PUBLIQUE MOISSON", "status": "OPEN", "lon": 5.369716218117023, "lat": 43.30179774806541, "update": "2016-02-08T21:06:21", "address": "REPUBLIQUE MOISSON - RUE DE LA REPUBLIQUE ANGLE RUE FRANCOIS MOISSON"}}, {"type": "Feature", "geometry": {"type": "Point", "coordinates": [5.37693066220596, 43.29620767061392]}, "properties": {"bikes": 8, "stands": 1, "name": "1191-CANEBIERE-ST FERREOL", "status": "OPEN", "lon": 5.37693066220596, "lat": 43.29620767061392, "update": "2016-02-08T21:06:32", "address": "CANEBIERE SAINT FERREOL - ANGLE CANEBIERE SAINT FERREOL"}}, {"type": "Feature", "geometry": {"type": "Point", "coordinates": [5.384138435260716, 43.292604598053984]}, "properties": {"bikes": 0, "stands": 9, "name": "6114-JULIEN BARTHELEMY", "status": "OPEN", "lon": 5.384138435260716, "lat": 43.292604598053984, "update": "2016-02-08T21:05:28", "address": "JULIEN BARTHELEMY - 9 RUE 3 FRERES BARTHELEMY"}}, {"type": "Feature", "geometry": {"type": "Point", "coordinates": [5.392179383331833, 43.30143187524121]}, "properties": {"bikes": 0, "stands": 10, "name": "2222-151 LIBERATION", "status": "OPEN", "lon": 5.392179383331833, "lat": 43.30143187524121, "update": "2016-02-08T21:02:06", "address": "151 LIBERATION - 151 BOULEVARD DE LA LIBERATION"}}, {"type": "Feature", "geometry": {"type": "Point", "coordinates": [5.383955032544848, 43.30236655745069]}, "properties": {"bikes": 9, "stands": 8, "name": "1299- ST CHARLES VOLTAIRE LIBERT\u00c9", "status": "OPEN", "lon": 5.383955032544848, "lat": 43.30236655745069, "update": "2016-02-08T21:04:22", "address": "SAINT CHARLES VOLTAIRE LIBERTE - BOULEVARD VOLTAIRE ANGLE BOULEVARD DE LA LIBERTE"}}, {"type": "Feature", "geometry": {"type": "Point", "coordinates": [5.375131220340518, 43.294774773558274]}, "properties": {"bikes": 10, "stands": 0, "name": "1211-BEAUVAU - SUFFREN", "status": "OPEN", "lon": 5.375131220340518, "lat": 43.294774773558274, "update": "2016-02-08T21:07:40", "address": "BEAUVAU SUFFREN - RUE BEAUVAU ANGLE RUE BAILLI DE SUFFREN"}}, {"type": "Feature", "geometry": {"type": "Point", "coordinates": [5.36291062831879, 43.2984594666424]}, "properties": {"bikes": 9, "stands": 17, "name": "2200-MUCEM", "status": "OPEN", "lon": 5.36291062831879, "lat": 43.2984594666424, "update": "2016-02-08T21:03:45", "address": "Bd du Littoral, 100 m avant le Mucem, devant l\u2019entr\u00e9e du parking Vieux Port Fort St Jean, direction vieux port"}}, {"type": "Feature", "geometry": {"type": "Point", "coordinates": [5.385047448641554, 43.29952097558015]}, "properties": {"bikes": 5, "stands": 12, "name": "1287- STALINGRAD - R\u00c9FORM\u00c9S", "status": "OPEN", "lon": 5.385047448641554, "lat": 43.29952097558015, "update": "2016-02-08T21:09:59", "address": "STALINGRAD REFORMES - SQUARE STALINGRAD"}}, {"type": "Feature", "geometry": {"type": "Point", "coordinates": [5.390405906592448, 43.274352269730755]}, "properties": {"bikes": 1, "stands": 9, "name": "8308-PRADO LATIL", "status": "OPEN", "lon": 5.390405906592448, "lat": 43.274352269730755, "update": "2016-02-08T21:06:54", "address": "PRADO LATIL - 247 AVENUE DU PRADO"}}, {"type": "Feature", "geometry": {"type": "Point", "coordinates": [5.385552216536626, 43.26869900851042]}, "properties": {"bikes": 2, "stands": 10, "name": "8202-397 PRADO", "status": "OPEN", "lon": 5.385552216536626, "lat": 43.26869900851042, "update": "2016-02-08T21:03:40", "address": "397 PRADO - 397 AVENUE DU PRADO"}}, {"type": "Feature", "geometry": {"type": "Point", "coordinates": [5.39024943158741, 43.30958891338201]}, "properties": {"bikes": 2, "stands": 13, "name": "3321 - BELLE DE MAI FRICHE", "status": "OPEN", "lon": 5.39024943158741, "lat": 43.30958891338201, "update": "2016-02-08T21:09:24", "address": "BELLE DE MAI FRICHE - ANGLE RUE GUIBAL ET RUE JOBIN"}}, {"type": "Feature", "geometry": {"type": "Point", "coordinates": [5.381324, 43.290022]}, "properties": {"bikes": 4, "stands": 7, "name": "06253 - ROME SYLVABELLE", "status": "OPEN", "lon": 5.381324, "lat": 43.290022, "update": "2016-02-08T21:10:19", "address": "angle rue de rome rue sylvabelle"}}, {"type": "Feature", "geometry": {"type": "Point", "coordinates": [5.375548341850035, 43.290329770206334]}, "properties": {"bikes": 1, "stands": 7, "name": "6154-PIERRE PUGET BRETEUIL", "status": "OPEN", "lon": 5.375548341850035, "lat": 43.290329770206334, "update": "2016-02-08T21:02:05", "address": "PIERRE PUGET BRETEUIL - COURS PIERRE PUGET ANGLE RUE BRETEUIL"}}, {"type": "Feature", "geometry": {"type": "Point", "coordinates": [5.381132215559973, 43.29789631329341]}, "properties": {"bikes": 9, "stands": 1, "name": "1264 - CANEBI\u00c8RE DUGOMMIER", "status": "OPEN", "lon": 5.381132215559973, "lat": 43.29789631329341, "update": "2016-02-08T21:10:02", "address": "CANEBIERE DUGOMMIER - LA CANEBIERE ANGLE BOULEVARD DUGOMMIER"}}, {"type": "Feature", "geometry": {"type": "Point", "coordinates": [5.392112767343369, 43.284456097132846]}, "properties": {"bikes": 2, "stands": 14, "name": "6206-TOULON - MENPENTI", "status": "OPEN", "lon": 5.392112767343369, "lat": 43.284456097132846, "update": "2016-02-08T21:05:59", "address": "TOULON MENPENTI - ANGLE AVENUE DE TOULON ET RUE MENPENTI"}}, {"type": "Feature", "geometry": {"type": "Point", "coordinates": [5.390871390171412, 43.295363145406]}, "properties": {"bikes": 5, "stands": 5, "name": "5104-CHAVE EUG\u00c8NE PIERRE", "status": "OPEN", "lon": 5.390871390171412, "lat": 43.295363145406, "update": "2016-02-08T21:05:15", "address": "CHAVE EUGENE PIERRE - BOULEVARD CHAVE ANGLE BOULEVARD EUGENE PIERRE"}}, {"type": "Feature", "geometry": {"type": "Point", "coordinates": [5.39960982405674, 43.2902407800378]}, "properties": {"bikes": 0, "stands": 15, "name": "5106-JEAN MOULIN BAILLE", "status": "OPEN", "lon": 5.39960982405674, "lat": 43.2902407800378, "update": "2016-02-08T21:08:08", "address": "JEAN MOULIN BAILLE - BOULEVARD JEAN  MOULIN ANGLE BOULEVARD BAILLE"}}, {"type": "Feature", "geometry": {"type": "Point", "coordinates": [5.388799115293999, 43.29899195650368]}, "properties": {"bikes": 0, "stands": 10, "name": "5220-ROOSEVELT - ORAN", "status": "OPEN", "lon": 5.388799115293999, "lat": 43.29899195650368, "update": "2016-02-08T21:07:49", "address": "ROOSEVELT ORAN - 53 COURS FRANKLIN ROOSEVELT ANGLE RUE D'ORAN"}}, {"type": "Feature", "geometry": {"type": "Point", "coordinates": [5.388799649683594, 43.27654702249427]}, "properties": {"bikes": 10, "stands": 8, "name": "8309- PRADO DUVEEN", "status": "OPEN", "lon": 5.388799649683594, "lat": 43.27654702249427, "update": "2016-02-08T21:03:40", "address": "PRADO DUVEEN - 72 AVENUE DU PRADO"}}, {"type": "Feature", "geometry": {"type": "Point", "coordinates": [5.389387542314263, 43.269318556371154]}, "properties": {"bikes": 3, "stands": 12, "name": "8265- N\u00c9GRESKO - PAULET", "status": "OPEN", "lon": 5.389387542314263, "lat": 43.269318556371154, "update": "2016-02-08T21:04:11", "address": "NEGRESKO PAULET - FACE AU 42 RUE NEGRESKO"}}, {"type": "Feature", "geometry": {"type": "Point", "coordinates": [5.366730359523051, 43.30331167287617]}, "properties": {"bikes": 13, "stands": 0, "name": "2032- DAMES  SCHUMANN", "status": "OPEN", "lon": 5.366730359523051, "lat": 43.30331167287617, "update": "2016-02-08T21:10:06", "address": "DAMES SCHUMANN - 96 BOULEVARD DES DAMES"}}, {"type": "Feature", "geometry": {"type": "Point", "coordinates": [5.36370990786361, 43.28946760889984]}, "properties": {"bikes": 4, "stands": 6, "name": "7153-CORSE ST MAURICE", "status": "OPEN", "lon": 5.36370990786361, "lat": 43.28946760889984, "update": "2016-02-08T21:01:36", "address": "CORSE SAINT MAURICE - 28 AVENUE DE LA CORSE ANGLE RAMPE SAINT MAURICE"}}, {"type": "Feature", "geometry": {"type": "Point", "coordinates": [5.374447484757423, 43.24789994774334]}, "properties": {"bikes": 18, "stands": 1, "name": "8078-VIEILLE CHAPELLE", "status": "OPEN", "lon": 5.374447484757423, "lat": 43.24789994774334, "update": "2016-02-08T21:03:47", "address": "VIEILLE CHAPELLE - 35 AVENUE DE LA POINTE ROUGE"}}, {"type": "Feature", "geometry": {"type": "Point", "coordinates": [5.385996090720193, 43.29582518327951]}, "properties": {"bikes": 0, "stands": 16, "name": "1224-PLAINE - BIBLIOTHEQUE", "status": "OPEN", "lon": 5.385996090720193, "lat": 43.29582518327951, "update": "2016-02-08T21:09:43", "address": "PLAINE BIBLIOTHEQUE - 45 RUE DE LA BIBLIOTHEQUE"}}, {"type": "Feature", "geometry": {"type": "Point", "coordinates": [5.401127142110414, 43.29952274790985]}, "properties": {"bikes": 1, "stands": 10, "name": "4022-SAKAKINI FOCH", "status": "OPEN", "lon": 5.401127142110414, "lat": 43.29952274790985, "update": "2016-02-08T21:00:47", "address": "SAKAKINI FOCH - BOULAVARD SAKAKINI ANGLE AVENUE MARECHAL FOCH"}}, {"type": "Feature", "geometry": {"type": "Point", "coordinates": [5.373546945382951, 43.291357465205536]}, "properties": {"bikes": 7, "stands": 2, "name": "1213-GRIGNAN - MARCELLE PAUL", "status": "OPEN", "lon": 5.373546945382951, "lat": 43.291357465205536, "update": "2016-02-08T21:05:37", "address": "GRIGNAN MARCELLE PAUL - RUE GRIGNAN ANGLE RUE DE LA PAIX MARCELLE PAUL"}}]}