{"features": [{"properties": {"bikes": 19, "lon": 5.403244616491982, "name": "9087-MAZARGUES", "stands": 1, "status": "OPEN", "address": "MAZARGUES - ROND POINT DE MAZARGUES (OBELISQUE)", "update": "2016-02-08T20:29:37", "lat": 43.250903869637334}, "geometry": {"type": "Point", "coordinates": [5.403244616491982, 43.250903869637334]}, "type": "Feature"}, {"properties": {"bikes": 0, "lon": 5.379895702048497, "name": "1301- ST CHARLES MARSEILLAISES", "stands": 19, "status": "OPEN", "address": "SAINT CHARLES MARSEILLAISES - PLACE DES MARSEILLAISES ANGLE RUE PHILIPPE DE GIRARD", "update": "2016-02-08T20:29:54", "lat": 43.301510278747365}, "geometry": {"type": "Point", "coordinates": [5.379895702048497, 43.301510278747365]}, "type": "Feature"}, {"properties": {"bikes": 0, "lon": 5.379650236474981, "name": "6217-ROSTAND - PREFECTURE", "stands": 15, "status": "OPEN", "address": "ROSTAND PREFECTURE - 6 RUE EDMOND ROSTAND ANGLE RUE SYLVABELLE", "update": "2016-02-08T20:26:14", "lat": 43.2896832563691}, "geometry": {"type": "Point", "coordinates": [5.379650236474981, 43.2896832563691]}, "type": "Feature"}, {"properties": {"bikes": 9, "lon": 5.370488134608402, "name": "2184-REPUBLIQUE-CATHALA", "stands": 0, "status": "OPEN", "address": "REPUBLIQUE CATHALA - RUE DE LA REPUBLIQUE ANGLE RUE JEAN MARC CATHALA", "update": "2016-02-08T20:20:22", "lat": 43.30056201196652}, "geometry": {"type": "Point", "coordinates": [5.370488134608402, 43.30056201196652]}, "type": "Feature"}, {"properties": {"bikes": 6, "lon": 5.36651, "name": "02279 - DOCKS LES TERRASSES DU PORT", "stands": 16, "status": "OPEN", "address": "SOUS A55 AU BOUT DES DOCKS FACE AU 22 QUAI DU LAZARET 13002", "update": "2016-02-08T20:26:33", "lat": 43.308731}, "geometry": {"type": "Point", "coordinates": [5.36651, 43.308731]}, "type": "Feature"}, {"properties": {"bikes": 3, "lon": 5.386356771062651, "name": "1344 - FLAMMARION NATIONAL", "stands": 4, "status": "OPEN", "address": "FLAMMARION NATIONAL - BOULEVARD CAMILLE FLAMMARION ANGLE BOULEVARD NATIONAL", "update": "2016-02-08T20:24:50", "lat": 43.30353946127941}, "geometry": {"type": "Point", "coordinates": [5.386356771062651, 43.30353946127941]}, "type": "Feature"}, {"properties": {"bikes": 2, "lon": 5.36697414687028, "name": "2272- JOLIETTE-DUNKERQUE", "stands": 11, "status": "OPEN", "address": "JOLIETTE DUNKERQUE - PLACE DE LA JOLIETTE ANGLE BOULEVARD DUNKERQUE", "update": "2016-02-08T20:26:21", "lat": 43.3051302607768}, "geometry": {"type": "Point", "coordinates": [5.36697414687028, 43.3051302607768]}, "type": "Feature"}, {"properties": {"bikes": 7, "lon": 5.375795816171145, "name": "8068-PRADO BORELY", "stands": 0, "status": "OPEN", "address": "PRADO BORELY - 579 AVENUE DU PRADO", "update": "2016-02-08T20:21:44", "lat": 43.262455920908494}, "geometry": {"type": "Point", "coordinates": [5.375795816171145, 43.262455920908494]}, "type": "Feature"}, {"properties": {"bikes": 0, "lon": 5.394684906357751, "name": "4238-LIBERATION-CHAPE-ESPERANDIEU", "stands": 12, "status": "OPEN", "address": "LIBERATION CHAPE ESPERANDIEU - BOULAVARD LIBERATION ANGLE RUE CHAPE", "update": "2016-02-08T20:20:56", "lat": 43.302008143688155}, "geometry": {"type": "Point", "coordinates": [5.394684906357751, 43.302008143688155]}, "type": "Feature"}, {"properties": {"bikes": 10, "lon": 5.371867606488009, "name": "1003-PLACE AUX HUILES", "stands": 0, "status": "OPEN", "address": "PLACE AUX HUILES - COURS ESTIENNE D'ORVES ANGLE RUE SAINT SAENS", "update": "2016-02-08T20:28:27", "lat": 43.29312239728256}, "geometry": {"type": "Point", "coordinates": [5.371867606488009, 43.29312239728256]}, "type": "Feature"}, {"properties": {"bikes": 15, "lon": 5.375905974276691, "name": "1216-SAINTE - LULLI", "stands": 0, "status": "OPEN", "address": "SAINTE LULLI - 17 RUE SAINTE", "update": "2016-02-08T20:26:59", "lat": 43.292666663006464}, "geometry": {"type": "Point", "coordinates": [5.375905974276691, 43.292666663006464]}, "type": "Feature"}, {"properties": {"bikes": 5, "lon": 5.366479730277853, "name": "7215-ENDOUME - CORDERIE", "stands": 8, "status": "OPEN", "address": "ENDOUME CORDERIE - 41 RUE D'ENDOUME", "update": "2016-02-08T20:28:01", "lat": 43.28923675488644}, "geometry": {"type": "Point", "coordinates": [5.366479730277853, 43.28923675488644]}, "type": "Feature"}, {"properties": {"bikes": 14, "lon": 5.36552550703358, "name": "2179-QUAI DU PORT", "stands": 0, "status": "OPEN", "address": "QUAI DU PORT - 148 QUAI DU PORT", "update": "2016-02-08T20:27:11", "lat": 43.295414354264665}, "geometry": {"type": "Point", "coordinates": [5.36552550703358, 43.295414354264665]}, "type": "Feature"}, {"properties": {"bikes": 7, "lon": 5.402740962235228, "name": "9085-SCHLOESING TEISSERE", "stands": 9, "status": "OPEN", "address": "SCHLOESSING TEISSERE - ANGLE BOULEVARD SCHLOESSING ET RUE RAYMOND TEISSERE", "update": "2016-02-08T20:22:43", "lat": 43.2693522531282}, "geometry": {"type": "Point", "coordinates": [5.402740962235228, 43.2693522531282]}, "type": "Feature"}, {"properties": {"bikes": 0, "lon": 5.379124641857261, "name": "6100-PAUL PEYTRAL", "stands": 9, "status": "OPEN", "address": "PAUL PEYTRAL - 35 BOULEVARD PAUL PEYTRAL", "update": "2016-02-08T20:20:18", "lat": 43.289985879061746}, "geometry": {"type": "Point", "coordinates": [5.379124641857261, 43.289985879061746]}, "type": "Feature"}, {"properties": {"bikes": 1, "lon": 5.401873594694653, "name": "8149-391 MICHELET", "stands": 18, "status": "OPEN", "address": "391 MICHELET - 391 BOULEVARD MICHELET", "update": "2016-02-08T20:29:48", "lat": 43.25402727813068}, "geometry": {"type": "Point", "coordinates": [5.401873594694653, 43.25402727813068]}, "type": "Feature"}, {"properties": {"bikes": 0, "lon": 5.399686062414487, "name": "9207- TEISSEIRE - ROUBAUD", "stands": 10, "status": "OPEN", "address": "TEISSEIRE ROUBAUD - ANGLE RUE RAYMOND TEISSEIRE ET RUE MAGUY ROUBAUD", "update": "2016-02-08T20:26:41", "lat": 43.27252367086013}, "geometry": {"type": "Point", "coordinates": [5.399686062414487, 43.27252367086013]}, "type": "Feature"}, {"properties": {"bikes": 4, "lon": 5.383105742132375, "name": "6254-ROME - BERLIOZ - ITALIE", "stands": 9, "status": "OPEN", "address": "ROME ITALIE BERLIOZ - FACE AU 10 RUE BERLIOZ", "update": "2016-02-08T20:30:17", "lat": 43.28892000857008}, "geometry": {"type": "Point", "coordinates": [5.383105742132375, 43.28892000857008]}, "type": "Feature"}, {"properties": {"bikes": 8, "lon": 5.3901483781149, "name": "1343 - FLAMMARION GROBET", "stands": 7, "status": "OPEN", "address": "FLAMMARION GROBET - BOULEVARD CAMILLE FLAMMARION ANGLE RUE LOUIS GROBET", "update": "2016-02-08T20:27:35", "lat": 43.304681870508325}, "geometry": {"type": "Point", "coordinates": [5.3901483781149, 43.304681870508325]}, "type": "Feature"}, {"properties": {"bikes": 1, "lon": 5.387779642713593, "name": "6113-LODI VILLAGE", "stands": 14, "status": "OPEN", "address": "LODI VILLAGE - FACE AU 89 RUE DE LODI", "update": "2016-02-08T20:29:41", "lat": 43.2886166717576}, "geometry": {"type": "Point", "coordinates": [5.387779642713593, 43.2886166717576]}, "type": "Feature"}, {"properties": {"bikes": 12, "lon": 5.387773261785004, "name": "1130- NATIONAL LONGCHAMP", "stands": 3, "status": "OPEN", "address": "NATIONAL LONGCHAMP - 1 BD NATIONAL ANGLE LONGCHAMP", "update": "2016-02-08T20:20:58", "lat": 43.30123319837804}, "geometry": {"type": "Point", "coordinates": [5.387773261785004, 43.30123319837804]}, "type": "Feature"}, {"properties": {"bikes": 7, "lon": 5.365239906973955, "name": "7142-CORNICHE RAPATRIES", "stands": 8, "status": "OPEN", "address": "CORNICHE RAPATRIES - CORNICHE J.F. KENNEDY FACE AU MEMORIAL DES RAPATRIES EN DIRECTION DU VIEUX PORT", "update": "2016-02-08T20:26:03", "lat": 43.270172262619184}, "geometry": {"type": "Point", "coordinates": [5.365239906973955, 43.270172262619184]}, "type": "Feature"}, {"properties": {"bikes": 7, "lon": 5.393967016838425, "name": "8147 - MICHELET HUVEAUNE", "stands": 7, "status": "OPEN", "address": "MICHELET HUVEAUNE - ANGLE BOULEVARD MICHELET ET RUE JACQUES PICON", "update": "2016-02-08T20:28:23", "lat": 43.26796549967643}, "geometry": {"type": "Point", "coordinates": [5.393967016838425, 43.26796549967643]}, "type": "Feature"}, {"properties": {"bikes": 13, "lon": 5.387375678428276, "name": "3320 - BELLE DE MAI CADENAT", "stands": 2, "status": "OPEN", "address": "BELLE DE MAI CADENAT - PLACE BERNARD CADENAT", "update": "2016-02-08T20:28:04", "lat": 43.31181964585524}, "geometry": {"type": "Point", "coordinates": [5.387375678428276, 43.31181964585524]}, "type": "Feature"}, {"properties": {"bikes": 12, "lon": 5.38678589001619, "name": "6177-BAILLE FRIEDLAND", "stands": 5, "status": "OPEN", "address": "BAILLE FRIEDLAND - BOULEVARD BAILLE ANGLE RUE DE FRIEDLAND", "update": "2016-02-08T20:28:49", "lat": 43.2865946021474}, "geometry": {"type": "Point", "coordinates": [5.38678589001619, 43.2865946021474]}, "type": "Feature"}, {"properties": {"bikes": 0, "lon": 5.39166970262158, "name": "8307-PRADO MICHELET", "stands": 20, "status": "OPEN", "address": "Parvis entr\u00e9e parc Chanot", "update": "2016-02-08T20:26:23", "lat": 43.2722414899425}, "geometry": {"type": "Point", "coordinates": [5.39166970262158, 43.2722414899425]}, "type": "Feature"}, {"properties": {"bikes": 2, "lon": 5.397731278573822, "name": "5103-RUE GEORGES", "stands": 12, "status": "OPEN", "address": "RUE GEORGES - 28 RUE GEORGES", "update": "2016-02-08T20:23:18", "lat": 43.29748821146523}, "geometry": {"type": "Point", "coordinates": [5.397731278573822, 43.29748821146523]}, "type": "Feature"}, {"properties": {"bikes": 0, "lon": 5.38661231791721, "name": "1230-ROOSEVELT - REFORMES", "stands": 10, "status": "OPEN", "address": "ROOSEVELT REFORMES - 7 COURS FRANKLIN ROOSEVELT", "update": "2016-02-08T20:29:08", "lat": 43.29908095432929}, "geometry": {"type": "Point", "coordinates": [5.38661231791721, 43.29908095432929]}, "type": "Feature"}, {"properties": {"bikes": 1, "lon": 5.377690136115547, "name": "1345 - SAINT CHARLES LECLERC ZATTARA", "stands": 11, "status": "OPEN", "address": "SAINT CHARLES LECLERC ZATTARA - AVENUE DU GENERAL LECLERC ANGLE RUE ANTOINE ZATTARA", "update": "2016-02-08T20:23:52", "lat": 43.30380276644441}, "geometry": {"type": "Point", "coordinates": [5.377690136115547, 43.30380276644441]}, "type": "Feature"}, {"properties": {"bikes": 14, "lon": 5.396409806138883, "name": "8257-RABATAU - TEISSEIRE", "stands": 1, "status": "OPEN", "address": "RABATAU TEISSEIRE - ANGLE BOULEVARD RABATAU ET FACE AU 68 RUE RAYMOND TEISSEIRE", "update": "2016-02-08T20:27:23", "lat": 43.27524269246836}, "geometry": {"type": "Point", "coordinates": [5.396409806138883, 43.27524269246836]}, "type": "Feature"}, {"properties": {"bikes": 8, "lon": 5.373860886192452, "name": "1346- REPUBLIQUE COUTELLERIE", "stands": 0, "status": "OPEN", "address": "REPUBLIQUE COUTELLERIE - RUE DE LA REPUBLIQUE ANGLE RUE DE LA COUTELLERIE", "update": "2016-02-08T20:26:50", "lat": 43.296824934966864}, "geometry": {"type": "Point", "coordinates": [5.373860886192452, 43.296824934966864]}, "type": "Feature"}, {"properties": {"bikes": 10, "lon": 5.378423799723321, "name": "1297- ST F\u00c9RR\u00c9OL DAVSO", "stands": 6, "status": "OPEN", "address": "ST FERREOL DAVSO - RUE FRANCIS DAVSO ANGLE RUE SAINT FERREOL", "update": "2016-02-08T20:26:28", "lat": 43.293485736186526}, "geometry": {"type": "Point", "coordinates": [5.378423799723321, 43.293485736186526]}, "type": "Feature"}, {"properties": {"bikes": 10, "lon": 5.398913930872658, "name": "9074-MICHELET LUCE", "stands": 4, "status": "OPEN", "address": "MICHELET LUCE - ANGLE BOULEVARD MICHELET ET BOULEVARD LUCE", "update": "2016-02-08T20:28:21", "lat": 43.25850879475187}, "geometry": {"type": "Point", "coordinates": [5.398913930872658, 43.25850879475187]}, "type": "Feature"}, {"properties": {"bikes": 0, "lon": 5.38545312564012, "name": "1228-LA PLAINE SUD", "stands": 14, "status": "OPEN", "address": "LA PLAINE SUD - RUE DES TROIS MAGES ANGLE PLACE JEAN JAURES", "update": "2016-02-08T20:23:51", "lat": 43.29441078214159}, "geometry": {"type": "Point", "coordinates": [5.38545312564012, 43.29441078214159]}, "type": "Feature"}, {"properties": {"bikes": 0, "lon": 5.39403885378465, "name": "5107-BAILLE CONCEPTION", "stands": 11, "status": "OPEN", "address": "BAILLE CONCEPTION  - 145 BOULEVARD BAILLE", "update": "2016-02-08T20:26:31", "lat": 43.28872669088929}, "geometry": {"type": "Point", "coordinates": [5.39403885378465, 43.28872669088929]}, "type": "Feature"}, {"properties": {"bikes": 4, "lon": 5.369497428189588, "name": "2030-REPUBLIQUE DAMES", "stands": 0, "status": "OPEN", "address": "RPUBLIQUE DAMES - 68 BOULEVARD DES DAMES", "update": "2016-02-08T20:25:18", "lat": 43.30255028371949}, "geometry": {"type": "Point", "coordinates": [5.369497428189588, 43.30255028371949]}, "type": "Feature"}, {"properties": {"bikes": 5, "lon": 5.401285286456447, "name": "5058 -SAKAKINI - SAINT PIERRE", "stands": 5, "status": "OPEN", "address": "SAKAKINI SAINT PIERRE - BOULEVARD SAKAKINI ANGLE RUE SAINT PIERRE", "update": "2016-02-08T20:24:58", "lat": 43.292800863545835}, "geometry": {"type": "Point", "coordinates": [5.401285286456447, 43.292800863545835]}, "type": "Feature"}, {"properties": {"bikes": 13, "lon": 5.3586207351308, "name": "7027-PLACE DU 4 SEPTEMBRE", "stands": 1, "status": "OPEN", "address": "2 RUE CAPITAINE DESSEMOND", "update": "2016-02-08T20:27:04", "lat": 43.2884327278463}, "geometry": {"type": "Point", "coordinates": [5.3586207351308, 43.2884327278463]}, "type": "Feature"}, {"properties": {"bikes": 14, "lon": 5.386461522334788, "name": "6208-ROUET", "stands": 1, "status": "OPEN", "address": "ROUET - 48 RUE DU ROUET", "update": "2016-02-08T20:26:56", "lat": 43.28350144850817}, "geometry": {"type": "Point", "coordinates": [5.386461522334788, 43.28350144850817]}, "type": "Feature"}, {"properties": {"bikes": 11, "lon": 5.370835093727862, "name": "2012-GRAND RUE", "stands": 8, "status": "OPEN", "address": "GRAND RUE - FACE AU 35 GRAND'RUE", "update": "2016-02-08T20:25:12", "lat": 43.29780955608182}, "geometry": {"type": "Point", "coordinates": [5.370835093727862, 43.29780955608182]}, "type": "Feature"}, {"properties": {"bikes": 14, "lon": 5.375339514183368, "name": "1001 - CANEBIERE REINE ELISABETH", "stands": 0, "status": "OPEN", "address": "CANEBIERE REINE ELISABETH - CANEBIERE ANGLE REINE ELISABETH", "update": "2016-02-08T20:20:54", "lat": 43.295686109850145}, "geometry": {"type": "Point", "coordinates": [5.375339514183368, 43.295686109850145]}, "type": "Feature"}, {"properties": {"bikes": 10, "lon": 5.37599738915791, "name": "8144-ESCALE BORELY POINTE ROUGE", "stands": 0, "status": "OPEN", "address": "ESCALE BORELY POINTE ROUGE - ESCALE BORELY EN DIRECTION DE L'AVENUE POINTE ROUGE", "update": "2016-02-08T20:26:58", "lat": 43.25394372546869}, "geometry": {"type": "Point", "coordinates": [5.37599738915791, 43.25394372546869]}, "type": "Feature"}, {"properties": {"bikes": 8, "lon": 5.38279581908046, "name": "8067-PRADO GABES", "stands": 7, "status": "OPEN", "address": "PRADO GABES - AVENUE DU PRADO ANGLE BD DE GABES", "update": "2016-02-08T20:23:27", "lat": 43.2668438148239}, "geometry": {"type": "Point", "coordinates": [5.38279581908046, 43.2668438148239]}, "type": "Feature"}, {"properties": {"bikes": 15, "lon": 5.349696475467313, "name": "7062-88 CORNICHE - KENNEDY", "stands": 0, "status": "OPEN", "address": "88 CORNICHE KENNEDY - 88 CORNICHE J.F. KENNEDY", "update": "2016-02-08T20:29:16", "lat": 43.284213979400505}, "geometry": {"type": "Point", "coordinates": [5.349696475467313, 43.284213979400505]}, "type": "Feature"}, {"properties": {"bikes": 14, "lon": 5.375165446771129, "name": "1210-BEAUVAU - CANEBIERE", "stands": 0, "status": "OPEN", "address": "BEAUVAU CANEBIERE - RUE BEAUVAU", "update": "2016-02-08T20:27:40", "lat": 43.29542125608577}, "geometry": {"type": "Point", "coordinates": [5.375165446771129, 43.29542125608577]}, "type": "Feature"}, {"properties": {"bikes": 2, "lon": 5.383285575102103, "name": "6023- CASTELLANE", "stands": 17, "status": "OPEN", "address": "CASTELLANE - ROND POINT CASTELLANE DEVANT LE CAFE DE PARIS", "update": "2016-02-08T20:22:38", "lat": 43.286046362122946}, "geometry": {"type": "Point", "coordinates": [5.383285575102103, 43.286046362122946]}, "type": "Feature"}, {"properties": {"bikes": 0, "lon": 5.406000803377506, "name": "4293- BLANCARDE", "stands": 14, "status": "OPEN", "address": "BLANCARDE - GARE DE LA BLANCARDE", "update": "2016-02-08T20:23:50", "lat": 43.29626340517055}, "geometry": {"type": "Point", "coordinates": [5.406000803377506, 43.29626340517055]}, "type": "Feature"}, {"properties": {"bikes": 3, "lon": 5.366506599649465, "name": "8313- PARC PASTRE", "stands": 7, "status": "OPEN", "address": "PARC PASTRE - ANGLE AVENUE DE MONTREDON ET AVENUE D'OUTRE MER", "update": "2016-02-08T20:20:43", "lat": 43.23984252335505}, "geometry": {"type": "Point", "coordinates": [5.366506599649465, 43.23984252335505]}, "type": "Feature"}, {"properties": {"bikes": 2, "lon": 5.38299269172725, "name": "6237-LIEUTAUD JULIEN", "stands": 8, "status": "OPEN", "address": "LIEUTAUD JULIEN - FACE AU 20 BOULEVARD THEODORE THURNER", "update": "2016-02-08T20:24:00", "lat": 43.2921244873688}, "geometry": {"type": "Point", "coordinates": [5.38299269172725, 43.2921244873688]}, "type": "Feature"}, {"properties": {"bikes": 15, "lon": 5.381500046726694, "name": "1245-GAMBETTA - LAFAYETTE", "stands": 0, "status": "OPEN", "address": "GAMBETTA LAFAYETTE - 6 ALLEES LEON GAMBETTA", "update": "2016-02-08T20:22:16", "lat": 43.29902793826475}, "geometry": {"type": "Point", "coordinates": [5.381500046726694, 43.29902793826475]}, "type": "Feature"}, {"properties": {"bikes": 13, "lon": 5.373281108125947, "name": "8132-PROMENADE POMPIDOU AMIRAL MUSELIER", "stands": 2, "status": "OPEN", "address": "PROMENADE POMPIDOU AMIRAL MUSELIER - PROMENADE GEORGES POMPIDOU DEVANT LA PLACE AMIRAL MUSELIER", "update": "2016-02-08T20:24:57", "lat": 43.26469407213291}, "geometry": {"type": "Point", "coordinates": [5.373281108125947, 43.26469407213291]}, "type": "Feature"}, {"properties": {"bikes": 17, "lon": 5.376413023650641, "name": "8145-ESCALE BORELY", "stands": 3, "status": "OPEN", "address": "ESCALE BORELY - ANGLE ESCALE BORELY ET AVENUE BONNEVEINE", "update": "2016-02-08T20:25:43", "lat": 43.25505597847173}, "geometry": {"type": "Point", "coordinates": [5.376413023650641, 43.25505597847173]}, "type": "Feature"}, {"properties": {"bikes": 12, "lon": 5.400635371105712, "name": "9219-PUGETTE - ANDRE", "stands": 3, "status": "OPEN", "address": "PUGETTE ANDRE - ANGLE AVENUE DU GENERAL ANDRE FACE AU 23 BOULEVARD DE LA PUGETTE", "update": "2016-02-08T20:27:11", "lat": 43.268405140653144}, "geometry": {"type": "Point", "coordinates": [5.400635371105712, 43.268405140653144]}, "type": "Feature"}, {"properties": {"bikes": 1, "lon": 5.391048744484495, "name": "8134-ROND POINT DU PRADO", "stands": 18, "status": "OPEN", "address": "ROND POINT DU PRADO - 300 AVENUE DU PRADO", "update": "2016-02-08T20:21:48", "lat": 43.27278734452526}, "geometry": {"type": "Point", "coordinates": [5.391048744484495, 43.27278734452526]}, "type": "Feature"}, {"properties": {"bikes": 13, "lon": 5.36771555892562, "name": "2341- JOLIETTE FORBIN", "stands": 1, "status": "OPEN", "address": "JOLIETTE FORBIN - PLACE DE LA JOLIETTE ANGLE RUE DE FORBIN", "update": "2016-02-08T20:29:06", "lat": 43.3047137105911}, "geometry": {"type": "Point", "coordinates": [5.36771555892562, 43.3047137105911]}, "type": "Feature"}, {"properties": {"bikes": 12, "lon": 5.374505152575336, "name": "8131-PROMENADE POMPIDOU DAVID", "stands": 3, "status": "OPEN", "address": "PROMENADE POMPIDOU DAVID -  PROMENADE GEORGES POMPIDOU AU NIVEAU DU ROND POINT DE DAVID", "update": "2016-02-08T20:28:19", "lat": 43.26178202177259}, "geometry": {"type": "Point", "coordinates": [5.374505152575336, 43.26178202177259]}, "type": "Feature"}, {"properties": {"bikes": 12, "lon": 5.379450180172236, "name": "6160-153 PARADIS", "stands": 2, "status": "OPEN", "address": "153 PARADIS - 153 RUE PARADIS", "update": "2016-02-08T20:20:41", "lat": 43.28683835122117}, "geometry": {"type": "Point", "coordinates": [5.379450180172236, 43.28683835122117]}, "type": "Feature"}, {"properties": {"bikes": 2, "lon": 5.398630311705657, "name": "4111-FOCH FAYOLLE", "stands": 17, "status": "OPEN", "address": "FOCH FAYOLLE - ANGLE AVENUE MARECHAL FOCH ET RUE MARECHAL FAYOLLE", "update": "2016-02-08T20:27:35", "lat": 43.301185515493664}, "geometry": {"type": "Point", "coordinates": [5.398630311705657, 43.301185515493664]}, "type": "Feature"}, {"properties": {"bikes": 2, "lon": 5.37224035119238, "name": "2323 -FORBIN PARIS", "stands": 11, "status": "OPEN", "address": "FORBIN PARIS - RUE DE FORBIN ANGLE BOULEVARD DE PARIS", "update": "2016-02-08T20:20:16", "lat": 43.30598895681527}, "geometry": {"type": "Point", "coordinates": [5.37224035119238, 43.30598895681527]}, "type": "Feature"}, {"properties": {"bikes": 6, "lon": 5.39517783172075, "name": "9260- MAZARGUES - ALMERAS", "stands": 7, "status": "OPEN", "address": "MAZARGUES ALMERAS - ANGLE AVENUE DE MAZARGUES ET IMPASSE ALMERAS", "update": "2016-02-08T20:24:15", "lat": 43.25096285100345}, "geometry": {"type": "Point", "coordinates": [5.39517783172075, 43.25096285100345]}, "type": "Feature"}, {"properties": {"bikes": 8, "lon": 5.367786407891749, "name": "2327- R\u00c9PUBLIQUE PLUMIER", "stands": 2, "status": "OPEN", "address": "REPUBLIQUE PLUMIER - RUE DE LA REPUBLIQUE ANGLE RUE PLUMIER", "update": "2016-02-08T20:26:53", "lat": 43.304190155898155}, "geometry": {"type": "Point", "coordinates": [5.367786407891749, 43.304190155898155]}, "type": "Feature"}, {"properties": {"bikes": 11, "lon": 5.377103061958931, "name": "1005-CENTRE BOURSE", "stands": 2, "status": "OPEN", "address": "CENTRE BOURSE - RUE BIR HAKEIM ENTREE CENTRE BOURSE", "update": "2016-02-08T20:25:34", "lat": 43.297138004748}, "geometry": {"type": "Point", "coordinates": [5.377103061958931, 43.297138004748]}, "type": "Feature"}, {"properties": {"bikes": 1, "lon": 5.360224853219125, "name": "7146-LIVON VIEUX PORT", "stands": 14, "status": "OPEN", "address": "LIVON VIEUX PORT - 36 BOULEVARD CHARLES LIVON", "update": "2016-02-08T20:24:01", "lat": 43.29224532184672}, "geometry": {"type": "Point", "coordinates": [5.360224853219125, 43.29224532184672]}, "type": "Feature"}, {"properties": {"bikes": 1, "lon": 5.391331392803749, "name": "5024-BAILLE PAURIOL", "stands": 6, "status": "OPEN", "address": "BAILLE PAURIOL - 114 BOULEVARD BAILLE ANGLE RUE PAURIOL", "update": "2016-02-08T20:25:01", "lat": 43.287814455889425}, "geometry": {"type": "Point", "coordinates": [5.391331392803749, 43.287814455889425]}, "type": "Feature"}, {"properties": {"bikes": 10, "lon": 5.374638177288532, "name": "1006-COURS JEAN BALLARD", "stands": 0, "status": "OPEN", "address": "COURS JEAN BALLARD - 5 COURS JEAN BALLARD", "update": "2016-02-08T20:28:09", "lat": 43.29336790915692}, "geometry": {"type": "Point", "coordinates": [5.374638177288532, 43.29336790915692]}, "type": "Feature"}, {"properties": {"bikes": 1, "lon": 5.384455147739253, "name": "8246-PARADIS - LORD DUVEEN", "stands": 9, "status": "OPEN", "address": "PARADIS LORD DUVEEN - 395 RUE PARADIS", "update": "2016-02-08T20:22:17", "lat": 43.275618147775035}, "geometry": {"type": "Point", "coordinates": [5.384455147739253, 43.275618147775035]}, "type": "Feature"}, {"properties": {"bikes": 12, "lon": 5.387431047255536, "name": "8053-PRADO - PERIER", "stands": 1, "status": "OPEN", "address": "PRADO PERIER - 127 AVENUE DU PRADO", "update": "2016-02-08T20:29:40", "lat": 43.27974214607358}, "geometry": {"type": "Point", "coordinates": [5.387431047255536, 43.27974214607358]}, "type": "Feature"}, {"properties": {"bikes": 15, "lon": 5.37544360265886, "name": "8066-MENDES FRANCE HUVEAUNE", "stands": 3, "status": "OPEN", "address": "MENDES FRANCE HUVEAUNE - AVENUE PEIRRE MENDES FRANCE DEVANT L'ENTREE DU PARC BORELY", "update": "2016-02-08T20:27:07", "lat": 43.260217853801166}, "geometry": {"type": "Point", "coordinates": [5.37544360265886, 43.260217853801166]}, "type": "Feature"}, {"properties": {"bikes": 15, "lon": 5.393973899334583, "name": "8261- 318 MAZARGUES", "stands": 0, "status": "OPEN", "address": "318 MAZARGUES - FACE AU 318 AVENUE DE MAZARGUES", "update": "2016-02-08T20:30:19", "lat": 43.260699609117914}, "geometry": {"type": "Point", "coordinates": [5.393973899334583, 43.260699609117914]}, "type": "Feature"}, {"properties": {"bikes": 8, "lon": 5.37602674729877, "name": "1004-GENERAL DE GAULLE PARADIS", "stands": 0, "status": "OPEN", "address": "GENERAL DE GAULLE PARADIS - PLACE GENERAL DE GAULLE FACE AU 11 RUE PARADIS", "update": "2016-02-08T20:22:18", "lat": 43.29494730625887}, "geometry": {"type": "Point", "coordinates": [5.37602674729877, 43.29494730625887]}, "type": "Feature"}, {"properties": {"bikes": 11, "lon": 5.372259932395231, "name": "6020-PLACE DE LA CORDERIE", "stands": 4, "status": "OPEN", "address": "PLACE CORDERIE - AU CENTRE DE LA PLACE CORDERIE", "update": "2016-02-08T20:22:38", "lat": 43.29076433240633}, "geometry": {"type": "Point", "coordinates": [5.372259932395231, 43.29076433240633]}, "type": "Feature"}, {"properties": {"bikes": 4, "lon": 5.396312199117862, "name": "5280-CHAVE CAMAS", "stands": 9, "status": "OPEN", "address": "CHAVE CAMAS - BOULEVARD CHAVE ANGLE RUE DU CAMAS", "update": "2016-02-08T20:29:44", "lat": 43.29581102315005}, "geometry": {"type": "Point", "coordinates": [5.396312199117862, 43.29581102315005]}, "type": "Feature"}, {"properties": {"bikes": 12, "lon": 5.370540756635374, "name": "8290- POINTE ROUGE - MONTREDON", "stands": 5, "status": "OPEN", "address": "POINTE ROUGE MONTREDON - ANGLE AVENUE ODESSA ET AVENUE MONTREDON", "update": "2016-02-08T20:23:55", "lat": 43.243802055963265}, "geometry": {"type": "Point", "coordinates": [5.370540756635374, 43.243802055963265]}, "type": "Feature"}, {"properties": {"bikes": 9, "lon": 5.392402358314715, "name": "8262-MAZARGUES-BARRAL", "stands": 3, "status": "OPEN", "address": "MAZARGUES BARRAL - ANGLE AVENUE DE MAZARGUES ET BOULEVARD BARRAL", "update": "2016-02-08T20:29:57", "lat": 43.263999455764186}, "geometry": {"type": "Point", "coordinates": [5.392402358314715, 43.263999455764186]}, "type": "Feature"}, {"properties": {"bikes": 0, "lon": 5.378292250179226, "name": "1316 -ST CHARLES FACULT\u00c9", "stands": 15, "status": "OPEN", "address": "SAINT CHARLES FACULTE - BOULEVARD GUSTAVE DESPLACES ANGLE AVENUE DU GENERAL LECLERC", "update": "2016-02-08T20:29:36", "lat": 43.304244359587024}, "geometry": {"type": "Point", "coordinates": [5.378292250179226, 43.304244359587024]}, "type": "Feature"}, {"properties": {"bikes": 3, "lon": 5.357823161216201, "name": "7025-LIVON PASTEUR", "stands": 17, "status": "OPEN", "address": "LIVON PASTEUR - BOULEVARD CHARLES LIVON ANGLE ESPLANADE DU PHARO", "update": "2016-02-08T20:25:59", "lat": 43.29198908246378}, "geometry": {"type": "Point", "coordinates": [5.357823161216201, 43.29198908246378]}, "type": "Feature"}, {"properties": {"bikes": 1, "lon": 5.389298285180646, "name": "2221-91 LIB\u00c9RATION", "stands": 9, "status": "OPEN", "address": "91 LIBERATION - 91 BOULEVARD DE LA LIBERATION", "update": "2016-02-08T20:24:29", "lat": 43.30050650960441}, "geometry": {"type": "Point", "coordinates": [5.389298285180646, 43.30050650960441]}, "type": "Feature"}, {"properties": {"bikes": 10, "lon": 5.372088524255505, "name": "8065-PROMENADE POMPIDOU PALM BEACH", "stands": 5, "status": "OPEN", "address": "PROMENADE POMPIDOU PALM BEACH - 6 PROMENADE GEORGES POMPIDOU", "update": "2016-02-08T20:23:15", "lat": 43.267272515671856}, "geometry": {"type": "Point", "coordinates": [5.372088524255505, 43.267272515671856]}, "type": "Feature"}, {"properties": {"bikes": 0, "lon": 5.399877070301781, "name": "5060-SAKAKINI CHAVE", "stands": 12, "status": "OPEN", "address": "SAKAKINI CHAVE - 236 BOULEVARD CHAVE EN DIRECTION DE SAKAKINI", "update": "2016-02-08T20:28:27", "lat": 43.29570956843267}, "geometry": {"type": "Point", "coordinates": [5.399877070301781, 43.29570956843267]}, "type": "Feature"}, {"properties": {"bikes": 1, "lon": 5.386273779435491, "name": "8255-PRADO - PARADIS", "stands": 9, "status": "OPEN", "address": "PRADO PARADIS - 390 AVENUE DU PRADO", "update": "2016-02-08T20:29:46", "lat": 43.26954179693142}, "geometry": {"type": "Point", "coordinates": [5.386273779435491, 43.26954179693142]}, "type": "Feature"}, {"properties": {"bikes": 0, "lon": 5.397216233775408, "name": "4057-PLACE SEBASTOPOL", "stands": 10, "status": "OPEN", "address": "PLACE SEBASTOPOL - 20 PLACE SEBASTOPOL", "update": "2016-02-08T20:27:57", "lat": 43.298680879912176}, "geometry": {"type": "Point", "coordinates": [5.397216233775408, 43.298680879912176]}, "type": "Feature"}, {"properties": {"bikes": 3, "lon": 5.389411648303773, "name": "8093-HAMBOURG ROND POINT GUERRE", "stands": 8, "status": "OPEN", "address": "HAMBOURG RONT POINT GUERRE - BOULEVARD DE HAMBOURG ANGLE ROND POINT PIERRE GUERRE", "update": "2016-02-08T20:21:34", "lat": 43.249867874570256}, "geometry": {"type": "Point", "coordinates": [5.389411648303773, 43.249867874570256]}, "type": "Feature"}, {"properties": {"bikes": 9, "lon": 5.350628425025786, "name": "7138-CORNICHE  ENDOUME", "stands": 6, "status": "OPEN", "address": "CORNICHE ENDOUME - 126 CORNICHE J.F. KENNEDY", "update": "2016-02-08T20:25:11", "lat": 43.28250633472905}, "geometry": {"type": "Point", "coordinates": [5.350628425025786, 43.28250633472905]}, "type": "Feature"}, {"properties": {"bikes": 3, "lon": 5.393678259953781, "name": "4342 - FLAMMARION MONTRICHET", "stands": 7, "status": "OPEN", "address": "FLAMMARION MONTRICHET - PLACE LE VERRIER ANGLE BD FLAMMARION ET  BD MONTRICHET", "update": "2016-02-08T20:28:48", "lat": 43.305993453766845}, "geometry": {"type": "Point", "coordinates": [5.393678259953781, 43.305993453766845]}, "type": "Feature"}, {"properties": {"bikes": 1, "lon": 5.382390401095631, "name": "1275- JULIEN - 3 MAGES", "stands": 6, "status": "OPEN", "address": "JULIEN 3 MAGES - COURS JULIEN ANGLE RUE DES TROIS MAGES", "update": "2016-02-08T20:27:50", "lat": 43.29562159175117}, "geometry": {"type": "Point", "coordinates": [5.382390401095631, 43.29562159175117]}, "type": "Feature"}, {"properties": {"bikes": 4, "lon": 5.39109605124139, "name": "6187-DELPUECH CORINTHE", "stands": 10, "status": "OPEN", "address": "DELPUECH CORINTHE - 29 BOULEVARD DELPUECH", "update": "2016-02-08T20:26:14", "lat": 43.28292930261343}, "geometry": {"type": "Point", "coordinates": [5.39109605124139, 43.28292930261343]}, "type": "Feature"}, {"properties": {"bikes": 9, "lon": 5.371370384862697, "name": "7212-SAINTE - NOTRE DAME", "stands": 0, "status": "OPEN", "address": "SAINTE NOTRE DAME - 70 RUE SAINTE ANGLE RUE FORT NOTRE DAME", "update": "2016-02-08T20:23:01", "lat": 43.291634709693945}, "geometry": {"type": "Point", "coordinates": [5.371370384862697, 43.291634709693945]}, "type": "Feature"}, {"properties": {"bikes": 0, "lon": 5.386729879719248, "name": "1226-PLAINE-ST PIERRE", "stands": 17, "status": "OPEN", "address": "PLAINE ST PIERRE - RUE SAINT PIERRE ANGLE PLACE JEAN JAURES", "update": "2016-02-08T20:25:04", "lat": 43.293880006338135}, "geometry": {"type": "Point", "coordinates": [5.386729879719248, 43.293880006338135]}, "type": "Feature"}, {"properties": {"bikes": 6, "lon": 5.359258014511654, "name": "7151-PASTEUR", "stands": 10, "status": "OPEN", "address": "PASTEUR - 25 AVENUE PASTEUR", "update": "2016-02-08T20:21:06", "lat": 43.290716834278136}, "geometry": {"type": "Point", "coordinates": [5.359258014511654, 43.290716834278136]}, "type": "Feature"}, {"properties": {"bikes": 10, "lon": 5.397126739923842, "name": "9259-LANCIER-MARTHELINE", "stands": 5, "status": "OPEN", "address": "LANCIER MARTHELINE - ANGLE CHEMIN DU LANCIER ET AVENUE DE LA  MARTHELINE", "update": "2016-02-08T20:29:21", "lat": 43.24759828978683}, "geometry": {"type": "Point", "coordinates": [5.397126739923842, 43.24759828978683]}, "type": "Feature"}, {"properties": {"bikes": 0, "lon": 5.39631317835792, "name": "5284 - BAILLE-HOPITAL-CONCEPTION", "stands": 13, "status": "OPEN", "address": "BAILLE HOPITAL CONCEPTION - BOULEVARD BAILLE FACE A L'ENTREE PRINCIPALE DE L'HOPITAL DE LA CONCEPTION", "update": "2016-02-08T20:20:39", "lat": 43.28936342586655}, "geometry": {"type": "Point", "coordinates": [5.39631317835792, 43.28936342586655]}, "type": "Feature"}, {"properties": {"bikes": 1, "lon": 5.372302255725486, "name": "2240-DAMES - TERRAS", "stands": 8, "status": "OPEN", "address": "DAMES TERRAS - BOULEVARD DES DAMES ANGLE RUE DU TERRAS", "update": "2016-02-08T20:30:19", "lat": 43.301805741199246}, "geometry": {"type": "Point", "coordinates": [5.372302255725486, 43.301805741199246]}, "type": "Feature"}, {"properties": {"bikes": 11, "lon": 5.374740047327954, "name": "1302-COLBERT -SAINTE BARBE", "stands": 0, "status": "OPEN", "address": "COLBERT SAINTE BARBE - RUE COLBERT ANGLE RUE SAINTE BARBE", "update": "2016-02-08T20:24:04", "lat": 43.29924603474944}, "geometry": {"type": "Point", "coordinates": [5.374740047327954, 43.29924603474944]}, "type": "Feature"}, {"properties": {"bikes": 13, "lon": 5.355962903211387, "name": "7026-CATALANS CORNICHE", "stands": 2, "status": "OPEN", "address": "CATALANS CORNICHE - 69 CORNICHE J.F. KENNEDY ANGLE RUE DES CATALANS", "update": "2016-02-08T20:24:47", "lat": 43.28985620147398}, "geometry": {"type": "Point", "coordinates": [5.355962903211387, 43.28985620147398]}, "type": "Feature"}, {"properties": {"bikes": 27, "lon": 5.3707713851323, "name": "1002-HOTEL DE VILLE", "stands": 4, "status": "OPEN", "address": "HOTEL DE VILLE - Face au 42 QUAI DU PORT", "update": "2016-02-08T20:21:56", "lat": 43.2961387765145}, "geometry": {"type": "Point", "coordinates": [5.3707713851323, 43.2961387765145]}, "type": "Feature"}, {"properties": {"bikes": 13, "lon": 5.385593763617925, "name": "6176-CANTINI ROUET", "stands": 11, "status": "OPEN", "address": "CANTINI ROUET - FACE AU 27 AVENUE JULES CANTINI", "update": "2016-02-08T20:22:56", "lat": 43.284775983612235}, "geometry": {"type": "Point", "coordinates": [5.385593763617925, 43.284775983612235]}, "type": "Feature"}, {"properties": {"bikes": 10, "lon": 5.369716218117023, "name": "2304 - R\u00c9PUBLIQUE MOISSON", "stands": 0, "status": "OPEN", "address": "REPUBLIQUE MOISSON - RUE DE LA REPUBLIQUE ANGLE RUE FRANCOIS MOISSON", "update": "2016-02-08T20:26:05", "lat": 43.30179774806541}, "geometry": {"type": "Point", "coordinates": [5.369716218117023, 43.30179774806541]}, "type": "Feature"}, {"properties": {"bikes": 9, "lon": 5.37693066220596, "name": "1191-CANEBIERE-ST FERREOL", "stands": 0, "status": "OPEN", "address": "CANEBIERE SAINT FERREOL - ANGLE CANEBIERE SAINT FERREOL", "update": "2016-02-08T20:30:03", "lat": 43.29620767061392}, "geometry": {"type": "Point", "coordinates": [5.37693066220596, 43.29620767061392]}, "type": "Feature"}, {"properties": {"bikes": 0, "lon": 5.384138435260716, "name": "6114-JULIEN BARTHELEMY", "stands": 9, "status": "OPEN", "address": "JULIEN BARTHELEMY - 9 RUE 3 FRERES BARTHELEMY", "update": "2016-02-08T20:25:13", "lat": 43.292604598053984}, "geometry": {"type": "Point", "coordinates": [5.384138435260716, 43.292604598053984]}, "type": "Feature"}, {"properties": {"bikes": 0, "lon": 5.392179383331833, "name": "2222-151 LIBERATION", "stands": 10, "status": "OPEN", "address": "151 LIBERATION - 151 BOULEVARD DE LA LIBERATION", "update": "2016-02-08T20:21:51", "lat": 43.30143187524121}, "geometry": {"type": "Point", "coordinates": [5.392179383331833, 43.30143187524121]}, "type": "Feature"}, {"properties": {"bikes": 9, "lon": 5.383955032544848, "name": "1299- ST CHARLES VOLTAIRE LIBERT\u00c9", "stands": 8, "status": "OPEN", "address": "SAINT CHARLES VOLTAIRE LIBERTE - BOULEVARD VOLTAIRE ANGLE BOULEVARD DE LA LIBERTE", "update": "2016-02-08T20:24:04", "lat": 43.30236655745069}, "geometry": {"type": "Point", "coordinates": [5.383955032544848, 43.30236655745069]}, "type": "Feature"}, {"properties": {"bikes": 10, "lon": 5.375131220340518, "name": "1211-BEAUVAU - SUFFREN", "stands": 0, "status": "OPEN", "address": "BEAUVAU SUFFREN - RUE BEAUVAU ANGLE RUE BAILLI DE SUFFREN", "update": "2016-02-08T20:27:25", "lat": 43.294774773558274}, "geometry": {"type": "Point", "coordinates": [5.375131220340518, 43.294774773558274]}, "type": "Feature"}, {"properties": {"bikes": 9, "lon": 5.36291062831879, "name": "2200-MUCEM", "stands": 17, "status": "OPEN", "address": "Bd du Littoral, 100 m avant le Mucem, devant l\u2019entr\u00e9e du parking Vieux Port Fort St Jean, direction vieux port", "update": "2016-02-08T20:23:32", "lat": 43.2984594666424}, "geometry": {"type": "Point", "coordinates": [5.36291062831879, 43.2984594666424]}, "type": "Feature"}, {"properties": {"bikes": 7, "lon": 5.385047448641554, "name": "1287- STALINGRAD - R\u00c9FORM\u00c9S", "stands": 10, "status": "OPEN", "address": "STALINGRAD REFORMES - SQUARE STALINGRAD", "update": "2016-02-08T20:27:56", "lat": 43.29952097558015}, "geometry": {"type": "Point", "coordinates": [5.385047448641554, 43.29952097558015]}, "type": "Feature"}, {"properties": {"bikes": 1, "lon": 5.390405906592448, "name": "8308-PRADO LATIL", "stands": 9, "status": "OPEN", "address": "PRADO LATIL - 247 AVENUE DU PRADO", "update": "2016-02-08T20:26:39", "lat": 43.274352269730755}, "geometry": {"type": "Point", "coordinates": [5.390405906592448, 43.274352269730755]}, "type": "Feature"}, {"properties": {"bikes": 1, "lon": 5.385552216536626, "name": "8202-397 PRADO", "stands": 11, "status": "OPEN", "address": "397 PRADO - 397 AVENUE DU PRADO", "update": "2016-02-08T20:29:39", "lat": 43.26869900851042}, "geometry": {"type": "Point", "coordinates": [5.385552216536626, 43.26869900851042]}, "type": "Feature"}, {"properties": {"bikes": 1, "lon": 5.39024943158741, "name": "3321 - BELLE DE MAI FRICHE", "stands": 14, "status": "OPEN", "address": "BELLE DE MAI FRICHE - ANGLE RUE GUIBAL ET RUE JOBIN", "update": "2016-02-08T20:25:43", "lat": 43.30958891338201}, "geometry": {"type": "Point", "coordinates": [5.39024943158741, 43.30958891338201]}, "type": "Feature"}, {"properties": {"bikes": 5, "lon": 5.381324, "name": "06253 - ROME SYLVABELLE", "stands": 6, "status": "OPEN", "address": "angle rue de rome rue sylvabelle", "update": "2016-02-08T20:29:56", "lat": 43.290022}, "geometry": {"type": "Point", "coordinates": [5.381324, 43.290022]}, "type": "Feature"}, {"properties": {"bikes": 1, "lon": 5.375548341850035, "name": "6154-PIERRE PUGET BRETEUIL", "stands": 7, "status": "OPEN", "address": "PIERRE PUGET BRETEUIL - COURS PIERRE PUGET ANGLE RUE BRETEUIL", "update": "2016-02-08T20:21:51", "lat": 43.290329770206334}, "geometry": {"type": "Point", "coordinates": [5.375548341850035, 43.290329770206334]}, "type": "Feature"}, {"properties": {"bikes": 9, "lon": 5.381132215559973, "name": "1264 - CANEBI\u00c8RE DUGOMMIER", "stands": 1, "status": "OPEN", "address": "CANEBIERE DUGOMMIER - LA CANEBIERE ANGLE BOULEVARD DUGOMMIER", "update": "2016-02-08T20:28:18", "lat": 43.29789631329341}, "geometry": {"type": "Point", "coordinates": [5.381132215559973, 43.29789631329341]}, "type": "Feature"}, {"properties": {"bikes": 1, "lon": 5.392112767343369, "name": "6206-TOULON - MENPENTI", "stands": 15, "status": "OPEN", "address": "TOULON MENPENTI - ANGLE AVENUE DE TOULON ET RUE MENPENTI", "update": "2016-02-08T20:26:07", "lat": 43.284456097132846}, "geometry": {"type": "Point", "coordinates": [5.392112767343369, 43.284456097132846]}, "type": "Feature"}, {"properties": {"bikes": 5, "lon": 5.390871390171412, "name": "5104-CHAVE EUG\u00c8NE PIERRE", "stands": 5, "status": "OPEN", "address": "CHAVE EUGENE PIERRE - BOULEVARD CHAVE ANGLE BOULEVARD EUGENE PIERRE", "update": "2016-02-08T20:24:58", "lat": 43.295363145406}, "geometry": {"type": "Point", "coordinates": [5.390871390171412, 43.295363145406]}, "type": "Feature"}, {"properties": {"bikes": 0, "lon": 5.39960982405674, "name": "5106-JEAN MOULIN BAILLE", "stands": 15, "status": "OPEN", "address": "JEAN MOULIN BAILLE - BOULEVARD JEAN  MOULIN ANGLE BOULEVARD BAILLE", "update": "2016-02-08T20:27:54", "lat": 43.2902407800378}, "geometry": {"type": "Point", "coordinates": [5.39960982405674, 43.2902407800378]}, "type": "Feature"}, {"properties": {"bikes": 0, "lon": 5.388799115293999, "name": "5220-ROOSEVELT - ORAN", "stands": 10, "status": "OPEN", "address": "ROOSEVELT ORAN - 53 COURS FRANKLIN ROOSEVELT ANGLE RUE D'ORAN", "update": "2016-02-08T20:27:35", "lat": 43.29899195650368}, "geometry": {"type": "Point", "coordinates": [5.388799115293999, 43.29899195650368]}, "type": "Feature"}, {"properties": {"bikes": 6, "lon": 5.388799649683594, "name": "8309- PRADO DUVEEN", "stands": 12, "status": "OPEN", "address": "PRADO DUVEEN - 72 AVENUE DU PRADO", "update": "2016-02-08T20:21:14", "lat": 43.27654702249427}, "geometry": {"type": "Point", "coordinates": [5.388799649683594, 43.27654702249427]}, "type": "Feature"}, {"properties": {"bikes": 5, "lon": 5.389387542314263, "name": "8265- N\u00c9GRESKO - PAULET", "stands": 10, "status": "OPEN", "address": "NEGRESKO PAULET - FACE AU 42 RUE NEGRESKO", "update": "2016-02-08T20:20:14", "lat": 43.269318556371154}, "geometry": {"type": "Point", "coordinates": [5.389387542314263, 43.269318556371154]}, "type": "Feature"}, {"properties": {"bikes": 12, "lon": 5.366730359523051, "name": "2032- DAMES  SCHUMANN", "stands": 1, "status": "OPEN", "address": "DAMES SCHUMANN - 96 BOULEVARD DES DAMES", "update": "2016-02-08T20:20:59", "lat": 43.30331167287617}, "geometry": {"type": "Point", "coordinates": [5.366730359523051, 43.30331167287617]}, "type": "Feature"}, {"properties": {"bikes": 5, "lon": 5.36370990786361, "name": "7153-CORSE ST MAURICE", "stands": 5, "status": "OPEN", "address": "CORSE SAINT MAURICE - 28 AVENUE DE LA CORSE ANGLE RAMPE SAINT MAURICE", "update": "2016-02-08T20:22:54", "lat": 43.28946760889984}, "geometry": {"type": "Point", "coordinates": [5.36370990786361, 43.28946760889984]}, "type": "Feature"}, {"properties": {"bikes": 19, "lon": 5.374447484757423, "name": "8078-VIEILLE CHAPELLE", "stands": 0, "status": "OPEN", "address": "VIEILLE CHAPELLE - 35 AVENUE DE LA POINTE ROUGE", "update": "2016-02-08T20:21:51", "lat": 43.24789994774334}, "geometry": {"type": "Point", "coordinates": [5.374447484757423, 43.24789994774334]}, "type": "Feature"}, {"properties": {"bikes": 1, "lon": 5.385996090720193, "name": "1224-PLAINE - BIBLIOTHEQUE", "stands": 15, "status": "OPEN", "address": "PLAINE BIBLIOTHEQUE - 45 RUE DE LA BIBLIOTHEQUE", "update": "2016-02-08T20:23:58", "lat": 43.29582518327951}, "geometry": {"type": "Point", "coordinates": [5.385996090720193, 43.29582518327951]}, "type": "Feature"}, {"properties": {"bikes": 1, "lon": 5.401127142110414, "name": "4022-SAKAKINI FOCH", "stands": 10, "status": "OPEN", "address": "SAKAKINI FOCH - BOULAVARD SAKAKINI ANGLE AVENUE MARECHAL FOCH", "update": "2016-02-08T20:20:32", "lat": 43.29952274790985}, "geometry": {"type": "Point", "coordinates": [5.401127142110414, 43.29952274790985]}, "type": "Feature"}, {"properties": {"bikes": 6, "lon": 5.373546945382951, "name": "1213-GRIGNAN - MARCELLE PAUL", "stands": 3, "status": "OPEN", "address": "GRIGNAN MARCELLE PAUL - RUE GRIGNAN ANGLE RUE DE LA PAIX MARCELLE PAUL", "update": "2016-02-08T20:27:09", "lat": 43.291357465205536}, "geometry": {"type": "Point", "coordinates": [5.373546945382951, 43.291357465205536]}, "type": "Feature"}], "type": "FeatureCollection"}