{"type": "FeatureCollection", "features": [{"type": "Feature", "geometry": {"type": "Point", "coordinates": [5.403244616491982, 43.250903869637334]}, "properties": {"name": "9087-MAZARGUES", "lon": 5.403244616491982, "lat": 43.250903869637334, "status": "OPEN", "stands": 18, "update": "2016-02-04T18:46:20", "address": "MAZARGUES - ROND POINT DE MAZARGUES (OBELISQUE)", "bikes": 3}}, {"type": "Feature", "geometry": {"type": "Point", "coordinates": [5.379895702048497, 43.301510278747365]}, "properties": {"name": "1301- ST CHARLES MARSEILLAISES", "lon": 5.379895702048497, "lat": 43.301510278747365, "status": "OPEN", "stands": 5, "update": "2016-02-04T18:46:18", "address": "SAINT CHARLES MARSEILLAISES - PLACE DES MARSEILLAISES ANGLE RUE PHILIPPE DE GIRARD", "bikes": 13}}, {"type": "Feature", "geometry": {"type": "Point", "coordinates": [5.379650236474981, 43.2896832563691]}, "properties": {"name": "6217-ROSTAND - PREFECTURE", "lon": 5.379650236474981, "lat": 43.2896832563691, "status": "OPEN", "stands": 6, "update": "2016-02-04T18:46:23", "address": "ROSTAND PREFECTURE - 6 RUE EDMOND ROSTAND ANGLE RUE SYLVABELLE", "bikes": 9}}, {"type": "Feature", "geometry": {"type": "Point", "coordinates": [5.370488134608402, 43.30056201196652]}, "properties": {"name": "2184-REPUBLIQUE-CATHALA", "lon": 5.370488134608402, "lat": 43.30056201196652, "status": "OPEN", "stands": 6, "update": "2016-02-04T18:44:00", "address": "REPUBLIQUE CATHALA - RUE DE LA REPUBLIQUE ANGLE RUE JEAN MARC CATHALA", "bikes": 3}}, {"type": "Feature", "geometry": {"type": "Point", "coordinates": [5.36651, 43.308731]}, "properties": {"name": "02279 - DOCKS LES TERRASSES DU PORT", "lon": 5.36651, "lat": 43.308731, "status": "OPEN", "stands": 17, "update": "2016-02-04T18:44:56", "address": "SOUS A55 AU BOUT DES DOCKS FACE AU 22 QUAI DU LAZARET 13002", "bikes": 5}}, {"type": "Feature", "geometry": {"type": "Point", "coordinates": [5.386356771062651, 43.30353946127941]}, "properties": {"name": "1344 - FLAMMARION NATIONAL", "lon": 5.386356771062651, "lat": 43.30353946127941, "status": "OPEN", "stands": 7, "update": "2016-02-04T18:37:31", "address": "FLAMMARION NATIONAL - BOULEVARD CAMILLE FLAMMARION ANGLE BOULEVARD NATIONAL", "bikes": 0}}, {"type": "Feature", "geometry": {"type": "Point", "coordinates": [5.36697414687028, 43.3051302607768]}, "properties": {"name": "2272- JOLIETTE-DUNKERQUE", "lon": 5.36697414687028, "lat": 43.3051302607768, "status": "OPEN", "stands": 10, "update": "2016-02-04T18:41:16", "address": "JOLIETTE DUNKERQUE - PLACE DE LA JOLIETTE ANGLE BOULEVARD DUNKERQUE", "bikes": 4}}, {"type": "Feature", "geometry": {"type": "Point", "coordinates": [5.375795816171145, 43.262455920908494]}, "properties": {"name": "8068-PRADO BORELY", "lon": 5.375795816171145, "lat": 43.262455920908494, "status": "OPEN", "stands": 4, "update": "2016-02-04T18:45:05", "address": "PRADO BORELY - 579 AVENUE DU PRADO", "bikes": 4}}, {"type": "Feature", "geometry": {"type": "Point", "coordinates": [5.394684906357751, 43.302008143688155]}, "properties": {"name": "4238-LIBERATION-CHAPE-ESPERANDIEU", "lon": 5.394684906357751, "lat": 43.302008143688155, "status": "OPEN", "stands": 11, "update": "2016-02-04T18:41:42", "address": "LIBERATION CHAPE ESPERANDIEU - BOULAVARD LIBERATION ANGLE RUE CHAPE", "bikes": 0}}, {"type": "Feature", "geometry": {"type": "Point", "coordinates": [5.371867606488009, 43.29312239728256]}, "properties": {"name": "1003-PLACE AUX HUILES", "lon": 5.371867606488009, "lat": 43.29312239728256, "status": "OPEN", "stands": 2, "update": "2016-02-04T18:41:52", "address": "PLACE AUX HUILES - COURS ESTIENNE D'ORVES ANGLE RUE SAINT SAENS", "bikes": 8}}, {"type": "Feature", "geometry": {"type": "Point", "coordinates": [5.375905974276691, 43.292666663006464]}, "properties": {"name": "1216-SAINTE - LULLI", "lon": 5.375905974276691, "lat": 43.292666663006464, "status": "OPEN", "stands": 5, "update": "2016-02-04T18:42:18", "address": "SAINTE LULLI - 17 RUE SAINTE", "bikes": 9}}, {"type": "Feature", "geometry": {"type": "Point", "coordinates": [5.366479730277853, 43.28923675488644]}, "properties": {"name": "7215-ENDOUME - CORDERIE", "lon": 5.366479730277853, "lat": 43.28923675488644, "status": "OPEN", "stands": 11, "update": "2016-02-04T18:39:58", "address": "ENDOUME CORDERIE - 41 RUE D'ENDOUME", "bikes": 2}}, {"type": "Feature", "geometry": {"type": "Point", "coordinates": [5.36552550703358, 43.295414354264665]}, "properties": {"name": "2179-QUAI DU PORT", "lon": 5.36552550703358, "lat": 43.295414354264665, "status": "OPEN", "stands": 0, "update": "2016-02-04T18:47:06", "address": "QUAI DU PORT - 148 QUAI DU PORT", "bikes": 15}}, {"type": "Feature", "geometry": {"type": "Point", "coordinates": [5.402740962235228, 43.2693522531282]}, "properties": {"name": "9085-SCHLOESING TEISSERE", "lon": 5.402740962235228, "lat": 43.2693522531282, "status": "OPEN", "stands": 3, "update": "2016-02-04T18:41:06", "address": "SCHLOESSING TEISSERE - ANGLE BOULEVARD SCHLOESSING ET RUE RAYMOND TEISSERE", "bikes": 13}}, {"type": "Feature", "geometry": {"type": "Point", "coordinates": [5.379124641857261, 43.289985879061746]}, "properties": {"name": "6100-PAUL PEYTRAL", "lon": 5.379124641857261, "lat": 43.289985879061746, "status": "OPEN", "stands": 8, "update": "2016-02-04T18:39:47", "address": "PAUL PEYTRAL - 35 BOULEVARD PAUL PEYTRAL", "bikes": 1}}, {"type": "Feature", "geometry": {"type": "Point", "coordinates": [5.401873594694653, 43.25402727813068]}, "properties": {"name": "8149-391 MICHELET", "lon": 5.401873594694653, "lat": 43.25402727813068, "status": "OPEN", "stands": 16, "update": "2016-02-04T18:39:05", "address": "391 MICHELET - 391 BOULEVARD MICHELET", "bikes": 3}}, {"type": "Feature", "geometry": {"type": "Point", "coordinates": [5.399686062414487, 43.27252367086013]}, "properties": {"name": "9207- TEISSEIRE - ROUBAUD", "lon": 5.399686062414487, "lat": 43.27252367086013, "status": "OPEN", "stands": 0, "update": "2016-02-04T18:45:43", "address": "TEISSEIRE ROUBAUD - ANGLE RUE RAYMOND TEISSEIRE ET RUE MAGUY ROUBAUD", "bikes": 10}}, {"type": "Feature", "geometry": {"type": "Point", "coordinates": [5.383105742132375, 43.28892000857008]}, "properties": {"name": "6254-ROME - BERLIOZ - ITALIE", "lon": 5.383105742132375, "lat": 43.28892000857008, "status": "OPEN", "stands": 9, "update": "2016-02-04T18:38:32", "address": "ROME ITALIE BERLIOZ - FACE AU 10 RUE BERLIOZ", "bikes": 5}}, {"type": "Feature", "geometry": {"type": "Point", "coordinates": [5.3901483781149, 43.304681870508325]}, "properties": {"name": "1343 - FLAMMARION GROBET", "lon": 5.3901483781149, "lat": 43.304681870508325, "status": "OPEN", "stands": 15, "update": "2016-02-04T18:43:48", "address": "FLAMMARION GROBET - BOULEVARD CAMILLE FLAMMARION ANGLE RUE LOUIS GROBET", "bikes": 0}}, {"type": "Feature", "geometry": {"type": "Point", "coordinates": [5.387779642713593, 43.2886166717576]}, "properties": {"name": "6113-LODI VILLAGE", "lon": 5.387779642713593, "lat": 43.2886166717576, "status": "OPEN", "stands": 15, "update": "2016-02-04T18:46:26", "address": "LODI VILLAGE - FACE AU 89 RUE DE LODI", "bikes": 0}}, {"type": "Feature", "geometry": {"type": "Point", "coordinates": [5.387773261785004, 43.30123319837804]}, "properties": {"name": "1130- NATIONAL LONGCHAMP", "lon": 5.387773261785004, "lat": 43.30123319837804, "status": "OPEN", "stands": 11, "update": "2016-02-04T18:41:31", "address": "NATIONAL LONGCHAMP - 1 BD NATIONAL ANGLE LONGCHAMP", "bikes": 4}}, {"type": "Feature", "geometry": {"type": "Point", "coordinates": [5.365239906973955, 43.270172262619184]}, "properties": {"name": "7142-CORNICHE RAPATRIES", "lon": 5.365239906973955, "lat": 43.270172262619184, "status": "OPEN", "stands": 7, "update": "2016-02-04T18:42:13", "address": "CORNICHE RAPATRIES - CORNICHE J.F. KENNEDY FACE AU MEMORIAL DES RAPATRIES EN DIRECTION DU VIEUX PORT", "bikes": 8}}, {"type": "Feature", "geometry": {"type": "Point", "coordinates": [5.393967016838425, 43.26796549967643]}, "properties": {"name": "8147 - MICHELET HUVEAUNE", "lon": 5.393967016838425, "lat": 43.26796549967643, "status": "OPEN", "stands": 0, "update": "2016-02-04T18:38:46", "address": "MICHELET HUVEAUNE - ANGLE BOULEVARD MICHELET ET RUE JACQUES PICON", "bikes": 15}}, {"type": "Feature", "geometry": {"type": "Point", "coordinates": [5.387375678428276, 43.31181964585524]}, "properties": {"name": "3320 - BELLE DE MAI CADENAT", "lon": 5.387375678428276, "lat": 43.31181964585524, "status": "OPEN", "stands": 2, "update": "2016-02-04T18:43:54", "address": "BELLE DE MAI CADENAT - PLACE BERNARD CADENAT", "bikes": 13}}, {"type": "Feature", "geometry": {"type": "Point", "coordinates": [5.38678589001619, 43.2865946021474]}, "properties": {"name": "6177-BAILLE FRIEDLAND", "lon": 5.38678589001619, "lat": 43.2865946021474, "status": "OPEN", "stands": 14, "update": "2016-02-04T18:41:02", "address": "BAILLE FRIEDLAND - BOULEVARD BAILLE ANGLE RUE DE FRIEDLAND", "bikes": 3}}, {"type": "Feature", "geometry": {"type": "Point", "coordinates": [5.39166970262158, 43.2722414899425]}, "properties": {"name": "8307-PRADO MICHELET", "lon": 5.39166970262158, "lat": 43.2722414899425, "status": "OPEN", "stands": 1, "update": "2016-02-04T18:42:24", "address": "Parvis entr\u00e9e parc Chanot", "bikes": 17}}, {"type": "Feature", "geometry": {"type": "Point", "coordinates": [5.397731278573822, 43.29748821146523]}, "properties": {"name": "5103-RUE GEORGES", "lon": 5.397731278573822, "lat": 43.29748821146523, "status": "OPEN", "stands": 15, "update": "2016-02-04T18:46:58", "address": "RUE GEORGES - 28 RUE GEORGES", "bikes": 0}}, {"type": "Feature", "geometry": {"type": "Point", "coordinates": [5.38661231791721, 43.29908095432929]}, "properties": {"name": "1230-ROOSEVELT - REFORMES", "lon": 5.38661231791721, "lat": 43.29908095432929, "status": "OPEN", "stands": 9, "update": "2016-02-04T18:39:01", "address": "ROOSEVELT REFORMES - 7 COURS FRANKLIN ROOSEVELT", "bikes": 1}}, {"type": "Feature", "geometry": {"type": "Point", "coordinates": [5.377690136115547, 43.30380276644441]}, "properties": {"name": "1345 - SAINT CHARLES LECLERC ZATTARA", "lon": 5.377690136115547, "lat": 43.30380276644441, "status": "OPEN", "stands": 12, "update": "2016-02-04T18:41:39", "address": "SAINT CHARLES LECLERC ZATTARA - AVENUE DU GENERAL LECLERC ANGLE RUE ANTOINE ZATTARA", "bikes": 0}}, {"type": "Feature", "geometry": {"type": "Point", "coordinates": [5.396409806138883, 43.27524269246836]}, "properties": {"name": "8257-RABATAU - TEISSEIRE", "lon": 5.396409806138883, "lat": 43.27524269246836, "status": "OPEN", "stands": 8, "update": "2016-02-04T18:45:08", "address": "RABATAU TEISSEIRE - ANGLE BOULEVARD RABATAU ET FACE AU 68 RUE RAYMOND TEISSEIRE", "bikes": 7}}, {"type": "Feature", "geometry": {"type": "Point", "coordinates": [5.373860886192452, 43.296824934966864]}, "properties": {"name": "1346- REPUBLIQUE COUTELLERIE", "lon": 5.373860886192452, "lat": 43.296824934966864, "status": "OPEN", "stands": 6, "update": "2016-02-04T18:44:50", "address": "REPUBLIQUE COUTELLERIE - RUE DE LA REPUBLIQUE ANGLE RUE DE LA COUTELLERIE", "bikes": 2}}, {"type": "Feature", "geometry": {"type": "Point", "coordinates": [5.378423799723321, 43.293485736186526]}, "properties": {"name": "1297- ST F\u00c9RR\u00c9OL DAVSO", "lon": 5.378423799723321, "lat": 43.293485736186526, "status": "OPEN", "stands": 0, "update": "2016-02-04T18:42:49", "address": "ST FERREOL DAVSO - RUE FRANCIS DAVSO ANGLE RUE SAINT FERREOL", "bikes": 16}}, {"type": "Feature", "geometry": {"type": "Point", "coordinates": [5.398913930872658, 43.25850879475187]}, "properties": {"name": "9074-MICHELET LUCE", "lon": 5.398913930872658, "lat": 43.25850879475187, "status": "OPEN", "stands": 1, "update": "2016-02-04T18:45:34", "address": "MICHELET LUCE - ANGLE BOULEVARD MICHELET ET BOULEVARD LUCE", "bikes": 13}}, {"type": "Feature", "geometry": {"type": "Point", "coordinates": [5.38545312564012, 43.29441078214159]}, "properties": {"name": "1228-LA PLAINE SUD", "lon": 5.38545312564012, "lat": 43.29441078214159, "status": "OPEN", "stands": 10, "update": "2016-02-04T18:45:09", "address": "LA PLAINE SUD - RUE DES TROIS MAGES ANGLE PLACE JEAN JAURES", "bikes": 4}}, {"type": "Feature", "geometry": {"type": "Point", "coordinates": [5.39403885378465, 43.28872669088929]}, "properties": {"name": "5107-BAILLE CONCEPTION", "lon": 5.39403885378465, "lat": 43.28872669088929, "status": "OPEN", "stands": 10, "update": "2016-02-04T18:47:17", "address": "BAILLE CONCEPTION  - 145 BOULEVARD BAILLE", "bikes": 1}}, {"type": "Feature", "geometry": {"type": "Point", "coordinates": [5.369497428189588, 43.30255028371949]}, "properties": {"name": "2030-REPUBLIQUE DAMES", "lon": 5.369497428189588, "lat": 43.30255028371949, "status": "OPEN", "stands": 3, "update": "2016-02-04T18:46:11", "address": "RPUBLIQUE DAMES - 68 BOULEVARD DES DAMES", "bikes": 2}}, {"type": "Feature", "geometry": {"type": "Point", "coordinates": [5.401285286456447, 43.292800863545835]}, "properties": {"name": "5058 -SAKAKINI - SAINT PIERRE", "lon": 5.401285286456447, "lat": 43.292800863545835, "status": "OPEN", "stands": 7, "update": "2016-02-04T18:37:47", "address": "SAKAKINI SAINT PIERRE - BOULEVARD SAKAKINI ANGLE RUE SAINT PIERRE", "bikes": 3}}, {"type": "Feature", "geometry": {"type": "Point", "coordinates": [5.3586207351308, 43.2884327278463]}, "properties": {"name": "7027-PLACE DU 4 SEPTEMBRE", "lon": 5.3586207351308, "lat": 43.2884327278463, "status": "OPEN", "stands": 0, "update": "2016-02-04T18:44:40", "address": "2 RUE CAPITAINE DESSEMOND", "bikes": 14}}, {"type": "Feature", "geometry": {"type": "Point", "coordinates": [5.386461522334788, 43.28350144850817]}, "properties": {"name": "6208-ROUET", "lon": 5.386461522334788, "lat": 43.28350144850817, "status": "OPEN", "stands": 7, "update": "2016-02-04T18:44:51", "address": "ROUET - 48 RUE DU ROUET", "bikes": 8}}, {"type": "Feature", "geometry": {"type": "Point", "coordinates": [5.370835093727862, 43.29780955608182]}, "properties": {"name": "2012-GRAND RUE", "lon": 5.370835093727862, "lat": 43.29780955608182, "status": "OPEN", "stands": 10, "update": "2016-02-04T18:45:08", "address": "GRAND RUE - FACE AU 35 GRAND'RUE", "bikes": 10}}, {"type": "Feature", "geometry": {"type": "Point", "coordinates": [5.375339514183368, 43.295686109850145]}, "properties": {"name": "1001 - CANEBIERE REINE ELISABETH", "lon": 5.375339514183368, "lat": 43.295686109850145, "status": "OPEN", "stands": 7, "update": "2016-02-04T18:42:13", "address": "CANEBIERE REINE ELISABETH - CANEBIERE ANGLE REINE ELISABETH", "bikes": 7}}, {"type": "Feature", "geometry": {"type": "Point", "coordinates": [5.37599738915791, 43.25394372546869]}, "properties": {"name": "8144-ESCALE BORELY POINTE ROUGE", "lon": 5.37599738915791, "lat": 43.25394372546869, "status": "OPEN", "stands": 0, "update": "2016-02-04T18:40:33", "address": "ESCALE BORELY POINTE ROUGE - ESCALE BORELY EN DIRECTION DE L'AVENUE POINTE ROUGE", "bikes": 10}}, {"type": "Feature", "geometry": {"type": "Point", "coordinates": [5.38279581908046, 43.2668438148239]}, "properties": {"name": "8067-PRADO GABES", "lon": 5.38279581908046, "lat": 43.2668438148239, "status": "OPEN", "stands": 7, "update": "2016-02-04T18:45:07", "address": "PRADO GABES - AVENUE DU PRADO ANGLE BD DE GABES", "bikes": 8}}, {"type": "Feature", "geometry": {"type": "Point", "coordinates": [5.349696475467313, 43.284213979400505]}, "properties": {"name": "7062-88 CORNICHE - KENNEDY", "lon": 5.349696475467313, "lat": 43.284213979400505, "status": "OPEN", "stands": 0, "update": "2016-02-04T18:39:14", "address": "88 CORNICHE KENNEDY - 88 CORNICHE J.F. KENNEDY", "bikes": 15}}, {"type": "Feature", "geometry": {"type": "Point", "coordinates": [5.375165446771129, 43.29542125608577]}, "properties": {"name": "1210-BEAUVAU - CANEBIERE", "lon": 5.375165446771129, "lat": 43.29542125608577, "status": "OPEN", "stands": 12, "update": "2016-02-04T18:37:44", "address": "BEAUVAU CANEBIERE - RUE BEAUVAU", "bikes": 3}}, {"type": "Feature", "geometry": {"type": "Point", "coordinates": [5.383285575102103, 43.286046362122946]}, "properties": {"name": "6023- CASTELLANE", "lon": 5.383285575102103, "lat": 43.286046362122946, "status": "OPEN", "stands": 7, "update": "2016-02-04T18:45:59", "address": "CASTELLANE - ROND POINT CASTELLANE DEVANT LE CAFE DE PARIS", "bikes": 12}}, {"type": "Feature", "geometry": {"type": "Point", "coordinates": [5.406000803377506, 43.29626340517055]}, "properties": {"name": "4293- BLANCARDE", "lon": 5.406000803377506, "lat": 43.29626340517055, "status": "OPEN", "stands": 14, "update": "2016-02-04T18:44:10", "address": "BLANCARDE - GARE DE LA BLANCARDE", "bikes": 0}}, {"type": "Feature", "geometry": {"type": "Point", "coordinates": [5.366506599649465, 43.23984252335505]}, "properties": {"name": "8313- PARC PASTRE", "lon": 5.366506599649465, "lat": 43.23984252335505, "status": "OPEN", "stands": 3, "update": "2016-02-04T18:40:14", "address": "PARC PASTRE - ANGLE AVENUE DE MONTREDON ET AVENUE D'OUTRE MER", "bikes": 7}}, {"type": "Feature", "geometry": {"type": "Point", "coordinates": [5.38299269172725, 43.2921244873688]}, "properties": {"name": "6237-LIEUTAUD JULIEN", "lon": 5.38299269172725, "lat": 43.2921244873688, "status": "OPEN", "stands": 3, "update": "2016-02-04T18:45:44", "address": "LIEUTAUD JULIEN - FACE AU 20 BOULEVARD THEODORE THURNER", "bikes": 7}}, {"type": "Feature", "geometry": {"type": "Point", "coordinates": [5.381500046726694, 43.29902793826475]}, "properties": {"name": "1245-GAMBETTA - LAFAYETTE", "lon": 5.381500046726694, "lat": 43.29902793826475, "status": "OPEN", "stands": 0, "update": "2016-02-04T18:45:53", "address": "GAMBETTA LAFAYETTE - 6 ALLEES LEON GAMBETTA", "bikes": 15}}, {"type": "Feature", "geometry": {"type": "Point", "coordinates": [5.373281108125947, 43.26469407213291]}, "properties": {"name": "8132-PROMENADE POMPIDOU AMIRAL MUSELIER", "lon": 5.373281108125947, "lat": 43.26469407213291, "status": "OPEN", "stands": 10, "update": "2016-02-04T18:39:05", "address": "PROMENADE POMPIDOU AMIRAL MUSELIER - PROMENADE GEORGES POMPIDOU DEVANT LA PLACE AMIRAL MUSELIER", "bikes": 5}}, {"type": "Feature", "geometry": {"type": "Point", "coordinates": [5.376413023650641, 43.25505597847173]}, "properties": {"name": "8145-ESCALE BORELY", "lon": 5.376413023650641, "lat": 43.25505597847173, "status": "OPEN", "stands": 7, "update": "2016-02-04T18:37:17", "address": "ESCALE BORELY - ANGLE ESCALE BORELY ET AVENUE BONNEVEINE", "bikes": 12}}, {"type": "Feature", "geometry": {"type": "Point", "coordinates": [5.400635371105712, 43.268405140653144]}, "properties": {"name": "9219-PUGETTE - ANDRE", "lon": 5.400635371105712, "lat": 43.268405140653144, "status": "OPEN", "stands": 0, "update": "2016-02-04T18:46:38", "address": "PUGETTE ANDRE - ANGLE AVENUE DU GENERAL ANDRE FACE AU 23 BOULEVARD DE LA PUGETTE", "bikes": 15}}, {"type": "Feature", "geometry": {"type": "Point", "coordinates": [5.391048744484495, 43.27278734452526]}, "properties": {"name": "8134-ROND POINT DU PRADO", "lon": 5.391048744484495, "lat": 43.27278734452526, "status": "OPEN", "stands": 16, "update": "2016-02-04T18:47:11", "address": "ROND POINT DU PRADO - 300 AVENUE DU PRADO", "bikes": 4}}, {"type": "Feature", "geometry": {"type": "Point", "coordinates": [5.36771555892562, 43.3047137105911]}, "properties": {"name": "2341- JOLIETTE FORBIN", "lon": 5.36771555892562, "lat": 43.3047137105911, "status": "OPEN", "stands": 6, "update": "2016-02-04T18:37:43", "address": "JOLIETTE FORBIN - PLACE DE LA JOLIETTE ANGLE RUE DE FORBIN", "bikes": 8}}, {"type": "Feature", "geometry": {"type": "Point", "coordinates": [5.374505152575336, 43.26178202177259]}, "properties": {"name": "8131-PROMENADE POMPIDOU DAVID", "lon": 5.374505152575336, "lat": 43.26178202177259, "status": "OPEN", "stands": 7, "update": "2016-02-04T18:46:14", "address": "PROMENADE POMPIDOU DAVID -  PROMENADE GEORGES POMPIDOU AU NIVEAU DU ROND POINT DE DAVID", "bikes": 8}}, {"type": "Feature", "geometry": {"type": "Point", "coordinates": [5.379450180172236, 43.28683835122117]}, "properties": {"name": "6160-153 PARADIS", "lon": 5.379450180172236, "lat": 43.28683835122117, "status": "OPEN", "stands": 0, "update": "2016-02-04T18:42:40", "address": "153 PARADIS - 153 RUE PARADIS", "bikes": 14}}, {"type": "Feature", "geometry": {"type": "Point", "coordinates": [5.398630311705657, 43.301185515493664]}, "properties": {"name": "4111-FOCH FAYOLLE", "lon": 5.398630311705657, "lat": 43.301185515493664, "status": "OPEN", "stands": 10, "update": "2016-02-04T18:42:57", "address": "FOCH FAYOLLE - ANGLE AVENUE MARECHAL FOCH ET RUE MARECHAL FAYOLLE", "bikes": 9}}, {"type": "Feature", "geometry": {"type": "Point", "coordinates": [5.37224035119238, 43.30598895681527]}, "properties": {"name": "2323 -FORBIN PARIS", "lon": 5.37224035119238, "lat": 43.30598895681527, "status": "OPEN", "stands": 9, "update": "2016-02-04T18:45:06", "address": "FORBIN PARIS - RUE DE FORBIN ANGLE BOULEVARD DE PARIS", "bikes": 4}}, {"type": "Feature", "geometry": {"type": "Point", "coordinates": [5.39517783172075, 43.25096285100345]}, "properties": {"name": "9260- MAZARGUES - ALMERAS", "lon": 5.39517783172075, "lat": 43.25096285100345, "status": "OPEN", "stands": 2, "update": "2016-02-04T18:41:20", "address": "MAZARGUES ALMERAS - ANGLE AVENUE DE MAZARGUES ET IMPASSE ALMERAS", "bikes": 11}}, {"type": "Feature", "geometry": {"type": "Point", "coordinates": [5.367786407891749, 43.304190155898155]}, "properties": {"name": "2327- R\u00c9PUBLIQUE PLUMIER", "lon": 5.367786407891749, "lat": 43.304190155898155, "status": "OPEN", "stands": 3, "update": "2016-02-04T18:41:41", "address": "REPUBLIQUE PLUMIER - RUE DE LA REPUBLIQUE ANGLE RUE PLUMIER", "bikes": 7}}, {"type": "Feature", "geometry": {"type": "Point", "coordinates": [5.377103061958931, 43.297138004748]}, "properties": {"name": "1005-CENTRE BOURSE", "lon": 5.377103061958931, "lat": 43.297138004748, "status": "OPEN", "stands": 0, "update": "2016-02-04T18:45:09", "address": "CENTRE BOURSE - RUE BIR HAKEIM ENTREE CENTRE BOURSE", "bikes": 15}}, {"type": "Feature", "geometry": {"type": "Point", "coordinates": [5.360224853219125, 43.29224532184672]}, "properties": {"name": "7146-LIVON VIEUX PORT", "lon": 5.360224853219125, "lat": 43.29224532184672, "status": "OPEN", "stands": 10, "update": "2016-02-04T18:42:48", "address": "LIVON VIEUX PORT - 36 BOULEVARD CHARLES LIVON", "bikes": 5}}, {"type": "Feature", "geometry": {"type": "Point", "coordinates": [5.391331392803749, 43.287814455889425]}, "properties": {"name": "5024-BAILLE PAURIOL", "lon": 5.391331392803749, "lat": 43.287814455889425, "status": "OPEN", "stands": 6, "update": "2016-02-04T18:40:31", "address": "BAILLE PAURIOL - 114 BOULEVARD BAILLE ANGLE RUE PAURIOL", "bikes": 1}}, {"type": "Feature", "geometry": {"type": "Point", "coordinates": [5.374638177288532, 43.29336790915692]}, "properties": {"name": "1006-COURS JEAN BALLARD", "lon": 5.374638177288532, "lat": 43.29336790915692, "status": "OPEN", "stands": 0, "update": "2016-02-04T18:40:09", "address": "COURS JEAN BALLARD - 5 COURS JEAN BALLARD", "bikes": 9}}, {"type": "Feature", "geometry": {"type": "Point", "coordinates": [5.384455147739253, 43.275618147775035]}, "properties": {"name": "8246-PARADIS - LORD DUVEEN", "lon": 5.384455147739253, "lat": 43.275618147775035, "status": "OPEN", "stands": 10, "update": "2016-02-04T18:42:42", "address": "PARADIS LORD DUVEEN - 395 RUE PARADIS", "bikes": 0}}, {"type": "Feature", "geometry": {"type": "Point", "coordinates": [5.387431047255536, 43.27974214607358]}, "properties": {"name": "8053-PRADO - PERIER", "lon": 5.387431047255536, "lat": 43.27974214607358, "status": "OPEN", "stands": 5, "update": "2016-02-04T18:46:46", "address": "PRADO PERIER - 127 AVENUE DU PRADO", "bikes": 8}}, {"type": "Feature", "geometry": {"type": "Point", "coordinates": [5.37544360265886, 43.260217853801166]}, "properties": {"name": "8066-MENDES FRANCE HUVEAUNE", "lon": 5.37544360265886, "lat": 43.260217853801166, "status": "OPEN", "stands": 7, "update": "2016-02-04T18:42:59", "address": "MENDES FRANCE HUVEAUNE - AVENUE PEIRRE MENDES FRANCE DEVANT L'ENTREE DU PARC BORELY", "bikes": 11}}, {"type": "Feature", "geometry": {"type": "Point", "coordinates": [5.393973899334583, 43.260699609117914]}, "properties": {"name": "8261- 318 MAZARGUES", "lon": 5.393973899334583, "lat": 43.260699609117914, "status": "OPEN", "stands": 9, "update": "2016-02-04T18:46:24", "address": "318 MAZARGUES - FACE AU 318 AVENUE DE MAZARGUES", "bikes": 5}}, {"type": "Feature", "geometry": {"type": "Point", "coordinates": [5.37602674729877, 43.29494730625887]}, "properties": {"name": "1004-GENERAL DE GAULLE PARADIS", "lon": 5.37602674729877, "lat": 43.29494730625887, "status": "OPEN", "stands": 5, "update": "2016-02-04T18:44:40", "address": "GENERAL DE GAULLE PARADIS - PLACE GENERAL DE GAULLE FACE AU 11 RUE PARADIS", "bikes": 5}}, {"type": "Feature", "geometry": {"type": "Point", "coordinates": [5.372259932395231, 43.29076433240633]}, "properties": {"name": "6020-PLACE DE LA CORDERIE", "lon": 5.372259932395231, "lat": 43.29076433240633, "status": "OPEN", "stands": 5, "update": "2016-02-04T18:45:50", "address": "PLACE CORDERIE - AU CENTRE DE LA PLACE CORDERIE", "bikes": 10}}, {"type": "Feature", "geometry": {"type": "Point", "coordinates": [5.396312199117862, 43.29581102315005]}, "properties": {"name": "5280-CHAVE CAMAS", "lon": 5.396312199117862, "lat": 43.29581102315005, "status": "OPEN", "stands": 11, "update": "2016-02-04T18:45:41", "address": "CHAVE CAMAS - BOULEVARD CHAVE ANGLE RUE DU CAMAS", "bikes": 2}}, {"type": "Feature", "geometry": {"type": "Point", "coordinates": [5.370540756635374, 43.243802055963265]}, "properties": {"name": "8290- POINTE ROUGE - MONTREDON", "lon": 5.370540756635374, "lat": 43.243802055963265, "status": "OPEN", "stands": 0, "update": "2016-02-04T18:46:18", "address": "POINTE ROUGE MONTREDON - ANGLE AVENUE ODESSA ET AVENUE MONTREDON", "bikes": 17}}, {"type": "Feature", "geometry": {"type": "Point", "coordinates": [5.392402358314715, 43.263999455764186]}, "properties": {"name": "8262-MAZARGUES-BARRAL", "lon": 5.392402358314715, "lat": 43.263999455764186, "status": "OPEN", "stands": 7, "update": "2016-02-04T18:38:44", "address": "MAZARGUES BARRAL - ANGLE AVENUE DE MAZARGUES ET BOULEVARD BARRAL", "bikes": 5}}, {"type": "Feature", "geometry": {"type": "Point", "coordinates": [5.378292250179226, 43.304244359587024]}, "properties": {"name": "1316 -ST CHARLES FACULT\u00c9", "lon": 5.378292250179226, "lat": 43.304244359587024, "status": "OPEN", "stands": 7, "update": "2016-02-04T18:39:18", "address": "SAINT CHARLES FACULTE - BOULEVARD GUSTAVE DESPLACES ANGLE AVENUE DU GENERAL LECLERC", "bikes": 8}}, {"type": "Feature", "geometry": {"type": "Point", "coordinates": [5.357823161216201, 43.29198908246378]}, "properties": {"name": "7025-LIVON PASTEUR", "lon": 5.357823161216201, "lat": 43.29198908246378, "status": "OPEN", "stands": 12, "update": "2016-02-04T18:45:17", "address": "LIVON PASTEUR - BOULEVARD CHARLES LIVON ANGLE ESPLANADE DU PHARO", "bikes": 8}}, {"type": "Feature", "geometry": {"type": "Point", "coordinates": [5.389298285180646, 43.30050650960441]}, "properties": {"name": "2221-91 LIB\u00c9RATION", "lon": 5.389298285180646, "lat": 43.30050650960441, "status": "OPEN", "stands": 8, "update": "2016-02-04T18:45:45", "address": "91 LIBERATION - 91 BOULEVARD DE LA LIBERATION", "bikes": 2}}, {"type": "Feature", "geometry": {"type": "Point", "coordinates": [5.372088524255505, 43.267272515671856]}, "properties": {"name": "8065-PROMENADE POMPIDOU PALM BEACH", "lon": 5.372088524255505, "lat": 43.267272515671856, "status": "OPEN", "stands": 4, "update": "2016-02-04T18:39:05", "address": "PROMENADE POMPIDOU PALM BEACH - 6 PROMENADE GEORGES POMPIDOU", "bikes": 11}}, {"type": "Feature", "geometry": {"type": "Point", "coordinates": [5.399877070301781, 43.29570956843267]}, "properties": {"name": "5060-SAKAKINI CHAVE", "lon": 5.399877070301781, "lat": 43.29570956843267, "status": "OPEN", "stands": 10, "update": "2016-02-04T18:40:26", "address": "SAKAKINI CHAVE - 236 BOULEVARD CHAVE EN DIRECTION DE SAKAKINI", "bikes": 2}}, {"type": "Feature", "geometry": {"type": "Point", "coordinates": [5.386273779435491, 43.26954179693142]}, "properties": {"name": "8255-PRADO - PARADIS", "lon": 5.386273779435491, "lat": 43.26954179693142, "status": "OPEN", "stands": 8, "update": "2016-02-04T18:43:58", "address": "PRADO PARADIS - 390 AVENUE DU PRADO", "bikes": 2}}, {"type": "Feature", "geometry": {"type": "Point", "coordinates": [5.397216233775408, 43.298680879912176]}, "properties": {"name": "4057-PLACE SEBASTOPOL", "lon": 5.397216233775408, "lat": 43.298680879912176, "status": "OPEN", "stands": 5, "update": "2016-02-04T18:40:47", "address": "PLACE SEBASTOPOL - 20 PLACE SEBASTOPOL", "bikes": 5}}, {"type": "Feature", "geometry": {"type": "Point", "coordinates": [5.389411648303773, 43.249867874570256]}, "properties": {"name": "8093-HAMBOURG ROND POINT GUERRE", "lon": 5.389411648303773, "lat": 43.249867874570256, "status": "OPEN", "stands": 10, "update": "2016-02-04T18:47:18", "address": "HAMBOURG RONT POINT GUERRE - BOULEVARD DE HAMBOURG ANGLE ROND POINT PIERRE GUERRE", "bikes": 5}}, {"type": "Feature", "geometry": {"type": "Point", "coordinates": [5.350628425025786, 43.28250633472905]}, "properties": {"name": "7138-CORNICHE  ENDOUME", "lon": 5.350628425025786, "lat": 43.28250633472905, "status": "OPEN", "stands": 7, "update": "2016-02-04T18:43:28", "address": "CORNICHE ENDOUME - 126 CORNICHE J.F. KENNEDY", "bikes": 8}}, {"type": "Feature", "geometry": {"type": "Point", "coordinates": [5.393678259953781, 43.305993453766845]}, "properties": {"name": "4342 - FLAMMARION MONTRICHET", "lon": 5.393678259953781, "lat": 43.305993453766845, "status": "OPEN", "stands": 10, "update": "2016-02-04T18:40:00", "address": "FLAMMARION MONTRICHET - PLACE LE VERRIER ANGLE BD FLAMMARION ET  BD MONTRICHET", "bikes": 0}}, {"type": "Feature", "geometry": {"type": "Point", "coordinates": [5.382390401095631, 43.29562159175117]}, "properties": {"name": "1275- JULIEN - 3 MAGES", "lon": 5.382390401095631, "lat": 43.29562159175117, "status": "OPEN", "stands": 4, "update": "2016-02-04T18:46:37", "address": "JULIEN 3 MAGES - COURS JULIEN ANGLE RUE DES TROIS MAGES", "bikes": 3}}, {"type": "Feature", "geometry": {"type": "Point", "coordinates": [5.39109605124139, 43.28292930261343]}, "properties": {"name": "6187-DELPUECH CORINTHE", "lon": 5.39109605124139, "lat": 43.28292930261343, "status": "OPEN", "stands": 6, "update": "2016-02-04T18:39:52", "address": "DELPUECH CORINTHE - 29 BOULEVARD DELPUECH", "bikes": 9}}, {"type": "Feature", "geometry": {"type": "Point", "coordinates": [5.371370384862697, 43.291634709693945]}, "properties": {"name": "7212-SAINTE - NOTRE DAME", "lon": 5.371370384862697, "lat": 43.291634709693945, "status": "OPEN", "stands": 7, "update": "2016-02-04T18:46:31", "address": "SAINTE NOTRE DAME - 70 RUE SAINTE ANGLE RUE FORT NOTRE DAME", "bikes": 2}}, {"type": "Feature", "geometry": {"type": "Point", "coordinates": [5.386729879719248, 43.293880006338135]}, "properties": {"name": "1226-PLAINE-ST PIERRE", "lon": 5.386729879719248, "lat": 43.293880006338135, "status": "OPEN", "stands": 17, "update": "2016-02-04T18:44:57", "address": "PLAINE ST PIERRE - RUE SAINT PIERRE ANGLE PLACE JEAN JAURES", "bikes": 0}}, {"type": "Feature", "geometry": {"type": "Point", "coordinates": [5.359258014511654, 43.290716834278136]}, "properties": {"name": "7151-PASTEUR", "lon": 5.359258014511654, "lat": 43.290716834278136, "status": "OPEN", "stands": 9, "update": "2016-02-04T18:42:55", "address": "PASTEUR - 25 AVENUE PASTEUR", "bikes": 7}}, {"type": "Feature", "geometry": {"type": "Point", "coordinates": [5.397126739923842, 43.24759828978683]}, "properties": {"name": "9259-LANCIER-MARTHELINE", "lon": 5.397126739923842, "lat": 43.24759828978683, "status": "OPEN", "stands": 7, "update": "2016-02-04T18:40:39", "address": "LANCIER MARTHELINE - ANGLE CHEMIN DU LANCIER ET AVENUE DE LA  MARTHELINE", "bikes": 8}}, {"type": "Feature", "geometry": {"type": "Point", "coordinates": [5.39631317835792, 43.28936342586655]}, "properties": {"name": "5284 - BAILLE-HOPITAL-CONCEPTION", "lon": 5.39631317835792, "lat": 43.28936342586655, "status": "OPEN", "stands": 4, "update": "2016-02-04T18:46:41", "address": "BAILLE HOPITAL CONCEPTION - BOULEVARD BAILLE FACE A L'ENTREE PRINCIPALE DE L'HOPITAL DE LA CONCEPTION", "bikes": 9}}, {"type": "Feature", "geometry": {"type": "Point", "coordinates": [5.372302255725486, 43.301805741199246]}, "properties": {"name": "2240-DAMES - TERRAS", "lon": 5.372302255725486, "lat": 43.301805741199246, "status": "OPEN", "stands": 5, "update": "2016-02-04T18:40:32", "address": "DAMES TERRAS - BOULEVARD DES DAMES ANGLE RUE DU TERRAS", "bikes": 4}}, {"type": "Feature", "geometry": {"type": "Point", "coordinates": [5.374740047327954, 43.29924603474944]}, "properties": {"name": "1302-COLBERT -SAINTE BARBE", "lon": 5.374740047327954, "lat": 43.29924603474944, "status": "OPEN", "stands": 3, "update": "2016-02-04T18:42:53", "address": "COLBERT SAINTE BARBE - RUE COLBERT ANGLE RUE SAINTE BARBE", "bikes": 8}}, {"type": "Feature", "geometry": {"type": "Point", "coordinates": [5.355962903211387, 43.28985620147398]}, "properties": {"name": "7026-CATALANS CORNICHE", "lon": 5.355962903211387, "lat": 43.28985620147398, "status": "OPEN", "stands": 2, "update": "2016-02-04T18:38:00", "address": "CATALANS CORNICHE - 69 CORNICHE J.F. KENNEDY ANGLE RUE DES CATALANS", "bikes": 13}}, {"type": "Feature", "geometry": {"type": "Point", "coordinates": [5.3707713851323, 43.2961387765145]}, "properties": {"name": "1002-HOTEL DE VILLE", "lon": 5.3707713851323, "lat": 43.2961387765145, "status": "OPEN", "stands": 21, "update": "2016-02-04T18:38:23", "address": "HOTEL DE VILLE - Face au 42 QUAI DU PORT", "bikes": 11}}, {"type": "Feature", "geometry": {"type": "Point", "coordinates": [5.385593763617925, 43.284775983612235]}, "properties": {"name": "6176-CANTINI ROUET", "lon": 5.385593763617925, "lat": 43.284775983612235, "status": "OPEN", "stands": 13, "update": "2016-02-04T18:47:14", "address": "CANTINI ROUET - FACE AU 27 AVENUE JULES CANTINI", "bikes": 11}}, {"type": "Feature", "geometry": {"type": "Point", "coordinates": [5.369716218117023, 43.30179774806541]}, "properties": {"name": "2304 - R\u00c9PUBLIQUE MOISSON", "lon": 5.369716218117023, "lat": 43.30179774806541, "status": "OPEN", "stands": 2, "update": "2016-02-04T18:37:28", "address": "REPUBLIQUE MOISSON - RUE DE LA REPUBLIQUE ANGLE RUE FRANCOIS MOISSON", "bikes": 8}}, {"type": "Feature", "geometry": {"type": "Point", "coordinates": [5.37693066220596, 43.29620767061392]}, "properties": {"name": "1191-CANEBIERE-ST FERREOL", "lon": 5.37693066220596, "lat": 43.29620767061392, "status": "OPEN", "stands": 4, "update": "2016-02-04T18:44:36", "address": "CANEBIERE SAINT FERREOL - ANGLE CANEBIERE SAINT FERREOL", "bikes": 6}}, {"type": "Feature", "geometry": {"type": "Point", "coordinates": [5.384138435260716, 43.292604598053984]}, "properties": {"name": "6114-JULIEN BARTHELEMY", "lon": 5.384138435260716, "lat": 43.292604598053984, "status": "OPEN", "stands": 9, "update": "2016-02-04T18:41:26", "address": "JULIEN BARTHELEMY - 9 RUE 3 FRERES BARTHELEMY", "bikes": 0}}, {"type": "Feature", "geometry": {"type": "Point", "coordinates": [5.392179383331833, 43.30143187524121]}, "properties": {"name": "2222-151 LIBERATION", "lon": 5.392179383331833, "lat": 43.30143187524121, "status": "OPEN", "stands": 8, "update": "2016-02-04T18:47:03", "address": "151 LIBERATION - 151 BOULEVARD DE LA LIBERATION", "bikes": 2}}, {"type": "Feature", "geometry": {"type": "Point", "coordinates": [5.383955032544848, 43.30236655745069]}, "properties": {"name": "1299- ST CHARLES VOLTAIRE LIBERT\u00c9", "lon": 5.383955032544848, "lat": 43.30236655745069, "status": "OPEN", "stands": 7, "update": "2016-02-04T18:47:00", "address": "SAINT CHARLES VOLTAIRE LIBERTE - BOULEVARD VOLTAIRE ANGLE BOULEVARD DE LA LIBERTE", "bikes": 10}}, {"type": "Feature", "geometry": {"type": "Point", "coordinates": [5.375131220340518, 43.294774773558274]}, "properties": {"name": "1211-BEAUVAU - SUFFREN", "lon": 5.375131220340518, "lat": 43.294774773558274, "status": "OPEN", "stands": 2, "update": "2016-02-04T18:41:47", "address": "BEAUVAU SUFFREN - RUE BEAUVAU ANGLE RUE BAILLI DE SUFFREN", "bikes": 8}}, {"type": "Feature", "geometry": {"type": "Point", "coordinates": [5.36291062831879, 43.2984594666424]}, "properties": {"name": "2200-MUCEM", "lon": 5.36291062831879, "lat": 43.2984594666424, "status": "OPEN", "stands": 23, "update": "2016-02-04T18:45:35", "address": "Bd du Littoral, 100 m avant le Mucem, devant l\u2019entr\u00e9e du parking Vieux Port Fort St Jean, direction vieux port", "bikes": 3}}, {"type": "Feature", "geometry": {"type": "Point", "coordinates": [5.385047448641554, 43.29952097558015]}, "properties": {"name": "1287- STALINGRAD - R\u00c9FORM\u00c9S", "lon": 5.385047448641554, "lat": 43.29952097558015, "status": "OPEN", "stands": 10, "update": "2016-02-04T18:40:34", "address": "STALINGRAD REFORMES - SQUARE STALINGRAD", "bikes": 7}}, {"type": "Feature", "geometry": {"type": "Point", "coordinates": [5.390405906592448, 43.274352269730755]}, "properties": {"name": "8308-PRADO LATIL", "lon": 5.390405906592448, "lat": 43.274352269730755, "status": "OPEN", "stands": 7, "update": "2016-02-04T18:42:40", "address": "PRADO LATIL - 247 AVENUE DU PRADO", "bikes": 3}}, {"type": "Feature", "geometry": {"type": "Point", "coordinates": [5.385552216536626, 43.26869900851042]}, "properties": {"name": "8202-397 PRADO", "lon": 5.385552216536626, "lat": 43.26869900851042, "status": "OPEN", "stands": 8, "update": "2016-02-04T18:46:55", "address": "397 PRADO - 397 AVENUE DU PRADO", "bikes": 5}}, {"type": "Feature", "geometry": {"type": "Point", "coordinates": [5.39024943158741, 43.30958891338201]}, "properties": {"name": "3321 - BELLE DE MAI FRICHE", "lon": 5.39024943158741, "lat": 43.30958891338201, "status": "OPEN", "stands": 10, "update": "2016-02-04T18:41:58", "address": "BELLE DE MAI FRICHE - ANGLE RUE GUIBAL ET RUE JOBIN", "bikes": 5}}, {"type": "Feature", "geometry": {"type": "Point", "coordinates": [5.381324, 43.290022]}, "properties": {"name": "06253 - ROME SYLVABELLE", "lon": 5.381324, "lat": 43.290022, "status": "OPEN", "stands": 1, "update": "2016-02-04T18:42:46", "address": "angle rue de rome rue sylvabelle", "bikes": 11}}, {"type": "Feature", "geometry": {"type": "Point", "coordinates": [5.375548341850035, 43.290329770206334]}, "properties": {"name": "6154-PIERRE PUGET BRETEUIL", "lon": 5.375548341850035, "lat": 43.290329770206334, "status": "OPEN", "stands": 2, "update": "2016-02-04T18:43:52", "address": "PIERRE PUGET BRETEUIL - COURS PIERRE PUGET ANGLE RUE BRETEUIL", "bikes": 6}}, {"type": "Feature", "geometry": {"type": "Point", "coordinates": [5.381132215559973, 43.29789631329341]}, "properties": {"name": "1264 - CANEBI\u00c8RE DUGOMMIER", "lon": 5.381132215559973, "lat": 43.29789631329341, "status": "OPEN", "stands": 0, "update": "2016-02-04T18:46:28", "address": "CANEBIERE DUGOMMIER - LA CANEBIERE ANGLE BOULEVARD DUGOMMIER", "bikes": 10}}, {"type": "Feature", "geometry": {"type": "Point", "coordinates": [5.392112767343369, 43.284456097132846]}, "properties": {"name": "6206-TOULON - MENPENTI", "lon": 5.392112767343369, "lat": 43.284456097132846, "status": "OPEN", "stands": 15, "update": "2016-02-04T18:44:44", "address": "TOULON MENPENTI - ANGLE AVENUE DE TOULON ET RUE MENPENTI", "bikes": 1}}, {"type": "Feature", "geometry": {"type": "Point", "coordinates": [5.390871390171412, 43.295363145406]}, "properties": {"name": "5104-CHAVE EUG\u00c8NE PIERRE", "lon": 5.390871390171412, "lat": 43.295363145406, "status": "OPEN", "stands": 9, "update": "2016-02-04T18:43:25", "address": "CHAVE EUGENE PIERRE - BOULEVARD CHAVE ANGLE BOULEVARD EUGENE PIERRE", "bikes": 1}}, {"type": "Feature", "geometry": {"type": "Point", "coordinates": [5.39960982405674, 43.2902407800378]}, "properties": {"name": "5106-JEAN MOULIN BAILLE", "lon": 5.39960982405674, "lat": 43.2902407800378, "status": "OPEN", "stands": 15, "update": "2016-02-04T18:46:30", "address": "JEAN MOULIN BAILLE - BOULEVARD JEAN  MOULIN ANGLE BOULEVARD BAILLE", "bikes": 0}}, {"type": "Feature", "geometry": {"type": "Point", "coordinates": [5.388799115293999, 43.29899195650368]}, "properties": {"name": "5220-ROOSEVELT - ORAN", "lon": 5.388799115293999, "lat": 43.29899195650368, "status": "OPEN", "stands": 10, "update": "2016-02-04T18:42:31", "address": "ROOSEVELT ORAN - 53 COURS FRANKLIN ROOSEVELT ANGLE RUE D'ORAN", "bikes": 0}}, {"type": "Feature", "geometry": {"type": "Point", "coordinates": [5.388799649683594, 43.27654702249427]}, "properties": {"name": "8309- PRADO DUVEEN", "lon": 5.388799649683594, "lat": 43.27654702249427, "status": "OPEN", "stands": 14, "update": "2016-02-04T18:42:17", "address": "PRADO DUVEEN - 72 AVENUE DU PRADO", "bikes": 4}}, {"type": "Feature", "geometry": {"type": "Point", "coordinates": [5.389387542314263, 43.269318556371154]}, "properties": {"name": "8265- N\u00c9GRESKO - PAULET", "lon": 5.389387542314263, "lat": 43.269318556371154, "status": "OPEN", "stands": 3, "update": "2016-02-04T18:42:34", "address": "NEGRESKO PAULET - FACE AU 42 RUE NEGRESKO", "bikes": 12}}, {"type": "Feature", "geometry": {"type": "Point", "coordinates": [5.366730359523051, 43.30331167287617]}, "properties": {"name": "2032- DAMES  SCHUMANN", "lon": 5.366730359523051, "lat": 43.30331167287617, "status": "OPEN", "stands": 13, "update": "2016-02-04T18:37:29", "address": "DAMES SCHUMANN - 96 BOULEVARD DES DAMES", "bikes": 0}}, {"type": "Feature", "geometry": {"type": "Point", "coordinates": [5.36370990786361, 43.28946760889984]}, "properties": {"name": "7153-CORSE ST MAURICE", "lon": 5.36370990786361, "lat": 43.28946760889984, "status": "OPEN", "stands": 9, "update": "2016-02-04T18:45:03", "address": "CORSE SAINT MAURICE - 28 AVENUE DE LA CORSE ANGLE RAMPE SAINT MAURICE", "bikes": 1}}, {"type": "Feature", "geometry": {"type": "Point", "coordinates": [5.374447484757423, 43.24789994774334]}, "properties": {"name": "8078-VIEILLE CHAPELLE", "lon": 5.374447484757423, "lat": 43.24789994774334, "status": "OPEN", "stands": 1, "update": "2016-02-04T18:46:19", "address": "VIEILLE CHAPELLE - 35 AVENUE DE LA POINTE ROUGE", "bikes": 19}}, {"type": "Feature", "geometry": {"type": "Point", "coordinates": [5.385996090720193, 43.29582518327951]}, "properties": {"name": "1224-PLAINE - BIBLIOTHEQUE", "lon": 5.385996090720193, "lat": 43.29582518327951, "status": "OPEN", "stands": 15, "update": "2016-02-04T18:43:14", "address": "PLAINE BIBLIOTHEQUE - 45 RUE DE LA BIBLIOTHEQUE", "bikes": 1}}, {"type": "Feature", "geometry": {"type": "Point", "coordinates": [5.401127142110414, 43.29952274790985]}, "properties": {"name": "4022-SAKAKINI FOCH", "lon": 5.401127142110414, "lat": 43.29952274790985, "status": "OPEN", "stands": 4, "update": "2016-02-04T18:42:11", "address": "SAKAKINI FOCH - BOULAVARD SAKAKINI ANGLE AVENUE MARECHAL FOCH", "bikes": 6}}, {"type": "Feature", "geometry": {"type": "Point", "coordinates": [5.373546945382951, 43.291357465205536]}, "properties": {"name": "1213-GRIGNAN - MARCELLE PAUL", "lon": 5.373546945382951, "lat": 43.291357465205536, "status": "OPEN", "stands": 3, "update": "2016-02-04T18:40:17", "address": "GRIGNAN MARCELLE PAUL - RUE GRIGNAN ANGLE RUE DE LA PAIX MARCELLE PAUL", "bikes": 7}}]}