{"type": "FeatureCollection", "features": [{"geometry": {"coordinates": [5.403244616491982, 43.250903869637334], "type": "Point"}, "type": "Feature", "properties": {"bikes": 18, "update": "2016-02-08T21:06:33", "name": "9087-MAZARGUES", "address": "MAZARGUES - ROND POINT DE MAZARGUES (OBELISQUE)", "lon": 5.403244616491982, "status": "OPEN", "stands": 2, "lat": 43.250903869637334}}, {"geometry": {"coordinates": [5.379895702048497, 43.301510278747365], "type": "Point"}, "type": "Feature", "properties": {"bikes": 0, "update": "2016-02-08T21:10:12", "name": "1301- ST CHARLES MARSEILLAISES", "address": "SAINT CHARLES MARSEILLAISES - PLACE DES MARSEILLAISES ANGLE RUE PHILIPPE DE GIRARD", "lon": 5.379895702048497, "status": "OPEN", "stands": 19, "lat": 43.301510278747365}}, {"geometry": {"coordinates": [5.379650236474981, 43.2896832563691], "type": "Point"}, "type": "Feature", "properties": {"bikes": 0, "update": "2016-02-08T21:06:28", "name": "6217-ROSTAND - PREFECTURE", "address": "ROSTAND PREFECTURE - 6 RUE EDMOND ROSTAND ANGLE RUE SYLVABELLE", "lon": 5.379650236474981, "status": "OPEN", "stands": 15, "lat": 43.2896832563691}}, {"geometry": {"coordinates": [5.370488134608402, 43.30056201196652], "type": "Point"}, "type": "Feature", "properties": {"bikes": 9, "update": "2016-02-08T21:10:45", "name": "2184-REPUBLIQUE-CATHALA", "address": "REPUBLIQUE CATHALA - RUE DE LA REPUBLIQUE ANGLE RUE JEAN MARC CATHALA", "lon": 5.370488134608402, "status": "OPEN", "stands": 0, "lat": 43.30056201196652}}, {"geometry": {"coordinates": [5.36651, 43.308731], "type": "Point"}, "type": "Feature", "properties": {"bikes": 6, "update": "2016-02-08T21:06:46", "name": "02279 - DOCKS LES TERRASSES DU PORT", "address": "SOUS A55 AU BOUT DES DOCKS FACE AU 22 QUAI DU LAZARET 13002", "lon": 5.36651, "status": "OPEN", "stands": 16, "lat": 43.308731}}, {"geometry": {"coordinates": [5.386356771062651, 43.30353946127941], "type": "Point"}, "type": "Feature", "properties": {"bikes": 3, "update": "2016-02-08T21:15:08", "name": "1344 - FLAMMARION NATIONAL", "address": "FLAMMARION NATIONAL - BOULEVARD CAMILLE FLAMMARION ANGLE BOULEVARD NATIONAL", "lon": 5.386356771062651, "status": "OPEN", "stands": 4, "lat": 43.30353946127941}}, {"geometry": {"coordinates": [5.36697414687028, 43.3051302607768], "type": "Point"}, "type": "Feature", "properties": {"bikes": 4, "update": "2016-02-08T21:08:43", "name": "2272- JOLIETTE-DUNKERQUE", "address": "JOLIETTE DUNKERQUE - PLACE DE LA JOLIETTE ANGLE BOULEVARD DUNKERQUE", "lon": 5.36697414687028, "status": "OPEN", "stands": 9, "lat": 43.3051302607768}}, {"geometry": {"coordinates": [5.375795816171145, 43.262455920908494], "type": "Point"}, "type": "Feature", "properties": {"bikes": 6, "update": "2016-02-08T21:15:53", "name": "8068-PRADO BORELY", "address": "PRADO BORELY - 579 AVENUE DU PRADO", "lon": 5.375795816171145, "status": "OPEN", "stands": 1, "lat": 43.262455920908494}}, {"geometry": {"coordinates": [5.394684906357751, 43.302008143688155], "type": "Point"}, "type": "Feature", "properties": {"bikes": 0, "update": "2016-02-08T21:11:15", "name": "4238-LIBERATION-CHAPE-ESPERANDIEU", "address": "LIBERATION CHAPE ESPERANDIEU - BOULAVARD LIBERATION ANGLE RUE CHAPE", "lon": 5.394684906357751, "status": "OPEN", "stands": 12, "lat": 43.302008143688155}}, {"geometry": {"coordinates": [5.371867606488009, 43.29312239728256], "type": "Point"}, "type": "Feature", "properties": {"bikes": 10, "update": "2016-02-08T21:08:43", "name": "1003-PLACE AUX HUILES", "address": "PLACE AUX HUILES - COURS ESTIENNE D'ORVES ANGLE RUE SAINT SAENS", "lon": 5.371867606488009, "status": "OPEN", "stands": 0, "lat": 43.29312239728256}}, {"geometry": {"coordinates": [5.375905974276691, 43.292666663006464], "type": "Point"}, "type": "Feature", "properties": {"bikes": 15, "update": "2016-02-08T21:11:50", "name": "1216-SAINTE - LULLI", "address": "SAINTE LULLI - 17 RUE SAINTE", "lon": 5.375905974276691, "status": "OPEN", "stands": 0, "lat": 43.292666663006464}}, {"geometry": {"coordinates": [5.366479730277853, 43.28923675488644], "type": "Point"}, "type": "Feature", "properties": {"bikes": 5, "update": "2016-02-08T21:08:28", "name": "7215-ENDOUME - CORDERIE", "address": "ENDOUME CORDERIE - 41 RUE D'ENDOUME", "lon": 5.366479730277853, "status": "OPEN", "stands": 8, "lat": 43.28923675488644}}, {"geometry": {"coordinates": [5.36552550703358, 43.295414354264665], "type": "Point"}, "type": "Feature", "properties": {"bikes": 14, "update": "2016-02-08T21:07:25", "name": "2179-QUAI DU PORT", "address": "QUAI DU PORT - 148 QUAI DU PORT", "lon": 5.36552550703358, "status": "OPEN", "stands": 0, "lat": 43.295414354264665}}, {"geometry": {"coordinates": [5.402740962235228, 43.2693522531282], "type": "Point"}, "type": "Feature", "properties": {"bikes": 7, "update": "2016-02-08T21:13:00", "name": "9085-SCHLOESING TEISSERE", "address": "SCHLOESSING TEISSERE - ANGLE BOULEVARD SCHLOESSING ET RUE RAYMOND TEISSERE", "lon": 5.402740962235228, "status": "OPEN", "stands": 9, "lat": 43.2693522531282}}, {"geometry": {"coordinates": [5.379124641857261, 43.289985879061746], "type": "Point"}, "type": "Feature", "properties": {"bikes": 0, "update": "2016-02-08T21:10:36", "name": "6100-PAUL PEYTRAL", "address": "PAUL PEYTRAL - 35 BOULEVARD PAUL PEYTRAL", "lon": 5.379124641857261, "status": "OPEN", "stands": 9, "lat": 43.289985879061746}}, {"geometry": {"coordinates": [5.401873594694653, 43.25402727813068], "type": "Point"}, "type": "Feature", "properties": {"bikes": 1, "update": "2016-02-08T21:10:51", "name": "8149-391 MICHELET", "address": "391 MICHELET - 391 BOULEVARD MICHELET", "lon": 5.401873594694653, "status": "OPEN", "stands": 18, "lat": 43.25402727813068}}, {"geometry": {"coordinates": [5.399686062414487, 43.27252367086013], "type": "Point"}, "type": "Feature", "properties": {"bikes": 0, "update": "2016-02-08T21:06:57", "name": "9207- TEISSEIRE - ROUBAUD", "address": "TEISSEIRE ROUBAUD - ANGLE RUE RAYMOND TEISSEIRE ET RUE MAGUY ROUBAUD", "lon": 5.399686062414487, "status": "OPEN", "stands": 10, "lat": 43.27252367086013}}, {"geometry": {"coordinates": [5.383105742132375, 43.28892000857008], "type": "Point"}, "type": "Feature", "properties": {"bikes": 2, "update": "2016-02-08T21:16:09", "name": "6254-ROME - BERLIOZ - ITALIE", "address": "ROME ITALIE BERLIOZ - FACE AU 10 RUE BERLIOZ", "lon": 5.383105742132375, "status": "OPEN", "stands": 11, "lat": 43.28892000857008}}, {"geometry": {"coordinates": [5.3901483781149, 43.304681870508325], "type": "Point"}, "type": "Feature", "properties": {"bikes": 6, "update": "2016-02-08T21:06:51", "name": "1343 - FLAMMARION GROBET", "address": "FLAMMARION GROBET - BOULEVARD CAMILLE FLAMMARION ANGLE RUE LOUIS GROBET", "lon": 5.3901483781149, "status": "OPEN", "stands": 9, "lat": 43.304681870508325}}, {"geometry": {"coordinates": [5.387779642713593, 43.2886166717576], "type": "Point"}, "type": "Feature", "properties": {"bikes": 1, "update": "2016-02-08T21:09:56", "name": "6113-LODI VILLAGE", "address": "LODI VILLAGE - FACE AU 89 RUE DE LODI", "lon": 5.387779642713593, "status": "OPEN", "stands": 14, "lat": 43.2886166717576}}, {"geometry": {"coordinates": [5.387773261785004, 43.30123319837804], "type": "Point"}, "type": "Feature", "properties": {"bikes": 12, "update": "2016-02-08T21:13:52", "name": "1130- NATIONAL LONGCHAMP", "address": "NATIONAL LONGCHAMP - 1 BD NATIONAL ANGLE LONGCHAMP", "lon": 5.387773261785004, "status": "OPEN", "stands": 3, "lat": 43.30123319837804}}, {"geometry": {"coordinates": [5.365239906973955, 43.270172262619184], "type": "Point"}, "type": "Feature", "properties": {"bikes": 7, "update": "2016-02-08T21:06:17", "name": "7142-CORNICHE RAPATRIES", "address": "CORNICHE RAPATRIES - CORNICHE J.F. KENNEDY FACE AU MEMORIAL DES RAPATRIES EN DIRECTION DU VIEUX PORT", "lon": 5.365239906973955, "status": "OPEN", "stands": 8, "lat": 43.270172262619184}}, {"geometry": {"coordinates": [5.393967016838425, 43.26796549967643], "type": "Point"}, "type": "Feature", "properties": {"bikes": 8, "update": "2016-02-08T21:14:09", "name": "8147 - MICHELET HUVEAUNE", "address": "MICHELET HUVEAUNE - ANGLE BOULEVARD MICHELET ET RUE JACQUES PICON", "lon": 5.393967016838425, "status": "OPEN", "stands": 6, "lat": 43.26796549967643}}, {"geometry": {"coordinates": [5.387375678428276, 43.31181964585524], "type": "Point"}, "type": "Feature", "properties": {"bikes": 13, "update": "2016-02-08T21:08:22", "name": "3320 - BELLE DE MAI CADENAT", "address": "BELLE DE MAI CADENAT - PLACE BERNARD CADENAT", "lon": 5.387375678428276, "status": "OPEN", "stands": 2, "lat": 43.31181964585524}}, {"geometry": {"coordinates": [5.38678589001619, 43.2865946021474], "type": "Point"}, "type": "Feature", "properties": {"bikes": 12, "update": "2016-02-08T21:09:07", "name": "6177-BAILLE FRIEDLAND", "address": "BAILLE FRIEDLAND - BOULEVARD BAILLE ANGLE RUE DE FRIEDLAND", "lon": 5.38678589001619, "status": "OPEN", "stands": 5, "lat": 43.2865946021474}}, {"geometry": {"coordinates": [5.39166970262158, 43.2722414899425], "type": "Point"}, "type": "Feature", "properties": {"bikes": 1, "update": "2016-02-08T21:12:30", "name": "8307-PRADO MICHELET", "address": "Parvis entr\u00e9e parc Chanot", "lon": 5.39166970262158, "status": "OPEN", "stands": 19, "lat": 43.2722414899425}}, {"geometry": {"coordinates": [5.397731278573822, 43.29748821146523], "type": "Point"}, "type": "Feature", "properties": {"bikes": 2, "update": "2016-02-08T21:13:38", "name": "5103-RUE GEORGES", "address": "RUE GEORGES - 28 RUE GEORGES", "lon": 5.397731278573822, "status": "OPEN", "stands": 12, "lat": 43.29748821146523}}, {"geometry": {"coordinates": [5.38661231791721, 43.29908095432929], "type": "Point"}, "type": "Feature", "properties": {"bikes": 0, "update": "2016-02-08T21:09:22", "name": "1230-ROOSEVELT - REFORMES", "address": "ROOSEVELT REFORMES - 7 COURS FRANKLIN ROOSEVELT", "lon": 5.38661231791721, "status": "OPEN", "stands": 10, "lat": 43.29908095432929}}, {"geometry": {"coordinates": [5.377690136115547, 43.30380276644441], "type": "Point"}, "type": "Feature", "properties": {"bikes": 1, "update": "2016-02-08T21:14:14", "name": "1345 - SAINT CHARLES LECLERC ZATTARA", "address": "SAINT CHARLES LECLERC ZATTARA - AVENUE DU GENERAL LECLERC ANGLE RUE ANTOINE ZATTARA", "lon": 5.377690136115547, "status": "OPEN", "stands": 11, "lat": 43.30380276644441}}, {"geometry": {"coordinates": [5.396409806138883, 43.27524269246836], "type": "Point"}, "type": "Feature", "properties": {"bikes": 14, "update": "2016-02-08T21:07:39", "name": "8257-RABATAU - TEISSEIRE", "address": "RABATAU TEISSEIRE - ANGLE BOULEVARD RABATAU ET FACE AU 68 RUE RAYMOND TEISSEIRE", "lon": 5.396409806138883, "status": "OPEN", "stands": 1, "lat": 43.27524269246836}}, {"geometry": {"coordinates": [5.373860886192452, 43.296824934966864], "type": "Point"}, "type": "Feature", "properties": {"bikes": 8, "update": "2016-02-08T21:11:43", "name": "1346- REPUBLIQUE COUTELLERIE", "address": "REPUBLIQUE COUTELLERIE - RUE DE LA REPUBLIQUE ANGLE RUE DE LA COUTELLERIE", "lon": 5.373860886192452, "status": "OPEN", "stands": 0, "lat": 43.296824934966864}}, {"geometry": {"coordinates": [5.378423799723321, 43.293485736186526], "type": "Point"}, "type": "Feature", "properties": {"bikes": 12, "update": "2016-02-08T21:10:24", "name": "1297- ST F\u00c9RR\u00c9OL DAVSO", "address": "ST FERREOL DAVSO - RUE FRANCIS DAVSO ANGLE RUE SAINT FERREOL", "lon": 5.378423799723321, "status": "OPEN", "stands": 4, "lat": 43.293485736186526}}, {"geometry": {"coordinates": [5.398913930872658, 43.25850879475187], "type": "Point"}, "type": "Feature", "properties": {"bikes": 10, "update": "2016-02-08T21:08:37", "name": "9074-MICHELET LUCE", "address": "MICHELET LUCE - ANGLE BOULEVARD MICHELET ET BOULEVARD LUCE", "lon": 5.398913930872658, "status": "OPEN", "stands": 4, "lat": 43.25850879475187}}, {"geometry": {"coordinates": [5.38545312564012, 43.29441078214159], "type": "Point"}, "type": "Feature", "properties": {"bikes": 0, "update": "2016-02-08T21:15:08", "name": "1228-LA PLAINE SUD", "address": "LA PLAINE SUD - RUE DES TROIS MAGES ANGLE PLACE JEAN JAURES", "lon": 5.38545312564012, "status": "OPEN", "stands": 14, "lat": 43.29441078214159}}, {"geometry": {"coordinates": [5.39403885378465, 43.28872669088929], "type": "Point"}, "type": "Feature", "properties": {"bikes": 0, "update": "2016-02-08T21:10:44", "name": "5107-BAILLE CONCEPTION", "address": "BAILLE CONCEPTION  - 145 BOULEVARD BAILLE", "lon": 5.39403885378465, "status": "OPEN", "stands": 11, "lat": 43.28872669088929}}, {"geometry": {"coordinates": [5.369497428189588, 43.30255028371949], "type": "Point"}, "type": "Feature", "properties": {"bikes": 4, "update": "2016-02-08T21:15:38", "name": "2030-REPUBLIQUE DAMES", "address": "RPUBLIQUE DAMES - 68 BOULEVARD DES DAMES", "lon": 5.369497428189588, "status": "OPEN", "stands": 0, "lat": 43.30255028371949}}, {"geometry": {"coordinates": [5.401285286456447, 43.292800863545835], "type": "Point"}, "type": "Feature", "properties": {"bikes": 5, "update": "2016-02-08T21:15:20", "name": "5058 -SAKAKINI - SAINT PIERRE", "address": "SAKAKINI SAINT PIERRE - BOULEVARD SAKAKINI ANGLE RUE SAINT PIERRE", "lon": 5.401285286456447, "status": "OPEN", "stands": 5, "lat": 43.292800863545835}}, {"geometry": {"coordinates": [5.3586207351308, 43.2884327278463], "type": "Point"}, "type": "Feature", "properties": {"bikes": 14, "update": "2016-02-08T21:13:53", "name": "7027-PLACE DU 4 SEPTEMBRE", "address": "2 RUE CAPITAINE DESSEMOND", "lon": 5.3586207351308, "status": "OPEN", "stands": 0, "lat": 43.2884327278463}}, {"geometry": {"coordinates": [5.386461522334788, 43.28350144850817], "type": "Point"}, "type": "Feature", "properties": {"bikes": 15, "update": "2016-02-08T21:14:11", "name": "6208-ROUET", "address": "ROUET - 48 RUE DU ROUET", "lon": 5.386461522334788, "status": "OPEN", "stands": 0, "lat": 43.28350144850817}}, {"geometry": {"coordinates": [5.370835093727862, 43.29780955608182], "type": "Point"}, "type": "Feature", "properties": {"bikes": 13, "update": "2016-02-08T21:15:02", "name": "2012-GRAND RUE", "address": "GRAND RUE - FACE AU 35 GRAND'RUE", "lon": 5.370835093727862, "status": "OPEN", "stands": 6, "lat": 43.29780955608182}}, {"geometry": {"coordinates": [5.375339514183368, 43.295686109850145], "type": "Point"}, "type": "Feature", "properties": {"bikes": 14, "update": "2016-02-08T21:15:35", "name": "1001 - CANEBIERE REINE ELISABETH", "address": "CANEBIERE REINE ELISABETH - CANEBIERE ANGLE REINE ELISABETH", "lon": 5.375339514183368, "status": "OPEN", "stands": 0, "lat": 43.295686109850145}}, {"geometry": {"coordinates": [5.37599738915791, 43.25394372546869], "type": "Point"}, "type": "Feature", "properties": {"bikes": 10, "update": "2016-02-08T21:07:13", "name": "8144-ESCALE BORELY POINTE ROUGE", "address": "ESCALE BORELY POINTE ROUGE - ESCALE BORELY EN DIRECTION DE L'AVENUE POINTE ROUGE", "lon": 5.37599738915791, "status": "OPEN", "stands": 0, "lat": 43.25394372546869}}, {"geometry": {"coordinates": [5.38279581908046, 43.2668438148239], "type": "Point"}, "type": "Feature", "properties": {"bikes": 9, "update": "2016-02-08T21:10:10", "name": "8067-PRADO GABES", "address": "PRADO GABES - AVENUE DU PRADO ANGLE BD DE GABES", "lon": 5.38279581908046, "status": "OPEN", "stands": 6, "lat": 43.2668438148239}}, {"geometry": {"coordinates": [5.349696475467313, 43.284213979400505], "type": "Point"}, "type": "Feature", "properties": {"bikes": 15, "update": "2016-02-08T21:09:30", "name": "7062-88 CORNICHE - KENNEDY", "address": "88 CORNICHE KENNEDY - 88 CORNICHE J.F. KENNEDY", "lon": 5.349696475467313, "status": "OPEN", "stands": 0, "lat": 43.284213979400505}}, {"geometry": {"coordinates": [5.375165446771129, 43.29542125608577], "type": "Point"}, "type": "Feature", "properties": {"bikes": 14, "update": "2016-02-08T21:07:52", "name": "1210-BEAUVAU - CANEBIERE", "address": "BEAUVAU CANEBIERE - RUE BEAUVAU", "lon": 5.375165446771129, "status": "OPEN", "stands": 0, "lat": 43.29542125608577}}, {"geometry": {"coordinates": [5.383285575102103, 43.286046362122946], "type": "Point"}, "type": "Feature", "properties": {"bikes": 4, "update": "2016-02-08T21:14:23", "name": "6023- CASTELLANE", "address": "CASTELLANE - ROND POINT CASTELLANE DEVANT LE CAFE DE PARIS", "lon": 5.383285575102103, "status": "OPEN", "stands": 16, "lat": 43.286046362122946}}, {"geometry": {"coordinates": [5.406000803377506, 43.29626340517055], "type": "Point"}, "type": "Feature", "properties": {"bikes": 0, "update": "2016-02-08T21:14:11", "name": "4293- BLANCARDE", "address": "BLANCARDE - GARE DE LA BLANCARDE", "lon": 5.406000803377506, "status": "OPEN", "stands": 14, "lat": 43.29626340517055}}, {"geometry": {"coordinates": [5.366506599649465, 43.23984252335505], "type": "Point"}, "type": "Feature", "properties": {"bikes": 3, "update": "2016-02-08T21:11:06", "name": "8313- PARC PASTRE", "address": "PARC PASTRE - ANGLE AVENUE DE MONTREDON ET AVENUE D'OUTRE MER", "lon": 5.366506599649465, "status": "OPEN", "stands": 7, "lat": 43.23984252335505}}, {"geometry": {"coordinates": [5.38299269172725, 43.2921244873688], "type": "Point"}, "type": "Feature", "properties": {"bikes": 3, "update": "2016-02-08T21:11:04", "name": "6237-LIEUTAUD JULIEN", "address": "LIEUTAUD JULIEN - FACE AU 20 BOULEVARD THEODORE THURNER", "lon": 5.38299269172725, "status": "OPEN", "stands": 7, "lat": 43.2921244873688}}, {"geometry": {"coordinates": [5.381500046726694, 43.29902793826475], "type": "Point"}, "type": "Feature", "properties": {"bikes": 15, "update": "2016-02-08T21:15:33", "name": "1245-GAMBETTA - LAFAYETTE", "address": "GAMBETTA LAFAYETTE - 6 ALLEES LEON GAMBETTA", "lon": 5.381500046726694, "status": "OPEN", "stands": 0, "lat": 43.29902793826475}}, {"geometry": {"coordinates": [5.373281108125947, 43.26469407213291], "type": "Point"}, "type": "Feature", "properties": {"bikes": 12, "update": "2016-02-08T21:12:26", "name": "8132-PROMENADE POMPIDOU AMIRAL MUSELIER", "address": "PROMENADE POMPIDOU AMIRAL MUSELIER - PROMENADE GEORGES POMPIDOU DEVANT LA PLACE AMIRAL MUSELIER", "lon": 5.373281108125947, "status": "OPEN", "stands": 3, "lat": 43.26469407213291}}, {"geometry": {"coordinates": [5.376413023650641, 43.25505597847173], "type": "Point"}, "type": "Feature", "properties": {"bikes": 17, "update": "2016-02-08T21:16:02", "name": "8145-ESCALE BORELY", "address": "ESCALE BORELY - ANGLE ESCALE BORELY ET AVENUE BONNEVEINE", "lon": 5.376413023650641, "status": "OPEN", "stands": 3, "lat": 43.25505597847173}}, {"geometry": {"coordinates": [5.400635371105712, 43.268405140653144], "type": "Point"}, "type": "Feature", "properties": {"bikes": 13, "update": "2016-02-08T21:13:19", "name": "9219-PUGETTE - ANDRE", "address": "PUGETTE ANDRE - ANGLE AVENUE DU GENERAL ANDRE FACE AU 23 BOULEVARD DE LA PUGETTE", "lon": 5.400635371105712, "status": "OPEN", "stands": 2, "lat": 43.268405140653144}}, {"geometry": {"coordinates": [5.391048744484495, 43.27278734452526], "type": "Point"}, "type": "Feature", "properties": {"bikes": 0, "update": "2016-02-08T21:09:09", "name": "8134-ROND POINT DU PRADO", "address": "ROND POINT DU PRADO - 300 AVENUE DU PRADO", "lon": 5.391048744484495, "status": "OPEN", "stands": 19, "lat": 43.27278734452526}}, {"geometry": {"coordinates": [5.36771555892562, 43.3047137105911], "type": "Point"}, "type": "Feature", "properties": {"bikes": 14, "update": "2016-02-08T21:14:40", "name": "2341- JOLIETTE FORBIN", "address": "JOLIETTE FORBIN - PLACE DE LA JOLIETTE ANGLE RUE DE FORBIN", "lon": 5.36771555892562, "status": "OPEN", "stands": 0, "lat": 43.3047137105911}}, {"geometry": {"coordinates": [5.374505152575336, 43.26178202177259], "type": "Point"}, "type": "Feature", "properties": {"bikes": 13, "update": "2016-02-08T21:06:43", "name": "8131-PROMENADE POMPIDOU DAVID", "address": "PROMENADE POMPIDOU DAVID -  PROMENADE GEORGES POMPIDOU AU NIVEAU DU ROND POINT DE DAVID", "lon": 5.374505152575336, "status": "OPEN", "stands": 2, "lat": 43.26178202177259}}, {"geometry": {"coordinates": [5.379450180172236, 43.28683835122117], "type": "Point"}, "type": "Feature", "properties": {"bikes": 12, "update": "2016-02-08T21:10:58", "name": "6160-153 PARADIS", "address": "153 PARADIS - 153 RUE PARADIS", "lon": 5.379450180172236, "status": "OPEN", "stands": 2, "lat": 43.28683835122117}}, {"geometry": {"coordinates": [5.398630311705657, 43.301185515493664], "type": "Point"}, "type": "Feature", "properties": {"bikes": 2, "update": "2016-02-08T21:07:53", "name": "4111-FOCH FAYOLLE", "address": "FOCH FAYOLLE - ANGLE AVENUE MARECHAL FOCH ET RUE MARECHAL FAYOLLE", "lon": 5.398630311705657, "status": "OPEN", "stands": 17, "lat": 43.301185515493664}}, {"geometry": {"coordinates": [5.37224035119238, 43.30598895681527], "type": "Point"}, "type": "Feature", "properties": {"bikes": 1, "update": "2016-02-08T21:08:40", "name": "2323 -FORBIN PARIS", "address": "FORBIN PARIS - RUE DE FORBIN ANGLE BOULEVARD DE PARIS", "lon": 5.37224035119238, "status": "OPEN", "stands": 12, "lat": 43.30598895681527}}, {"geometry": {"coordinates": [5.39517783172075, 43.25096285100345], "type": "Point"}, "type": "Feature", "properties": {"bikes": 6, "update": "2016-02-08T21:14:35", "name": "9260- MAZARGUES - ALMERAS", "address": "MAZARGUES ALMERAS - ANGLE AVENUE DE MAZARGUES ET IMPASSE ALMERAS", "lon": 5.39517783172075, "status": "OPEN", "stands": 7, "lat": 43.25096285100345}}, {"geometry": {"coordinates": [5.367786407891749, 43.304190155898155], "type": "Point"}, "type": "Feature", "properties": {"bikes": 9, "update": "2016-02-08T21:15:12", "name": "2327- R\u00c9PUBLIQUE PLUMIER", "address": "REPUBLIQUE PLUMIER - RUE DE LA REPUBLIQUE ANGLE RUE PLUMIER", "lon": 5.367786407891749, "status": "OPEN", "stands": 1, "lat": 43.304190155898155}}, {"geometry": {"coordinates": [5.377103061958931, 43.297138004748], "type": "Point"}, "type": "Feature", "properties": {"bikes": 10, "update": "2016-02-08T21:10:32", "name": "1005-CENTRE BOURSE", "address": "CENTRE BOURSE - RUE BIR HAKEIM ENTREE CENTRE BOURSE", "lon": 5.377103061958931, "status": "OPEN", "stands": 3, "lat": 43.297138004748}}, {"geometry": {"coordinates": [5.360224853219125, 43.29224532184672], "type": "Point"}, "type": "Feature", "properties": {"bikes": 1, "update": "2016-02-08T21:12:14", "name": "7146-LIVON VIEUX PORT", "address": "LIVON VIEUX PORT - 36 BOULEVARD CHARLES LIVON", "lon": 5.360224853219125, "status": "OPEN", "stands": 14, "lat": 43.29224532184672}}, {"geometry": {"coordinates": [5.391331392803749, 43.287814455889425], "type": "Point"}, "type": "Feature", "properties": {"bikes": 0, "update": "2016-02-08T21:12:29", "name": "5024-BAILLE PAURIOL", "address": "BAILLE PAURIOL - 114 BOULEVARD BAILLE ANGLE RUE PAURIOL", "lon": 5.391331392803749, "status": "OPEN", "stands": 7, "lat": 43.287814455889425}}, {"geometry": {"coordinates": [5.374638177288532, 43.29336790915692], "type": "Point"}, "type": "Feature", "properties": {"bikes": 10, "update": "2016-02-08T21:09:42", "name": "1006-COURS JEAN BALLARD", "address": "COURS JEAN BALLARD - 5 COURS JEAN BALLARD", "lon": 5.374638177288532, "status": "OPEN", "stands": 0, "lat": 43.29336790915692}}, {"geometry": {"coordinates": [5.384455147739253, 43.275618147775035], "type": "Point"}, "type": "Feature", "properties": {"bikes": 0, "update": "2016-02-08T21:14:24", "name": "8246-PARADIS - LORD DUVEEN", "address": "PARADIS LORD DUVEEN - 395 RUE PARADIS", "lon": 5.384455147739253, "status": "OPEN", "stands": 10, "lat": 43.275618147775035}}, {"geometry": {"coordinates": [5.387431047255536, 43.27974214607358], "type": "Point"}, "type": "Feature", "properties": {"bikes": 11, "update": "2016-02-08T21:07:08", "name": "8053-PRADO - PERIER", "address": "PRADO PERIER - 127 AVENUE DU PRADO", "lon": 5.387431047255536, "status": "OPEN", "stands": 2, "lat": 43.27974214607358}}, {"geometry": {"coordinates": [5.37544360265886, 43.260217853801166], "type": "Point"}, "type": "Feature", "properties": {"bikes": 15, "update": "2016-02-08T21:07:24", "name": "8066-MENDES FRANCE HUVEAUNE", "address": "MENDES FRANCE HUVEAUNE - AVENUE PEIRRE MENDES FRANCE DEVANT L'ENTREE DU PARC BORELY", "lon": 5.37544360265886, "status": "OPEN", "stands": 3, "lat": 43.260217853801166}}, {"geometry": {"coordinates": [5.393973899334583, 43.260699609117914], "type": "Point"}, "type": "Feature", "properties": {"bikes": 15, "update": "2016-02-08T21:10:51", "name": "8261- 318 MAZARGUES", "address": "318 MAZARGUES - FACE AU 318 AVENUE DE MAZARGUES", "lon": 5.393973899334583, "status": "OPEN", "stands": 0, "lat": 43.260699609117914}}, {"geometry": {"coordinates": [5.37602674729877, 43.29494730625887], "type": "Point"}, "type": "Feature", "properties": {"bikes": 8, "update": "2016-02-08T21:11:40", "name": "1004-GENERAL DE GAULLE PARADIS", "address": "GENERAL DE GAULLE PARADIS - PLACE GENERAL DE GAULLE FACE AU 11 RUE PARADIS", "lon": 5.37602674729877, "status": "OPEN", "stands": 0, "lat": 43.29494730625887}}, {"geometry": {"coordinates": [5.372259932395231, 43.29076433240633], "type": "Point"}, "type": "Feature", "properties": {"bikes": 11, "update": "2016-02-08T21:16:14", "name": "6020-PLACE DE LA CORDERIE", "address": "PLACE CORDERIE - AU CENTRE DE LA PLACE CORDERIE", "lon": 5.372259932395231, "status": "OPEN", "stands": 4, "lat": 43.29076433240633}}, {"geometry": {"coordinates": [5.396312199117862, 43.29581102315005], "type": "Point"}, "type": "Feature", "properties": {"bikes": 3, "update": "2016-02-08T21:08:20", "name": "5280-CHAVE CAMAS", "address": "CHAVE CAMAS - BOULEVARD CHAVE ANGLE RUE DU CAMAS", "lon": 5.396312199117862, "status": "OPEN", "stands": 10, "lat": 43.29581102315005}}, {"geometry": {"coordinates": [5.370540756635374, 43.243802055963265], "type": "Point"}, "type": "Feature", "properties": {"bikes": 12, "update": "2016-02-08T21:14:13", "name": "8290- POINTE ROUGE - MONTREDON", "address": "POINTE ROUGE MONTREDON - ANGLE AVENUE ODESSA ET AVENUE MONTREDON", "lon": 5.370540756635374, "status": "OPEN", "stands": 5, "lat": 43.243802055963265}}, {"geometry": {"coordinates": [5.392402358314715, 43.263999455764186], "type": "Point"}, "type": "Feature", "properties": {"bikes": 9, "update": "2016-02-08T21:11:52", "name": "8262-MAZARGUES-BARRAL", "address": "MAZARGUES BARRAL - ANGLE AVENUE DE MAZARGUES ET BOULEVARD BARRAL", "lon": 5.392402358314715, "status": "OPEN", "stands": 3, "lat": 43.263999455764186}}, {"geometry": {"coordinates": [5.378292250179226, 43.304244359587024], "type": "Point"}, "type": "Feature", "properties": {"bikes": 0, "update": "2016-02-08T21:09:51", "name": "1316 -ST CHARLES FACULT\u00c9", "address": "SAINT CHARLES FACULTE - BOULEVARD GUSTAVE DESPLACES ANGLE AVENUE DU GENERAL LECLERC", "lon": 5.378292250179226, "status": "OPEN", "stands": 15, "lat": 43.304244359587024}}, {"geometry": {"coordinates": [5.357823161216201, 43.29198908246378], "type": "Point"}, "type": "Feature", "properties": {"bikes": 3, "update": "2016-02-08T21:16:19", "name": "7025-LIVON PASTEUR", "address": "LIVON PASTEUR - BOULEVARD CHARLES LIVON ANGLE ESPLANADE DU PHARO", "lon": 5.357823161216201, "status": "OPEN", "stands": 17, "lat": 43.29198908246378}}, {"geometry": {"coordinates": [5.389298285180646, 43.30050650960441], "type": "Point"}, "type": "Feature", "properties": {"bikes": 1, "update": "2016-02-08T21:14:46", "name": "2221-91 LIB\u00c9RATION", "address": "91 LIBERATION - 91 BOULEVARD DE LA LIBERATION", "lon": 5.389298285180646, "status": "OPEN", "stands": 9, "lat": 43.30050650960441}}, {"geometry": {"coordinates": [5.372088524255505, 43.267272515671856], "type": "Point"}, "type": "Feature", "properties": {"bikes": 10, "update": "2016-02-08T21:13:36", "name": "8065-PROMENADE POMPIDOU PALM BEACH", "address": "PROMENADE POMPIDOU PALM BEACH - 6 PROMENADE GEORGES POMPIDOU", "lon": 5.372088524255505, "status": "OPEN", "stands": 5, "lat": 43.267272515671856}}, {"geometry": {"coordinates": [5.399877070301781, 43.29570956843267], "type": "Point"}, "type": "Feature", "properties": {"bikes": 0, "update": "2016-02-08T21:08:41", "name": "5060-SAKAKINI CHAVE", "address": "SAKAKINI CHAVE - 236 BOULEVARD CHAVE EN DIRECTION DE SAKAKINI", "lon": 5.399877070301781, "status": "OPEN", "stands": 12, "lat": 43.29570956843267}}, {"geometry": {"coordinates": [5.386273779435491, 43.26954179693142], "type": "Point"}, "type": "Feature", "properties": {"bikes": 0, "update": "2016-02-08T21:10:01", "name": "8255-PRADO - PARADIS", "address": "PRADO PARADIS - 390 AVENUE DU PRADO", "lon": 5.386273779435491, "status": "OPEN", "stands": 10, "lat": 43.26954179693142}}, {"geometry": {"coordinates": [5.397216233775408, 43.298680879912176], "type": "Point"}, "type": "Feature", "properties": {"bikes": 0, "update": "2016-02-08T21:08:11", "name": "4057-PLACE SEBASTOPOL", "address": "PLACE SEBASTOPOL - 20 PLACE SEBASTOPOL", "lon": 5.397216233775408, "status": "OPEN", "stands": 10, "lat": 43.298680879912176}}, {"geometry": {"coordinates": [5.389411648303773, 43.249867874570256], "type": "Point"}, "type": "Feature", "properties": {"bikes": 4, "update": "2016-02-08T21:13:29", "name": "8093-HAMBOURG ROND POINT GUERRE", "address": "HAMBOURG RONT POINT GUERRE - BOULEVARD DE HAMBOURG ANGLE ROND POINT PIERRE GUERRE", "lon": 5.389411648303773, "status": "OPEN", "stands": 7, "lat": 43.249867874570256}}, {"geometry": {"coordinates": [5.350628425025786, 43.28250633472905], "type": "Point"}, "type": "Feature", "properties": {"bikes": 10, "update": "2016-02-08T21:12:44", "name": "7138-CORNICHE  ENDOUME", "address": "CORNICHE ENDOUME - 126 CORNICHE J.F. KENNEDY", "lon": 5.350628425025786, "status": "OPEN", "stands": 5, "lat": 43.28250633472905}}, {"geometry": {"coordinates": [5.393678259953781, 43.305993453766845], "type": "Point"}, "type": "Feature", "properties": {"bikes": 2, "update": "2016-02-08T21:16:03", "name": "4342 - FLAMMARION MONTRICHET", "address": "FLAMMARION MONTRICHET - PLACE LE VERRIER ANGLE BD FLAMMARION ET  BD MONTRICHET", "lon": 5.393678259953781, "status": "OPEN", "stands": 8, "lat": 43.305993453766845}}, {"geometry": {"coordinates": [5.382390401095631, 43.29562159175117], "type": "Point"}, "type": "Feature", "properties": {"bikes": 1, "update": "2016-02-08T21:10:45", "name": "1275- JULIEN - 3 MAGES", "address": "JULIEN 3 MAGES - COURS JULIEN ANGLE RUE DES TROIS MAGES", "lon": 5.382390401095631, "status": "OPEN", "stands": 6, "lat": 43.29562159175117}}, {"geometry": {"coordinates": [5.39109605124139, 43.28292930261343], "type": "Point"}, "type": "Feature", "properties": {"bikes": 3, "update": "2016-02-08T21:14:36", "name": "6187-DELPUECH CORINTHE", "address": "DELPUECH CORINTHE - 29 BOULEVARD DELPUECH", "lon": 5.39109605124139, "status": "OPEN", "stands": 11, "lat": 43.28292930261343}}, {"geometry": {"coordinates": [5.371370384862697, 43.291634709693945], "type": "Point"}, "type": "Feature", "properties": {"bikes": 9, "update": "2016-02-08T21:13:19", "name": "7212-SAINTE - NOTRE DAME", "address": "SAINTE NOTRE DAME - 70 RUE SAINTE ANGLE RUE FORT NOTRE DAME", "lon": 5.371370384862697, "status": "OPEN", "stands": 0, "lat": 43.291634709693945}}, {"geometry": {"coordinates": [5.386729879719248, 43.293880006338135], "type": "Point"}, "type": "Feature", "properties": {"bikes": 0, "update": "2016-02-08T21:15:25", "name": "1226-PLAINE-ST PIERRE", "address": "PLAINE ST PIERRE - RUE SAINT PIERRE ANGLE PLACE JEAN JAURES", "lon": 5.386729879719248, "status": "OPEN", "stands": 17, "lat": 43.293880006338135}}, {"geometry": {"coordinates": [5.359258014511654, 43.290716834278136], "type": "Point"}, "type": "Feature", "properties": {"bikes": 7, "update": "2016-02-08T21:14:43", "name": "7151-PASTEUR", "address": "PASTEUR - 25 AVENUE PASTEUR", "lon": 5.359258014511654, "status": "OPEN", "stands": 9, "lat": 43.290716834278136}}, {"geometry": {"coordinates": [5.397126739923842, 43.24759828978683], "type": "Point"}, "type": "Feature", "properties": {"bikes": 10, "update": "2016-02-08T21:09:38", "name": "9259-LANCIER-MARTHELINE", "address": "LANCIER MARTHELINE - ANGLE CHEMIN DU LANCIER ET AVENUE DE LA  MARTHELINE", "lon": 5.397126739923842, "status": "OPEN", "stands": 5, "lat": 43.24759828978683}}, {"geometry": {"coordinates": [5.39631317835792, 43.28936342586655], "type": "Point"}, "type": "Feature", "properties": {"bikes": 0, "update": "2016-02-08T21:10:59", "name": "5284 - BAILLE-HOPITAL-CONCEPTION", "address": "BAILLE HOPITAL CONCEPTION - BOULEVARD BAILLE FACE A L'ENTREE PRINCIPALE DE L'HOPITAL DE LA CONCEPTION", "lon": 5.39631317835792, "status": "OPEN", "stands": 13, "lat": 43.28936342586655}}, {"geometry": {"coordinates": [5.372302255725486, 43.301805741199246], "type": "Point"}, "type": "Feature", "properties": {"bikes": 1, "update": "2016-02-08T21:10:36", "name": "2240-DAMES - TERRAS", "address": "DAMES TERRAS - BOULEVARD DES DAMES ANGLE RUE DU TERRAS", "lon": 5.372302255725486, "status": "OPEN", "stands": 8, "lat": 43.301805741199246}}, {"geometry": {"coordinates": [5.374740047327954, 43.29924603474944], "type": "Point"}, "type": "Feature", "properties": {"bikes": 11, "update": "2016-02-08T21:14:21", "name": "1302-COLBERT -SAINTE BARBE", "address": "COLBERT SAINTE BARBE - RUE COLBERT ANGLE RUE SAINTE BARBE", "lon": 5.374740047327954, "status": "OPEN", "stands": 0, "lat": 43.29924603474944}}, {"geometry": {"coordinates": [5.355962903211387, 43.28985620147398], "type": "Point"}, "type": "Feature", "properties": {"bikes": 14, "update": "2016-02-08T21:13:17", "name": "7026-CATALANS CORNICHE", "address": "CATALANS CORNICHE - 69 CORNICHE J.F. KENNEDY ANGLE RUE DES CATALANS", "lon": 5.355962903211387, "status": "OPEN", "stands": 1, "lat": 43.28985620147398}}, {"geometry": {"coordinates": [5.3707713851323, 43.2961387765145], "type": "Point"}, "type": "Feature", "properties": {"bikes": 28, "update": "2016-02-08T21:13:30", "name": "1002-HOTEL DE VILLE", "address": "HOTEL DE VILLE - Face au 42 QUAI DU PORT", "lon": 5.3707713851323, "status": "OPEN", "stands": 3, "lat": 43.2961387765145}}, {"geometry": {"coordinates": [5.385593763617925, 43.284775983612235], "type": "Point"}, "type": "Feature", "properties": {"bikes": 16, "update": "2016-02-08T21:11:52", "name": "6176-CANTINI ROUET", "address": "CANTINI ROUET - FACE AU 27 AVENUE JULES CANTINI", "lon": 5.385593763617925, "status": "OPEN", "stands": 8, "lat": 43.284775983612235}}, {"geometry": {"coordinates": [5.369716218117023, 43.30179774806541], "type": "Point"}, "type": "Feature", "properties": {"bikes": 10, "update": "2016-02-08T21:06:21", "name": "2304 - R\u00c9PUBLIQUE MOISSON", "address": "REPUBLIQUE MOISSON - RUE DE LA REPUBLIQUE ANGLE RUE FRANCOIS MOISSON", "lon": 5.369716218117023, "status": "OPEN", "stands": 0, "lat": 43.30179774806541}}, {"geometry": {"coordinates": [5.37693066220596, 43.29620767061392], "type": "Point"}, "type": "Feature", "properties": {"bikes": 8, "update": "2016-02-08T21:06:32", "name": "1191-CANEBIERE-ST FERREOL", "address": "CANEBIERE SAINT FERREOL - ANGLE CANEBIERE SAINT FERREOL", "lon": 5.37693066220596, "status": "OPEN", "stands": 1, "lat": 43.29620767061392}}, {"geometry": {"coordinates": [5.384138435260716, 43.292604598053984], "type": "Point"}, "type": "Feature", "properties": {"bikes": 0, "update": "2016-02-08T21:15:32", "name": "6114-JULIEN BARTHELEMY", "address": "JULIEN BARTHELEMY - 9 RUE 3 FRERES BARTHELEMY", "lon": 5.384138435260716, "status": "OPEN", "stands": 9, "lat": 43.292604598053984}}, {"geometry": {"coordinates": [5.392179383331833, 43.30143187524121], "type": "Point"}, "type": "Feature", "properties": {"bikes": 0, "update": "2016-02-08T21:12:10", "name": "2222-151 LIBERATION", "address": "151 LIBERATION - 151 BOULEVARD DE LA LIBERATION", "lon": 5.392179383331833, "status": "OPEN", "stands": 10, "lat": 43.30143187524121}}, {"geometry": {"coordinates": [5.383955032544848, 43.30236655745069], "type": "Point"}, "type": "Feature", "properties": {"bikes": 9, "update": "2016-02-08T21:14:27", "name": "1299- ST CHARLES VOLTAIRE LIBERT\u00c9", "address": "SAINT CHARLES VOLTAIRE LIBERTE - BOULEVARD VOLTAIRE ANGLE BOULEVARD DE LA LIBERTE", "lon": 5.383955032544848, "status": "OPEN", "stands": 8, "lat": 43.30236655745069}}, {"geometry": {"coordinates": [5.375131220340518, 43.294774773558274], "type": "Point"}, "type": "Feature", "properties": {"bikes": 10, "update": "2016-02-08T21:07:40", "name": "1211-BEAUVAU - SUFFREN", "address": "BEAUVAU SUFFREN - RUE BEAUVAU ANGLE RUE BAILLI DE SUFFREN", "lon": 5.375131220340518, "status": "OPEN", "stands": 0, "lat": 43.294774773558274}}, {"geometry": {"coordinates": [5.36291062831879, 43.2984594666424], "type": "Point"}, "type": "Feature", "properties": {"bikes": 8, "update": "2016-02-08T21:12:24", "name": "2200-MUCEM", "address": "Bd du Littoral, 100 m avant le Mucem, devant l\u2019entr\u00e9e du parking Vieux Port Fort St Jean, direction vieux port", "lon": 5.36291062831879, "status": "OPEN", "stands": 18, "lat": 43.2984594666424}}, {"geometry": {"coordinates": [5.385047448641554, 43.29952097558015], "type": "Point"}, "type": "Feature", "properties": {"bikes": 5, "update": "2016-02-08T21:09:59", "name": "1287- STALINGRAD - R\u00c9FORM\u00c9S", "address": "STALINGRAD REFORMES - SQUARE STALINGRAD", "lon": 5.385047448641554, "status": "OPEN", "stands": 12, "lat": 43.29952097558015}}, {"geometry": {"coordinates": [5.390405906592448, 43.274352269730755], "type": "Point"}, "type": "Feature", "properties": {"bikes": 1, "update": "2016-02-08T21:15:00", "name": "8308-PRADO LATIL", "address": "PRADO LATIL - 247 AVENUE DU PRADO", "lon": 5.390405906592448, "status": "OPEN", "stands": 9, "lat": 43.274352269730755}}, {"geometry": {"coordinates": [5.385552216536626, 43.26869900851042], "type": "Point"}, "type": "Feature", "properties": {"bikes": 2, "update": "2016-02-08T21:13:42", "name": "8202-397 PRADO", "address": "397 PRADO - 397 AVENUE DU PRADO", "lon": 5.385552216536626, "status": "OPEN", "stands": 10, "lat": 43.26869900851042}}, {"geometry": {"coordinates": [5.39024943158741, 43.30958891338201], "type": "Point"}, "type": "Feature", "properties": {"bikes": 2, "update": "2016-02-08T21:09:24", "name": "3321 - BELLE DE MAI FRICHE", "address": "BELLE DE MAI FRICHE - ANGLE RUE GUIBAL ET RUE JOBIN", "lon": 5.39024943158741, "status": "OPEN", "stands": 13, "lat": 43.30958891338201}}, {"geometry": {"coordinates": [5.381324, 43.290022], "type": "Point"}, "type": "Feature", "properties": {"bikes": 4, "update": "2016-02-08T21:10:19", "name": "06253 - ROME SYLVABELLE", "address": "angle rue de rome rue sylvabelle", "lon": 5.381324, "status": "OPEN", "stands": 7, "lat": 43.290022}}, {"geometry": {"coordinates": [5.375548341850035, 43.290329770206334], "type": "Point"}, "type": "Feature", "properties": {"bikes": 1, "update": "2016-02-08T21:12:09", "name": "6154-PIERRE PUGET BRETEUIL", "address": "PIERRE PUGET BRETEUIL - COURS PIERRE PUGET ANGLE RUE BRETEUIL", "lon": 5.375548341850035, "status": "OPEN", "stands": 7, "lat": 43.290329770206334}}, {"geometry": {"coordinates": [5.381132215559973, 43.29789631329341], "type": "Point"}, "type": "Feature", "properties": {"bikes": 9, "update": "2016-02-08T21:10:02", "name": "1264 - CANEBI\u00c8RE DUGOMMIER", "address": "CANEBIERE DUGOMMIER - LA CANEBIERE ANGLE BOULEVARD DUGOMMIER", "lon": 5.381132215559973, "status": "OPEN", "stands": 1, "lat": 43.29789631329341}}, {"geometry": {"coordinates": [5.392112767343369, 43.284456097132846], "type": "Point"}, "type": "Feature", "properties": {"bikes": 2, "update": "2016-02-08T21:16:05", "name": "6206-TOULON - MENPENTI", "address": "TOULON MENPENTI - ANGLE AVENUE DE TOULON ET RUE MENPENTI", "lon": 5.392112767343369, "status": "OPEN", "stands": 14, "lat": 43.284456097132846}}, {"geometry": {"coordinates": [5.390871390171412, 43.295363145406], "type": "Point"}, "type": "Feature", "properties": {"bikes": 5, "update": "2016-02-08T21:15:18", "name": "5104-CHAVE EUG\u00c8NE PIERRE", "address": "CHAVE EUGENE PIERRE - BOULEVARD CHAVE ANGLE BOULEVARD EUGENE PIERRE", "lon": 5.390871390171412, "status": "OPEN", "stands": 5, "lat": 43.295363145406}}, {"geometry": {"coordinates": [5.39960982405674, 43.2902407800378], "type": "Point"}, "type": "Feature", "properties": {"bikes": 0, "update": "2016-02-08T21:08:08", "name": "5106-JEAN MOULIN BAILLE", "address": "JEAN MOULIN BAILLE - BOULEVARD JEAN  MOULIN ANGLE BOULEVARD BAILLE", "lon": 5.39960982405674, "status": "OPEN", "stands": 15, "lat": 43.2902407800378}}, {"geometry": {"coordinates": [5.388799115293999, 43.29899195650368], "type": "Point"}, "type": "Feature", "properties": {"bikes": 0, "update": "2016-02-08T21:07:49", "name": "5220-ROOSEVELT - ORAN", "address": "ROOSEVELT ORAN - 53 COURS FRANKLIN ROOSEVELT ANGLE RUE D'ORAN", "lon": 5.388799115293999, "status": "OPEN", "stands": 10, "lat": 43.29899195650368}}, {"geometry": {"coordinates": [5.388799649683594, 43.27654702249427], "type": "Point"}, "type": "Feature", "properties": {"bikes": 10, "update": "2016-02-08T21:13:43", "name": "8309- PRADO DUVEEN", "address": "PRADO DUVEEN - 72 AVENUE DU PRADO", "lon": 5.388799649683594, "status": "OPEN", "stands": 8, "lat": 43.27654702249427}}, {"geometry": {"coordinates": [5.389387542314263, 43.269318556371154], "type": "Point"}, "type": "Feature", "properties": {"bikes": 3, "update": "2016-02-08T21:14:16", "name": "8265- N\u00c9GRESKO - PAULET", "address": "NEGRESKO PAULET - FACE AU 42 RUE NEGRESKO", "lon": 5.389387542314263, "status": "OPEN", "stands": 12, "lat": 43.269318556371154}}, {"geometry": {"coordinates": [5.366730359523051, 43.30331167287617], "type": "Point"}, "type": "Feature", "properties": {"bikes": 13, "update": "2016-02-08T21:10:06", "name": "2032- DAMES  SCHUMANN", "address": "DAMES SCHUMANN - 96 BOULEVARD DES DAMES", "lon": 5.366730359523051, "status": "OPEN", "stands": 0, "lat": 43.30331167287617}}, {"geometry": {"coordinates": [5.36370990786361, 43.28946760889984], "type": "Point"}, "type": "Feature", "properties": {"bikes": 4, "update": "2016-02-08T21:11:40", "name": "7153-CORSE ST MAURICE", "address": "CORSE SAINT MAURICE - 28 AVENUE DE LA CORSE ANGLE RAMPE SAINT MAURICE", "lon": 5.36370990786361, "status": "OPEN", "stands": 6, "lat": 43.28946760889984}}, {"geometry": {"coordinates": [5.374447484757423, 43.24789994774334], "type": "Point"}, "type": "Feature", "properties": {"bikes": 18, "update": "2016-02-08T21:13:50", "name": "8078-VIEILLE CHAPELLE", "address": "VIEILLE CHAPELLE - 35 AVENUE DE LA POINTE ROUGE", "lon": 5.374447484757423, "status": "OPEN", "stands": 1, "lat": 43.24789994774334}}, {"geometry": {"coordinates": [5.385996090720193, 43.29582518327951], "type": "Point"}, "type": "Feature", "properties": {"bikes": 0, "update": "2016-02-08T21:09:43", "name": "1224-PLAINE - BIBLIOTHEQUE", "address": "PLAINE BIBLIOTHEQUE - 45 RUE DE LA BIBLIOTHEQUE", "lon": 5.385996090720193, "status": "OPEN", "stands": 16, "lat": 43.29582518327951}}, {"geometry": {"coordinates": [5.401127142110414, 43.29952274790985], "type": "Point"}, "type": "Feature", "properties": {"bikes": 1, "update": "2016-02-08T21:10:51", "name": "4022-SAKAKINI FOCH", "address": "SAKAKINI FOCH - BOULAVARD SAKAKINI ANGLE AVENUE MARECHAL FOCH", "lon": 5.401127142110414, "status": "OPEN", "stands": 10, "lat": 43.29952274790985}}, {"geometry": {"coordinates": [5.373546945382951, 43.291357465205536], "type": "Point"}, "type": "Feature", "properties": {"bikes": 7, "update": "2016-02-08T21:15:41", "name": "1213-GRIGNAN - MARCELLE PAUL", "address": "GRIGNAN MARCELLE PAUL - RUE GRIGNAN ANGLE RUE DE LA PAIX MARCELLE PAUL", "lon": 5.373546945382951, "status": "OPEN", "stands": 2, "lat": 43.291357465205536}}]}