{"features": [{"properties": {"stands": 20, "address": "MAZARGUES - ROND POINT DE MAZARGUES (OBELISQUE)", "bikes": 0, "lon": 5.403244616491982, "status": "OPEN", "update": "2015-12-21T11:41:47", "name": "9087-MAZARGUES", "lat": 43.250903869637334}, "type": "Feature", "geometry": {"type": "Point", "coordinates": [5.403244616491982, 43.250903869637334]}}, {"properties": {"stands": 17, "address": "SAINT CHARLES MARSEILLAISES - PLACE DES MARSEILLAISES ANGLE RUE PHILIPPE DE GIRARD", "bikes": 2, "lon": 5.379895702048497, "status": "OPEN", "update": "2015-12-21T11:38:17", "name": "1301- ST CHARLES MARSEILLAISES", "lat": 43.301510278747365}, "type": "Feature", "geometry": {"type": "Point", "coordinates": [5.379895702048497, 43.301510278747365]}}, {"properties": {"stands": 1, "address": "ROSTAND PREFECTURE - 6 RUE EDMOND ROSTAND ANGLE RUE SYLVABELLE", "bikes": 14, "lon": 5.379650236474981, "status": "OPEN", "update": "2015-12-21T11:44:28", "name": "6217-ROSTAND - PREFECTURE", "lat": 43.2896832563691}, "type": "Feature", "geometry": {"type": "Point", "coordinates": [5.379650236474981, 43.2896832563691]}}, {"properties": {"stands": 0, "address": "REPUBLIQUE CATHALA - RUE DE LA REPUBLIQUE ANGLE RUE JEAN MARC CATHALA", "bikes": 9, "lon": 5.370488134608402, "status": "OPEN", "update": "2015-12-21T11:37:34", "name": "2184-REPUBLIQUE-CATHALA", "lat": 43.30056201196652}, "type": "Feature", "geometry": {"type": "Point", "coordinates": [5.370488134608402, 43.30056201196652]}}, {"properties": {"stands": 2, "address": "SOUS A55 AU BOUT DES DOCKS FACE AU 22 QUAI DU LAZARET 13002", "bikes": 20, "lon": 5.36651, "status": "OPEN", "update": "2015-12-21T11:43:39", "name": "02279 - DOCKS LES TERRASSES DU PORT", "lat": 43.308731}, "type": "Feature", "geometry": {"type": "Point", "coordinates": [5.36651, 43.308731]}}, {"properties": {"stands": 6, "address": "FLAMMARION NATIONAL - BOULEVARD CAMILLE FLAMMARION ANGLE BOULEVARD NATIONAL", "bikes": 1, "lon": 5.386356771062651, "status": "OPEN", "update": "2015-12-21T11:40:11", "name": "1344 - FLAMMARION NATIONAL", "lat": 43.30353946127941}, "type": "Feature", "geometry": {"type": "Point", "coordinates": [5.386356771062651, 43.30353946127941]}}, {"properties": {"stands": 6, "address": "JOLIETTE DUNKERQUE - PLACE DE LA JOLIETTE ANGLE BOULEVARD DUNKERQUE", "bikes": 8, "lon": 5.36697414687028, "status": "OPEN", "update": "2015-12-21T11:44:00", "name": "2272- JOLIETTE-DUNKERQUE", "lat": 43.3051302607768}, "type": "Feature", "geometry": {"type": "Point", "coordinates": [5.36697414687028, 43.3051302607768]}}, {"properties": {"stands": 4, "address": "PRADO BORELY - 579 AVENUE DU PRADO", "bikes": 5, "lon": 5.375795816171145, "status": "OPEN", "update": "2015-12-21T11:44:53", "name": "8068-PRADO BORELY", "lat": 43.262455920908494}, "type": "Feature", "geometry": {"type": "Point", "coordinates": [5.375795816171145, 43.262455920908494]}}, {"properties": {"stands": 4, "address": "LIBERATION CHAPE ESPERANDIEU - BOULAVARD LIBERATION ANGLE RUE CHAPE", "bikes": 8, "lon": 5.394684906357751, "status": "OPEN", "update": "2015-12-21T11:40:04", "name": "4238-LIBERATION-CHAPE-ESPERANDIEU", "lat": 43.302008143688155}, "type": "Feature", "geometry": {"type": "Point", "coordinates": [5.394684906357751, 43.302008143688155]}}, {"properties": {"stands": 1, "address": "PLACE AUX HUILES - COURS ESTIENNE D'ORVES ANGLE RUE SAINT SAENS", "bikes": 9, "lon": 5.371867606488009, "status": "OPEN", "update": "2015-12-21T11:40:21", "name": "1003-PLACE AUX HUILES", "lat": 43.29312239728256}, "type": "Feature", "geometry": {"type": "Point", "coordinates": [5.371867606488009, 43.29312239728256]}}, {"properties": {"stands": 0, "address": "SAINTE LULLI - 17 RUE SAINTE", "bikes": 15, "lon": 5.375905974276691, "status": "OPEN", "update": "2015-12-21T11:43:20", "name": "1216-SAINTE - LULLI", "lat": 43.292666663006464}, "type": "Feature", "geometry": {"type": "Point", "coordinates": [5.375905974276691, 43.292666663006464]}}, {"properties": {"stands": 13, "address": "ENDOUME CORDERIE - 41 RUE D'ENDOUME", "bikes": 0, "lon": 5.366479730277853, "status": "OPEN", "update": "2015-12-21T11:40:32", "name": "7215-ENDOUME - CORDERIE", "lat": 43.28923675488644}, "type": "Feature", "geometry": {"type": "Point", "coordinates": [5.366479730277853, 43.28923675488644]}}, {"properties": {"stands": 1, "address": "QUAI DU PORT - 148 QUAI DU PORT", "bikes": 14, "lon": 5.36552550703358, "status": "OPEN", "update": "2015-12-21T11:38:59", "name": "2179-QUAI DU PORT", "lat": 43.295414354264665}, "type": "Feature", "geometry": {"type": "Point", "coordinates": [5.36552550703358, 43.295414354264665]}}, {"properties": {"stands": 12, "address": "SCHLOESSING TEISSERE - ANGLE BOULEVARD SCHLOESSING ET RUE RAYMOND TEISSERE", "bikes": 4, "lon": 5.402740962235228, "status": "OPEN", "update": "2015-12-21T11:45:16", "name": "9085-SCHLOESING TEISSERE", "lat": 43.2693522531282}, "type": "Feature", "geometry": {"type": "Point", "coordinates": [5.402740962235228, 43.2693522531282]}}, {"properties": {"stands": 0, "address": "PAUL PEYTRAL - 35 BOULEVARD PAUL PEYTRAL", "bikes": 9, "lon": 5.379124641857261, "status": "OPEN", "update": "2015-12-21T11:45:18", "name": "6100-PAUL PEYTRAL", "lat": 43.289985879061746}, "type": "Feature", "geometry": {"type": "Point", "coordinates": [5.379124641857261, 43.289985879061746]}}, {"properties": {"stands": 19, "address": "391 MICHELET - 391 BOULEVARD MICHELET", "bikes": 0, "lon": 5.401873594694653, "status": "OPEN", "update": "2015-12-21T11:40:31", "name": "8149-391 MICHELET", "lat": 43.25402727813068}, "type": "Feature", "geometry": {"type": "Point", "coordinates": [5.401873594694653, 43.25402727813068]}}, {"properties": {"stands": 2, "address": "TEISSEIRE ROUBAUD - ANGLE RUE RAYMOND TEISSEIRE ET RUE MAGUY ROUBAUD", "bikes": 8, "lon": 5.399686062414487, "status": "OPEN", "update": "2015-12-21T11:39:35", "name": "9207- TEISSEIRE - ROUBAUD", "lat": 43.27252367086013}, "type": "Feature", "geometry": {"type": "Point", "coordinates": [5.399686062414487, 43.27252367086013]}}, {"properties": {"stands": 4, "address": "SALVATOR GONDARD - 7 BOULEVARD LOUIS SALVATOR ANGLE RUE PAUL GONDARD", "bikes": 1, "lon": 5.38170871131876, "status": "OPEN", "update": "2015-12-21T11:44:48", "name": "6209-SALVATOR - GONDARD", "lat": 43.2911267222553}, "type": "Feature", "geometry": {"type": "Point", "coordinates": [5.38170871131876, 43.2911267222553]}}, {"properties": {"stands": 14, "address": "ROME ITALIE BERLIOZ - FACE AU 10 RUE BERLIOZ", "bikes": 0, "lon": 5.383105742132375, "status": "OPEN", "update": "2015-12-21T11:44:52", "name": "6254-ROME - BERLIOZ - ITALIE", "lat": 43.28892000857008}, "type": "Feature", "geometry": {"type": "Point", "coordinates": [5.383105742132375, 43.28892000857008]}}, {"properties": {"stands": 4, "address": "FLAMMARION GROBET - BOULEVARD CAMILLE FLAMMARION ANGLE RUE LOUIS GROBET", "bikes": 11, "lon": 5.3901483781149, "status": "OPEN", "update": "2015-12-21T11:45:03", "name": "1343 - FLAMMARION GROBET", "lat": 43.304681870508325}, "type": "Feature", "geometry": {"type": "Point", "coordinates": [5.3901483781149, 43.304681870508325]}}, {"properties": {"stands": 15, "address": "LODI VILLAGE - FACE AU 89 RUE DE LODI", "bikes": 0, "lon": 5.387779642713593, "status": "OPEN", "update": "2015-12-21T11:45:03", "name": "6113-LODI VILLAGE", "lat": 43.2886166717576}, "type": "Feature", "geometry": {"type": "Point", "coordinates": [5.387779642713593, 43.2886166717576]}}, {"properties": {"stands": 12, "address": "NATIONAL LONGCHAMP - 1 BD NATIONAL ANGLE LONGCHAMP", "bikes": 3, "lon": 5.387773261785004, "status": "OPEN", "update": "2015-12-21T11:43:42", "name": "1130- NATIONAL LONGCHAMP", "lat": 43.30123319837804}, "type": "Feature", "geometry": {"type": "Point", "coordinates": [5.387773261785004, 43.30123319837804]}}, {"properties": {"stands": 12, "address": "CORNICHE RAPATRIES - CORNICHE J.F. KENNEDY FACE AU MEMORIAL DES RAPATRIES EN DIRECTION DU VIEUX PORT", "bikes": 3, "lon": 5.365239906973955, "status": "OPEN", "update": "2015-12-21T11:43:18", "name": "7142-CORNICHE RAPATRIES", "lat": 43.270172262619184}, "type": "Feature", "geometry": {"type": "Point", "coordinates": [5.365239906973955, 43.270172262619184]}}, {"properties": {"stands": 4, "address": "MICHELET HUVEAUNE - ANGLE BOULEVARD MICHELET ET RUE JACQUES PICON", "bikes": 11, "lon": 5.393967016838425, "status": "OPEN", "update": "2015-12-21T11:37:01", "name": "8147 - MICHELET HUVEAUNE", "lat": 43.26796549967643}, "type": "Feature", "geometry": {"type": "Point", "coordinates": [5.393967016838425, 43.26796549967643]}}, {"properties": {"stands": 8, "address": "BELLE DE MAI CADENAT - PLACE BERNARD CADENAT", "bikes": 7, "lon": 5.387375678428276, "status": "OPEN", "update": "2015-12-21T11:39:56", "name": "3320 - BELLE DE MAI CADENAT", "lat": 43.31181964585524}, "type": "Feature", "geometry": {"type": "Point", "coordinates": [5.387375678428276, 43.31181964585524]}}, {"properties": {"stands": 16, "address": "BAILLE FRIEDLAND - BOULEVARD BAILLE ANGLE RUE DE FRIEDLAND", "bikes": 1, "lon": 5.38678589001619, "status": "OPEN", "update": "2015-12-21T11:39:23", "name": "6177-BAILLE FRIEDLAND", "lat": 43.2865946021474}, "type": "Feature", "geometry": {"type": "Point", "coordinates": [5.38678589001619, 43.2865946021474]}}, {"properties": {"stands": 3, "address": "Parvis entr\u00e9e parc Chanot", "bikes": 16, "lon": 5.39166970262158, "status": "OPEN", "update": "2015-12-21T11:35:19", "name": "8307-PRADO MICHELET", "lat": 43.2722414899425}, "type": "Feature", "geometry": {"type": "Point", "coordinates": [5.39166970262158, 43.2722414899425]}}, {"properties": {"stands": 15, "address": "RUE GEORGES - 28 RUE GEORGES", "bikes": 0, "lon": 5.397731278573822, "status": "OPEN", "update": "2015-12-21T11:40:17", "name": "5103-RUE GEORGES", "lat": 43.29748821146523}, "type": "Feature", "geometry": {"type": "Point", "coordinates": [5.397731278573822, 43.29748821146523]}}, {"properties": {"stands": 10, "address": "ROOSEVELT REFORMES - 7 COURS FRANKLIN ROOSEVELT", "bikes": 0, "lon": 5.38661231791721, "status": "OPEN", "update": "2015-12-21T11:43:26", "name": "1230-ROOSEVELT - REFORMES", "lat": 43.29908095432929}, "type": "Feature", "geometry": {"type": "Point", "coordinates": [5.38661231791721, 43.29908095432929]}}, {"properties": {"stands": 4, "address": "SAINT CHARLES LECLERC ZATTARA - AVENUE DU GENERAL LECLERC ANGLE RUE ANTOINE ZATTARA", "bikes": 8, "lon": 5.377690136115547, "status": "OPEN", "update": "2015-12-21T11:43:27", "name": "1345 - SAINT CHARLES LECLERC ZATTARA", "lat": 43.30380276644441}, "type": "Feature", "geometry": {"type": "Point", "coordinates": [5.377690136115547, 43.30380276644441]}}, {"properties": {"stands": 2, "address": "RABATAU TEISSEIRE - ANGLE BOULEVARD RABATAU ET FACE AU 68 RUE RAYMOND TEISSEIRE", "bikes": 9, "lon": 5.396409806138883, "status": "OPEN", "update": "2015-12-21T11:36:23", "name": "8257-RABATAU - TEISSEIRE", "lat": 43.27524269246836}, "type": "Feature", "geometry": {"type": "Point", "coordinates": [5.396409806138883, 43.27524269246836]}}, {"properties": {"stands": 1, "address": "REPUBLIQUE COUTELLERIE - RUE DE LA REPUBLIQUE ANGLE RUE DE LA COUTELLERIE", "bikes": 7, "lon": 5.373860886192452, "status": "OPEN", "update": "2015-12-21T11:40:43", "name": "1346- REPUBLIQUE COUTELLERIE", "lat": 43.296824934966864}, "type": "Feature", "geometry": {"type": "Point", "coordinates": [5.373860886192452, 43.296824934966864]}}, {"properties": {"stands": 0, "address": "ST FERREOL DAVSO - RUE FRANCIS DAVSO ANGLE RUE SAINT FERREOL", "bikes": 16, "lon": 5.378423799723321, "status": "OPEN", "update": "2015-12-21T11:43:43", "name": "1297- ST F\u00c9RR\u00c9OL DAVSO", "lat": 43.293485736186526}, "type": "Feature", "geometry": {"type": "Point", "coordinates": [5.378423799723321, 43.293485736186526]}}, {"properties": {"stands": 8, "address": "MICHELET LUCE - ANGLE BOULEVARD MICHELET ET BOULEVARD LUCE", "bikes": 6, "lon": 5.398913930872658, "status": "OPEN", "update": "2015-12-21T11:38:32", "name": "9074-MICHELET LUCE", "lat": 43.25850879475187}, "type": "Feature", "geometry": {"type": "Point", "coordinates": [5.398913930872658, 43.25850879475187]}}, {"properties": {"stands": 14, "address": "LA PLAINE SUD - RUE DES TROIS MAGES ANGLE PLACE JEAN JAURES", "bikes": 0, "lon": 5.38545312564012, "status": "OPEN", "update": "2015-12-21T11:39:46", "name": "1228-LA PLAINE SUD", "lat": 43.29441078214159}, "type": "Feature", "geometry": {"type": "Point", "coordinates": [5.38545312564012, 43.29441078214159]}}, {"properties": {"stands": 13, "address": "BAILLE CONCEPTION  - 145 BOULEVARD BAILLE", "bikes": 0, "lon": 5.39403885378465, "status": "OPEN", "update": "2015-12-21T11:37:20", "name": "5107-BAILLE CONCEPTION", "lat": 43.28872669088929}, "type": "Feature", "geometry": {"type": "Point", "coordinates": [5.39403885378465, 43.28872669088929]}}, {"properties": {"stands": 2, "address": "RPUBLIQUE DAMES - 68 BOULEVARD DES DAMES", "bikes": 3, "lon": 5.369497428189588, "status": "OPEN", "update": "2015-12-21T11:44:00", "name": "2030-REPUBLIQUE DAMES", "lat": 43.30255028371949}, "type": "Feature", "geometry": {"type": "Point", "coordinates": [5.369497428189588, 43.30255028371949]}}, {"properties": {"stands": 10, "address": "SAKAKINI SAINT PIERRE - BOULEVARD SAKAKINI ANGLE RUE SAINT PIERRE", "bikes": 0, "lon": 5.401285286456447, "status": "OPEN", "update": "2015-12-21T11:36:29", "name": "5058 -SAKAKINI - SAINT PIERRE", "lat": 43.292800863545835}, "type": "Feature", "geometry": {"type": "Point", "coordinates": [5.401285286456447, 43.292800863545835]}}, {"properties": {"stands": 8, "address": "2 RUE CAPITAINE DESSEMOND", "bikes": 6, "lon": 5.3586207351308, "status": "OPEN", "update": "2015-12-21T11:41:13", "name": "7027-PLACE DU 4 SEPTEMBRE", "lat": 43.2884327278463}, "type": "Feature", "geometry": {"type": "Point", "coordinates": [5.3586207351308, 43.2884327278463]}}, {"properties": {"stands": 14, "address": "ROUET - 48 RUE DU ROUET", "bikes": 1, "lon": 5.386461522334788, "status": "OPEN", "update": "2015-12-21T11:36:06", "name": "6208-ROUET", "lat": 43.28350144850817}, "type": "Feature", "geometry": {"type": "Point", "coordinates": [5.386461522334788, 43.28350144850817]}}, {"properties": {"stands": 8, "address": "GRAND RUE - FACE AU 35 GRAND'RUE", "bikes": 10, "lon": 5.370835093727862, "status": "OPEN", "update": "2015-12-21T11:41:02", "name": "2012-GRAND RUE", "lat": 43.29780955608182}, "type": "Feature", "geometry": {"type": "Point", "coordinates": [5.370835093727862, 43.29780955608182]}}, {"properties": {"stands": 2, "address": "CANEBIERE REINE ELISABETH - CANEBIERE ANGLE REINE ELISABETH", "bikes": 12, "lon": 5.375339514183368, "status": "OPEN", "update": "2015-12-21T11:38:48", "name": "1001 - CANEBIERE REINE ELISABETH", "lat": 43.295686109850145}, "type": "Feature", "geometry": {"type": "Point", "coordinates": [5.375339514183368, 43.295686109850145]}}, {"properties": {"stands": 1, "address": "ESCALE BORELY POINTE ROUGE - ESCALE BORELY EN DIRECTION DE L'AVENUE POINTE ROUGE", "bikes": 9, "lon": 5.37599738915791, "status": "OPEN", "update": "2015-12-21T11:45:00", "name": "8144-ESCALE BORELY POINTE ROUGE", "lat": 43.25394372546869}, "type": "Feature", "geometry": {"type": "Point", "coordinates": [5.37599738915791, 43.25394372546869]}}, {"properties": {"stands": 2, "address": "PRADO GABES - AVENUE DU PRADO ANGLE BD DE GABES", "bikes": 13, "lon": 5.38279581908046, "status": "OPEN", "update": "2015-12-21T11:42:05", "name": "8067-PRADO GABES", "lat": 43.2668438148239}, "type": "Feature", "geometry": {"type": "Point", "coordinates": [5.38279581908046, 43.2668438148239]}}, {"properties": {"stands": 5, "address": "88 CORNICHE KENNEDY - 88 CORNICHE J.F. KENNEDY", "bikes": 9, "lon": 5.349696475467313, "status": "OPEN", "update": "2015-12-21T11:42:33", "name": "7062-88 CORNICHE - KENNEDY", "lat": 43.284213979400505}, "type": "Feature", "geometry": {"type": "Point", "coordinates": [5.349696475467313, 43.284213979400505]}}, {"properties": {"stands": 7, "address": "BEAUVAU CANEBIERE - RUE BEAUVAU", "bikes": 8, "lon": 5.375165446771129, "status": "OPEN", "update": "2015-12-21T11:42:20", "name": "1210-BEAUVAU - CANEBIERE", "lat": 43.29542125608577}, "type": "Feature", "geometry": {"type": "Point", "coordinates": [5.375165446771129, 43.29542125608577]}}, {"properties": {"stands": 15, "address": "CASTELLANE - ROND POINT CASTELLANE DEVANT LE CAFE DE PARIS", "bikes": 4, "lon": 5.383285575102103, "status": "OPEN", "update": "2015-12-21T11:42:23", "name": "6023- CASTELLANE", "lat": 43.286046362122946}, "type": "Feature", "geometry": {"type": "Point", "coordinates": [5.383285575102103, 43.286046362122946]}}, {"properties": {"stands": 3, "address": "BLANCARDE - GARE DE LA BLANCARDE", "bikes": 11, "lon": 5.406000803377506, "status": "OPEN", "update": "2015-12-21T11:36:38", "name": "4293- BLANCARDE", "lat": 43.29626340517055}, "type": "Feature", "geometry": {"type": "Point", "coordinates": [5.406000803377506, 43.29626340517055]}}, {"properties": {"stands": 5, "address": "PARC PASTRE - ANGLE AVENUE DE MONTREDON ET AVENUE D'OUTRE MER", "bikes": 5, "lon": 5.366506599649465, "status": "OPEN", "update": "2015-12-21T11:44:58", "name": "8313- PARC PASTRE", "lat": 43.23984252335505}, "type": "Feature", "geometry": {"type": "Point", "coordinates": [5.366506599649465, 43.23984252335505]}}, {"properties": {"stands": 10, "address": "LIEUTAUD JULIEN - FACE AU 20 BOULEVARD THEODORE THURNER", "bikes": 0, "lon": 5.38299269172725, "status": "OPEN", "update": "2015-12-21T11:40:48", "name": "6237-LIEUTAUD JULIEN", "lat": 43.2921244873688}, "type": "Feature", "geometry": {"type": "Point", "coordinates": [5.38299269172725, 43.2921244873688]}}, {"properties": {"stands": 14, "address": "GAMBETTA LAFAYETTE - 6 ALLEES LEON GAMBETTA", "bikes": 1, "lon": 5.381500046726694, "status": "OPEN", "update": "2015-12-21T11:38:35", "name": "1245-GAMBETTA - LAFAYETTE", "lat": 43.29902793826475}, "type": "Feature", "geometry": {"type": "Point", "coordinates": [5.381500046726694, 43.29902793826475]}}, {"properties": {"stands": 13, "address": "PROMENADE POMPIDOU AMIRAL MUSELIER - PROMENADE GEORGES POMPIDOU DEVANT LA PLACE AMIRAL MUSELIER", "bikes": 2, "lon": 5.373281108125947, "status": "OPEN", "update": "2015-12-21T11:41:51", "name": "8132-PROMENADE POMPIDOU AMIRAL MUSELIER", "lat": 43.26469407213291}, "type": "Feature", "geometry": {"type": "Point", "coordinates": [5.373281108125947, 43.26469407213291]}}, {"properties": {"stands": 1, "address": "ESCALE BORELY - ANGLE ESCALE BORELY ET AVENUE BONNEVEINE", "bikes": 19, "lon": 5.376413023650641, "status": "OPEN", "update": "2015-12-21T11:40:32", "name": "8145-ESCALE BORELY", "lat": 43.25505597847173}, "type": "Feature", "geometry": {"type": "Point", "coordinates": [5.376413023650641, 43.25505597847173]}}, {"properties": {"stands": 0, "address": "PUGETTE ANDRE - ANGLE AVENUE DU GENERAL ANDRE FACE AU 23 BOULEVARD DE LA PUGETTE", "bikes": 10, "lon": 5.400635371105712, "status": "OPEN", "update": "2015-12-21T11:40:01", "name": "9219-PUGETTE - ANDRE", "lat": 43.268405140653144}, "type": "Feature", "geometry": {"type": "Point", "coordinates": [5.400635371105712, 43.268405140653144]}}, {"properties": {"stands": 0, "address": "ROND POINT DU PRADO - 300 AVENUE DU PRADO", "bikes": 20, "lon": 5.391048744484495, "status": "OPEN", "update": "2015-12-21T11:43:02", "name": "8134-ROND POINT DU PRADO", "lat": 43.27278734452526}, "type": "Feature", "geometry": {"type": "Point", "coordinates": [5.391048744484495, 43.27278734452526]}}, {"properties": {"stands": 7, "address": "JOLIETTE FORBIN - PLACE DE LA JOLIETTE ANGLE RUE DE FORBIN", "bikes": 7, "lon": 5.36771555892562, "status": "OPEN", "update": "2015-12-21T11:37:51", "name": "2341- JOLIETTE FORBIN", "lat": 43.3047137105911}, "type": "Feature", "geometry": {"type": "Point", "coordinates": [5.36771555892562, 43.3047137105911]}}, {"properties": {"stands": 6, "address": "PROMENADE POMPIDOU DAVID -  PROMENADE GEORGES POMPIDOU AU NIVEAU DU ROND POINT DE DAVID", "bikes": 9, "lon": 5.374505152575336, "status": "OPEN", "update": "2015-12-21T11:45:00", "name": "8131-PROMENADE POMPIDOU DAVID", "lat": 43.26178202177259}, "type": "Feature", "geometry": {"type": "Point", "coordinates": [5.374505152575336, 43.26178202177259]}}, {"properties": {"stands": 13, "address": "153 PARADIS - 153 RUE PARADIS", "bikes": 1, "lon": 5.379450180172236, "status": "OPEN", "update": "2015-12-21T11:38:39", "name": "6160-153 PARADIS", "lat": 43.28683835122117}, "type": "Feature", "geometry": {"type": "Point", "coordinates": [5.379450180172236, 43.28683835122117]}}, {"properties": {"stands": 19, "address": "FOCH FAYOLLE - ANGLE AVENUE MARECHAL FOCH ET RUE MARECHAL FAYOLLE", "bikes": 0, "lon": 5.398630311705657, "status": "OPEN", "update": "2015-12-21T11:41:33", "name": "4111-FOCH FAYOLLE", "lat": 43.301185515493664}, "type": "Feature", "geometry": {"type": "Point", "coordinates": [5.398630311705657, 43.301185515493664]}}, {"properties": {"stands": 2, "address": "FORBIN PARIS - RUE DE FORBIN ANGLE BOULEVARD DE PARIS", "bikes": 11, "lon": 5.37224035119238, "status": "OPEN", "update": "2015-12-21T11:38:28", "name": "2323 -FORBIN PARIS", "lat": 43.30598895681527}, "type": "Feature", "geometry": {"type": "Point", "coordinates": [5.37224035119238, 43.30598895681527]}}, {"properties": {"stands": 12, "address": "MAZARGUES ALMERAS - ANGLE AVENUE DE MAZARGUES ET IMPASSE ALMERAS", "bikes": 1, "lon": 5.39517783172075, "status": "OPEN", "update": "2015-12-21T11:39:24", "name": "9260- MAZARGUES - ALMERAS", "lat": 43.25096285100345}, "type": "Feature", "geometry": {"type": "Point", "coordinates": [5.39517783172075, 43.25096285100345]}}, {"properties": {"stands": 0, "address": "REPUBLIQUE PLUMIER - RUE DE LA REPUBLIQUE ANGLE RUE PLUMIER", "bikes": 10, "lon": 5.367786407891749, "status": "OPEN", "update": "2015-12-21T11:44:26", "name": "2327- R\u00c9PUBLIQUE PLUMIER", "lat": 43.304190155898155}, "type": "Feature", "geometry": {"type": "Point", "coordinates": [5.367786407891749, 43.304190155898155]}}, {"properties": {"stands": 0, "address": "CENTRE BOURSE - RUE BIR HAKEIM ENTREE CENTRE BOURSE", "bikes": 15, "lon": 5.377103061958931, "status": "OPEN", "update": "2015-12-21T11:38:04", "name": "1005-CENTRE BOURSE", "lat": 43.297138004748}, "type": "Feature", "geometry": {"type": "Point", "coordinates": [5.377103061958931, 43.297138004748]}}, {"properties": {"stands": 9, "address": "LIVON VIEUX PORT - 36 BOULEVARD CHARLES LIVON", "bikes": 6, "lon": 5.360224853219125, "status": "OPEN", "update": "2015-12-21T11:37:35", "name": "7146-LIVON VIEUX PORT", "lat": 43.29224532184672}, "type": "Feature", "geometry": {"type": "Point", "coordinates": [5.360224853219125, 43.29224532184672]}}, {"properties": {"stands": 6, "address": "BAILLE PAURIOL - 114 BOULEVARD BAILLE ANGLE RUE PAURIOL", "bikes": 1, "lon": 5.391331392803749, "status": "OPEN", "update": "2015-12-21T11:40:41", "name": "5024-BAILLE PAURIOL", "lat": 43.287814455889425}, "type": "Feature", "geometry": {"type": "Point", "coordinates": [5.391331392803749, 43.287814455889425]}}, {"properties": {"stands": 2, "address": "COURS JEAN BALLARD - 5 COURS JEAN BALLARD", "bikes": 8, "lon": 5.374638177288532, "status": "OPEN", "update": "2015-12-21T11:42:09", "name": "1006-COURS JEAN BALLARD", "lat": 43.29336790915692}, "type": "Feature", "geometry": {"type": "Point", "coordinates": [5.374638177288532, 43.29336790915692]}}, {"properties": {"stands": 10, "address": "PARADIS LORD DUVEEN - 395 RUE PARADIS", "bikes": 0, "lon": 5.384455147739253, "status": "OPEN", "update": "2015-12-21T11:40:43", "name": "8246-PARADIS - LORD DUVEEN", "lat": 43.275618147775035}, "type": "Feature", "geometry": {"type": "Point", "coordinates": [5.384455147739253, 43.275618147775035]}}, {"properties": {"stands": 7, "address": "PRADO PERIER - 127 AVENUE DU PRADO", "bikes": 6, "lon": 5.387431047255536, "status": "OPEN", "update": "2015-12-21T11:45:06", "name": "8053-PRADO - PERIER", "lat": 43.27974214607358}, "type": "Feature", "geometry": {"type": "Point", "coordinates": [5.387431047255536, 43.27974214607358]}}, {"properties": {"stands": 4, "address": "MENDES FRANCE HUVEAUNE - AVENUE PEIRRE MENDES FRANCE DEVANT L'ENTREE DU PARC BORELY", "bikes": 14, "lon": 5.37544360265886, "status": "OPEN", "update": "2015-12-21T11:37:49", "name": "8066-MENDES FRANCE HUVEAUNE", "lat": 43.260217853801166}, "type": "Feature", "geometry": {"type": "Point", "coordinates": [5.37544360265886, 43.260217853801166]}}, {"properties": {"stands": 3, "address": "318 MAZARGUES - FACE AU 318 AVENUE DE MAZARGUES", "bikes": 12, "lon": 5.393973899334583, "status": "OPEN", "update": "2015-12-21T11:41:12", "name": "8261- 318 MAZARGUES", "lat": 43.260699609117914}, "type": "Feature", "geometry": {"type": "Point", "coordinates": [5.393973899334583, 43.260699609117914]}}, {"properties": {"stands": 1, "address": "GENERAL DE GAULLE PARADIS - PLACE GENERAL DE GAULLE FACE AU 11 RUE PARADIS", "bikes": 9, "lon": 5.37602674729877, "status": "OPEN", "update": "2015-12-21T11:37:51", "name": "1004-GENERAL DE GAULLE PARADIS", "lat": 43.29494730625887}, "type": "Feature", "geometry": {"type": "Point", "coordinates": [5.37602674729877, 43.29494730625887]}}, {"properties": {"stands": 14, "address": "PLACE CORDERIE - AU CENTRE DE LA PLACE CORDERIE", "bikes": 1, "lon": 5.372259932395231, "status": "OPEN", "update": "2015-12-21T11:36:07", "name": "6020-PLACE DE LA CORDERIE", "lat": 43.29076433240633}, "type": "Feature", "geometry": {"type": "Point", "coordinates": [5.372259932395231, 43.29076433240633]}}, {"properties": {"stands": 12, "address": "CHAVE CAMAS - BOULEVARD CHAVE ANGLE RUE DU CAMAS", "bikes": 1, "lon": 5.396312199117862, "status": "OPEN", "update": "2015-12-21T11:42:12", "name": "5280-CHAVE CAMAS", "lat": 43.29581102315005}, "type": "Feature", "geometry": {"type": "Point", "coordinates": [5.396312199117862, 43.29581102315005]}}, {"properties": {"stands": 2, "address": "POINTE ROUGE MONTREDON - ANGLE AVENUE ODESSA ET AVENUE MONTREDON", "bikes": 15, "lon": 5.370540756635374, "status": "OPEN", "update": "2015-12-21T11:43:11", "name": "8290- POINTE ROUGE - MONTREDON", "lat": 43.243802055963265}, "type": "Feature", "geometry": {"type": "Point", "coordinates": [5.370540756635374, 43.243802055963265]}}, {"properties": {"stands": 4, "address": "MAZARGUES BARRAL - ANGLE AVENUE DE MAZARGUES ET BOULEVARD BARRAL", "bikes": 8, "lon": 5.392402358314715, "status": "OPEN", "update": "2015-12-21T11:36:47", "name": "8262-MAZARGUES-BARRAL", "lat": 43.263999455764186}, "type": "Feature", "geometry": {"type": "Point", "coordinates": [5.392402358314715, 43.263999455764186]}}, {"properties": {"stands": 5, "address": "SAINT CHARLES FACULTE - BOULEVARD GUSTAVE DESPLACES ANGLE AVENUE DU GENERAL LECLERC", "bikes": 10, "lon": 5.378292250179226, "status": "OPEN", "update": "2015-12-21T11:42:22", "name": "1316 -ST CHARLES FACULT\u00c9", "lat": 43.304244359587024}, "type": "Feature", "geometry": {"type": "Point", "coordinates": [5.378292250179226, 43.304244359587024]}}, {"properties": {"stands": 15, "address": "LIVON PASTEUR - BOULEVARD CHARLES LIVON ANGLE ESPLANADE DU PHARO", "bikes": 5, "lon": 5.357823161216201, "status": "OPEN", "update": "2015-12-21T11:42:34", "name": "7025-LIVON PASTEUR", "lat": 43.29198908246378}, "type": "Feature", "geometry": {"type": "Point", "coordinates": [5.357823161216201, 43.29198908246378]}}, {"properties": {"stands": 10, "address": "91 LIBERATION - 91 BOULEVARD DE LA LIBERATION", "bikes": 0, "lon": 5.389298285180646, "status": "OPEN", "update": "2015-12-21T11:42:02", "name": "2221-91 LIB\u00c9RATION", "lat": 43.30050650960441}, "type": "Feature", "geometry": {"type": "Point", "coordinates": [5.389298285180646, 43.30050650960441]}}, {"properties": {"stands": 0, "address": "PROMENADE POMPIDOU PALM BEACH - 6 PROMENADE GEORGES POMPIDOU", "bikes": 15, "lon": 5.372088524255505, "status": "OPEN", "update": "2015-12-21T11:39:06", "name": "8065-PROMENADE POMPIDOU PALM BEACH", "lat": 43.267272515671856}, "type": "Feature", "geometry": {"type": "Point", "coordinates": [5.372088524255505, 43.267272515671856]}}, {"properties": {"stands": 12, "address": "SAKAKINI CHAVE - 236 BOULEVARD CHAVE EN DIRECTION DE SAKAKINI", "bikes": 0, "lon": 5.399877070301781, "status": "OPEN", "update": "2015-12-21T11:35:57", "name": "5060-SAKAKINI CHAVE", "lat": 43.29570956843267}, "type": "Feature", "geometry": {"type": "Point", "coordinates": [5.399877070301781, 43.29570956843267]}}, {"properties": {"stands": 3, "address": "PRADO PARADIS - 390 AVENUE DU PRADO", "bikes": 7, "lon": 5.386273779435491, "status": "OPEN", "update": "2015-12-21T11:43:58", "name": "8255-PRADO - PARADIS", "lat": 43.26954179693142}, "type": "Feature", "geometry": {"type": "Point", "coordinates": [5.386273779435491, 43.26954179693142]}}, {"properties": {"stands": 9, "address": "PLACE SEBASTOPOL - 20 PLACE SEBASTOPOL", "bikes": 1, "lon": 5.397216233775408, "status": "OPEN", "update": "2015-12-21T11:36:56", "name": "4057-PLACE SEBASTOPOL", "lat": 43.298680879912176}, "type": "Feature", "geometry": {"type": "Point", "coordinates": [5.397216233775408, 43.298680879912176]}}, {"properties": {"stands": 6, "address": "HAMBOURG RONT POINT GUERRE - BOULEVARD DE HAMBOURG ANGLE ROND POINT PIERRE GUERRE", "bikes": 9, "lon": 5.389411648303773, "status": "OPEN", "update": "2015-12-21T11:41:45", "name": "8093-HAMBOURG ROND POINT GUERRE", "lat": 43.249867874570256}, "type": "Feature", "geometry": {"type": "Point", "coordinates": [5.389411648303773, 43.249867874570256]}}, {"properties": {"stands": 10, "address": "CORNICHE ENDOUME - 126 CORNICHE J.F. KENNEDY", "bikes": 5, "lon": 5.350628425025786, "status": "OPEN", "update": "2015-12-21T11:39:33", "name": "7138-CORNICHE  ENDOUME", "lat": 43.28250633472905}, "type": "Feature", "geometry": {"type": "Point", "coordinates": [5.350628425025786, 43.28250633472905]}}, {"properties": {"stands": 4, "address": "FLAMMARION MONTRICHET - PLACE LE VERRIER ANGLE BD FLAMMARION ET  BD MONTRICHET", "bikes": 6, "lon": 5.393678259953781, "status": "OPEN", "update": "2015-12-21T11:37:58", "name": "4342 - FLAMMARION MONTRICHET", "lat": 43.305993453766845}, "type": "Feature", "geometry": {"type": "Point", "coordinates": [5.393678259953781, 43.305993453766845]}}, {"properties": {"stands": 6, "address": "JULIEN 3 MAGES - COURS JULIEN ANGLE RUE DES TROIS MAGES", "bikes": 1, "lon": 5.382390401095631, "status": "OPEN", "update": "2015-12-21T11:36:54", "name": "1275- JULIEN - 3 MAGES", "lat": 43.29562159175117}, "type": "Feature", "geometry": {"type": "Point", "coordinates": [5.382390401095631, 43.29562159175117]}}, {"properties": {"stands": 7, "address": "DELPUECH CORINTHE - 29 BOULEVARD DELPUECH", "bikes": 8, "lon": 5.39109605124139, "status": "OPEN", "update": "2015-12-21T11:44:23", "name": "6187-DELPUECH CORINTHE", "lat": 43.28292930261343}, "type": "Feature", "geometry": {"type": "Point", "coordinates": [5.39109605124139, 43.28292930261343]}}, {"properties": {"stands": 3, "address": "SAINTE NOTRE DAME - 70 RUE SAINTE ANGLE RUE FORT NOTRE DAME", "bikes": 6, "lon": 5.371370384862697, "status": "OPEN", "update": "2015-12-21T11:37:21", "name": "7212-SAINTE - NOTRE DAME", "lat": 43.291634709693945}, "type": "Feature", "geometry": {"type": "Point", "coordinates": [5.371370384862697, 43.291634709693945]}}, {"properties": {"stands": 17, "address": "PLAINE ST PIERRE - RUE SAINT PIERRE ANGLE PLACE JEAN JAURES", "bikes": 0, "lon": 5.386729879719248, "status": "OPEN", "update": "2015-12-21T11:36:26", "name": "1226-PLAINE-ST PIERRE", "lat": 43.293880006338135}, "type": "Feature", "geometry": {"type": "Point", "coordinates": [5.386729879719248, 43.293880006338135]}}, {"properties": {"stands": 12, "address": "PASTEUR - 25 AVENUE PASTEUR", "bikes": 4, "lon": 5.359258014511654, "status": "OPEN", "update": "2015-12-21T11:40:59", "name": "7151-PASTEUR", "lat": 43.290716834278136}, "type": "Feature", "geometry": {"type": "Point", "coordinates": [5.359258014511654, 43.290716834278136]}}, {"properties": {"stands": 15, "address": "LANCIER MARTHELINE - ANGLE CHEMIN DU LANCIER ET AVENUE DE LA  MARTHELINE", "bikes": 0, "lon": 5.397126739923842, "status": "OPEN", "update": "2015-12-21T11:38:48", "name": "9259-LANCIER-MARTHELINE", "lat": 43.24759828978683}, "type": "Feature", "geometry": {"type": "Point", "coordinates": [5.397126739923842, 43.24759828978683]}}, {"properties": {"stands": 13, "address": "BAILLE HOPITAL CONCEPTION - BOULEVARD BAILLE FACE A L'ENTREE PRINCIPALE DE L'HOPITAL DE LA CONCEPTION", "bikes": 0, "lon": 5.39631317835792, "status": "OPEN", "update": "2015-12-21T11:41:16", "name": "5284 - BAILLE-HOPITAL-CONCEPTION", "lat": 43.28936342586655}, "type": "Feature", "geometry": {"type": "Point", "coordinates": [5.39631317835792, 43.28936342586655]}}, {"properties": {"stands": 1, "address": "DAMES TERRAS - BOULEVARD DES DAMES ANGLE RUE DU TERRAS", "bikes": 8, "lon": 5.372302255725486, "status": "OPEN", "update": "2015-12-21T11:40:27", "name": "2240-DAMES - TERRAS", "lat": 43.301805741199246}, "type": "Feature", "geometry": {"type": "Point", "coordinates": [5.372302255725486, 43.301805741199246]}}, {"properties": {"stands": 1, "address": "COLBERT SAINTE BARBE - RUE COLBERT ANGLE RUE SAINTE BARBE", "bikes": 10, "lon": 5.374740047327954, "status": "OPEN", "update": "2015-12-21T11:44:18", "name": "1302-COLBERT -SAINTE BARBE", "lat": 43.29924603474944}, "type": "Feature", "geometry": {"type": "Point", "coordinates": [5.374740047327954, 43.29924603474944]}}, {"properties": {"stands": 5, "address": "CATALANS CORNICHE - 69 CORNICHE J.F. KENNEDY ANGLE RUE DES CATALANS", "bikes": 10, "lon": 5.355962903211387, "status": "OPEN", "update": "2015-12-21T11:45:18", "name": "7026-CATALANS CORNICHE", "lat": 43.28985620147398}, "type": "Feature", "geometry": {"type": "Point", "coordinates": [5.355962903211387, 43.28985620147398]}}, {"properties": {"stands": 6, "address": "HOTEL DE VILLE - Face au 42 QUAI DU PORT", "bikes": 26, "lon": 5.3707713851323, "status": "OPEN", "update": "2015-12-21T11:42:45", "name": "1002-HOTEL DE VILLE", "lat": 43.2961387765145}, "type": "Feature", "geometry": {"type": "Point", "coordinates": [5.3707713851323, 43.2961387765145]}}, {"properties": {"stands": 23, "address": "CANTINI ROUET - FACE AU 27 AVENUE JULES CANTINI", "bikes": 0, "lon": 5.385593763617925, "status": "OPEN", "update": "2015-12-21T11:42:04", "name": "6176-CANTINI ROUET", "lat": 43.284775983612235}, "type": "Feature", "geometry": {"type": "Point", "coordinates": [5.385593763617925, 43.284775983612235]}}, {"properties": {"stands": 0, "address": "REPUBLIQUE MOISSON - RUE DE LA REPUBLIQUE ANGLE RUE FRANCOIS MOISSON", "bikes": 0, "lon": 5.369716218117023, "status": "OPEN", "update": "2015-12-21T11:38:21", "name": "2304 - R\u00c9PUBLIQUE MOISSON", "lat": 43.30179774806541}, "type": "Feature", "geometry": {"type": "Point", "coordinates": [5.369716218117023, 43.30179774806541]}}, {"properties": {"stands": 0, "address": "CANEBIERE SAINT FERREOL - ANGLE CANEBIERE SAINT FERREOL", "bikes": 10, "lon": 5.37693066220596, "status": "OPEN", "update": "2015-12-21T11:40:38", "name": "1191-CANEBIERE-ST FERREOL", "lat": 43.29620767061392}, "type": "Feature", "geometry": {"type": "Point", "coordinates": [5.37693066220596, 43.29620767061392]}}, {"properties": {"stands": 10, "address": "JULIEN BARTHELEMY - 9 RUE 3 FRERES BARTHELEMY", "bikes": 0, "lon": 5.384138435260716, "status": "OPEN", "update": "2015-12-21T11:43:11", "name": "6114-JULIEN BARTHELEMY", "lat": 43.292604598053984}, "type": "Feature", "geometry": {"type": "Point", "coordinates": [5.384138435260716, 43.292604598053984]}}, {"properties": {"stands": 10, "address": "151 LIBERATION - 151 BOULEVARD DE LA LIBERATION", "bikes": 0, "lon": 5.392179383331833, "status": "OPEN", "update": "2015-12-21T11:40:26", "name": "2222-151 LIBERATION", "lat": 43.30143187524121}, "type": "Feature", "geometry": {"type": "Point", "coordinates": [5.392179383331833, 43.30143187524121]}}, {"properties": {"stands": 16, "address": "SAINT CHARLES VOLTAIRE LIBERTE - BOULEVARD VOLTAIRE ANGLE BOULEVARD DE LA LIBERTE", "bikes": 1, "lon": 5.383955032544848, "status": "OPEN", "update": "2015-12-21T11:38:16", "name": "1299- ST CHARLES VOLTAIRE LIBERT\u00c9", "lat": 43.30236655745069}, "type": "Feature", "geometry": {"type": "Point", "coordinates": [5.383955032544848, 43.30236655745069]}}, {"properties": {"stands": 4, "address": "BEAUVAU SUFFREN - RUE BEAUVAU ANGLE RUE BAILLI DE SUFFREN", "bikes": 6, "lon": 5.375131220340518, "status": "OPEN", "update": "2015-12-21T11:43:03", "name": "1211-BEAUVAU - SUFFREN", "lat": 43.294774773558274}, "type": "Feature", "geometry": {"type": "Point", "coordinates": [5.375131220340518, 43.294774773558274]}}, {"properties": {"stands": 1, "address": "Bd du Littoral, 100 m avant le Mucem, devant l\u2019entr\u00e9e du parking Vieux Port Fort St Jean, direction vieux port", "bikes": 24, "lon": 5.36291062831879, "status": "OPEN", "update": "2015-12-21T11:42:34", "name": "2200-MUCEM", "lat": 43.2984594666424}, "type": "Feature", "geometry": {"type": "Point", "coordinates": [5.36291062831879, 43.2984594666424]}}, {"properties": {"stands": 12, "address": "STALINGRAD REFORMES - SQUARE STALINGRAD", "bikes": 4, "lon": 5.385047448641554, "status": "OPEN", "update": "2015-12-21T11:44:52", "name": "1287- STALINGRAD - R\u00c9FORM\u00c9S", "lat": 43.29952097558015}, "type": "Feature", "geometry": {"type": "Point", "coordinates": [5.385047448641554, 43.29952097558015]}}, {"properties": {"stands": 0, "address": "PRADO LATIL - 247 AVENUE DU PRADO", "bikes": 10, "lon": 5.390405906592448, "status": "OPEN", "update": "2015-12-21T11:41:11", "name": "8308-PRADO LATIL", "lat": 43.274352269730755}, "type": "Feature", "geometry": {"type": "Point", "coordinates": [5.390405906592448, 43.274352269730755]}}, {"properties": {"stands": 0, "address": "397 PRADO - 397 AVENUE DU PRADO", "bikes": 13, "lon": 5.385552216536626, "status": "OPEN", "update": "2015-12-21T11:43:46", "name": "8202-397 PRADO", "lat": 43.26869900851042}, "type": "Feature", "geometry": {"type": "Point", "coordinates": [5.385552216536626, 43.26869900851042]}}, {"properties": {"stands": 14, "address": "BELLE DE MAI FRICHE - ANGLE RUE GUIBAL ET RUE JOBIN", "bikes": 1, "lon": 5.39024943158741, "status": "OPEN", "update": "2015-12-21T11:42:30", "name": "3321 - BELLE DE MAI FRICHE", "lat": 43.30958891338201}, "type": "Feature", "geometry": {"type": "Point", "coordinates": [5.39024943158741, 43.30958891338201]}}, {"properties": {"stands": 1, "address": "angle rue de rome rue sylvabelle", "bikes": 10, "lon": 5.381324, "status": "OPEN", "update": "2015-12-21T11:39:04", "name": "06253 - ROME SYLVABELLE", "lat": 43.290022}, "type": "Feature", "geometry": {"type": "Point", "coordinates": [5.381324, 43.290022]}}, {"properties": {"stands": 6, "address": "PIERRE PUGET BRETEUIL - COURS PIERRE PUGET ANGLE RUE BRETEUIL", "bikes": 2, "lon": 5.375548341850035, "status": "OPEN", "update": "2015-12-21T11:38:29", "name": "6154-PIERRE PUGET BRETEUIL", "lat": 43.290329770206334}, "type": "Feature", "geometry": {"type": "Point", "coordinates": [5.375548341850035, 43.290329770206334]}}, {"properties": {"stands": 8, "address": "CANEBIERE DUGOMMIER - LA CANEBIERE ANGLE BOULEVARD DUGOMMIER", "bikes": 2, "lon": 5.381132215559973, "status": "OPEN", "update": "2015-12-21T11:44:58", "name": "1264 - CANEBI\u00c8RE DUGOMMIER", "lat": 43.29789631329341}, "type": "Feature", "geometry": {"type": "Point", "coordinates": [5.381132215559973, 43.29789631329341]}}, {"properties": {"stands": 16, "address": "TOULON MENPENTI - ANGLE AVENUE DE TOULON ET RUE MENPENTI", "bikes": 0, "lon": 5.392112767343369, "status": "OPEN", "update": "2015-12-21T11:45:16", "name": "6206-TOULON - MENPENTI", "lat": 43.284456097132846}, "type": "Feature", "geometry": {"type": "Point", "coordinates": [5.392112767343369, 43.284456097132846]}}, {"properties": {"stands": 10, "address": "CHAVE EUGENE PIERRE - BOULEVARD CHAVE ANGLE BOULEVARD EUGENE PIERRE", "bikes": 0, "lon": 5.390871390171412, "status": "OPEN", "update": "2015-12-21T11:42:22", "name": "5104-CHAVE EUG\u00c8NE PIERRE", "lat": 43.295363145406}, "type": "Feature", "geometry": {"type": "Point", "coordinates": [5.390871390171412, 43.295363145406]}}, {"properties": {"stands": 12, "address": "JEAN MOULIN BAILLE - BOULEVARD JEAN  MOULIN ANGLE BOULEVARD BAILLE", "bikes": 3, "lon": 5.39960982405674, "status": "OPEN", "update": "2015-12-21T11:44:57", "name": "5106-JEAN MOULIN BAILLE", "lat": 43.2902407800378}, "type": "Feature", "geometry": {"type": "Point", "coordinates": [5.39960982405674, 43.2902407800378]}}, {"properties": {"stands": 10, "address": "ROOSEVELT ORAN - 53 COURS FRANKLIN ROOSEVELT ANGLE RUE D'ORAN", "bikes": 0, "lon": 5.388799115293999, "status": "OPEN", "update": "2015-12-21T11:43:34", "name": "5220-ROOSEVELT - ORAN", "lat": 43.29899195650368}, "type": "Feature", "geometry": {"type": "Point", "coordinates": [5.388799115293999, 43.29899195650368]}}, {"properties": {"stands": 8, "address": "PRADO DUVEEN - 72 AVENUE DU PRADO", "bikes": 9, "lon": 5.388799649683594, "status": "OPEN", "update": "2015-12-21T11:44:06", "name": "8309- PRADO DUVEEN", "lat": 43.27654702249427}, "type": "Feature", "geometry": {"type": "Point", "coordinates": [5.388799649683594, 43.27654702249427]}}, {"properties": {"stands": 7, "address": "NEGRESKO PAULET - FACE AU 42 RUE NEGRESKO", "bikes": 8, "lon": 5.389387542314263, "status": "OPEN", "update": "2015-12-21T11:37:27", "name": "8265- N\u00c9GRESKO - PAULET", "lat": 43.269318556371154}, "type": "Feature", "geometry": {"type": "Point", "coordinates": [5.389387542314263, 43.269318556371154]}}, {"properties": {"stands": 4, "address": "DAMES SCHUMANN - 96 BOULEVARD DES DAMES", "bikes": 9, "lon": 5.366730359523051, "status": "OPEN", "update": "2015-12-21T11:41:32", "name": "2032- DAMES  SCHUMANN", "lat": 43.30331167287617}, "type": "Feature", "geometry": {"type": "Point", "coordinates": [5.366730359523051, 43.30331167287617]}}, {"properties": {"stands": 9, "address": "CORSE SAINT MAURICE - 28 AVENUE DE LA CORSE ANGLE RAMPE SAINT MAURICE", "bikes": 1, "lon": 5.36370990786361, "status": "OPEN", "update": "2015-12-21T11:41:08", "name": "7153-CORSE ST MAURICE", "lat": 43.28946760889984}, "type": "Feature", "geometry": {"type": "Point", "coordinates": [5.36370990786361, 43.28946760889984]}}, {"properties": {"stands": 2, "address": "VIEILLE CHAPELLE - 35 AVENUE DE LA POINTE ROUGE", "bikes": 17, "lon": 5.374447484757423, "status": "OPEN", "update": "2015-12-21T11:38:05", "name": "8078-VIEILLE CHAPELLE", "lat": 43.24789994774334}, "type": "Feature", "geometry": {"type": "Point", "coordinates": [5.374447484757423, 43.24789994774334]}}, {"properties": {"stands": 16, "address": "PLAINE BIBLIOTHEQUE - 45 RUE DE LA BIBLIOTHEQUE", "bikes": 0, "lon": 5.385996090720193, "status": "OPEN", "update": "2015-12-21T11:37:49", "name": "1224-PLAINE - BIBLIOTHEQUE", "lat": 43.29582518327951}, "type": "Feature", "geometry": {"type": "Point", "coordinates": [5.385996090720193, 43.29582518327951]}}, {"properties": {"stands": 9, "address": "SAKAKINI FOCH - BOULAVARD SAKAKINI ANGLE AVENUE MARECHAL FOCH", "bikes": 2, "lon": 5.401127142110414, "status": "OPEN", "update": "2015-12-21T11:38:42", "name": "4022-SAKAKINI FOCH", "lat": 43.29952274790985}, "type": "Feature", "geometry": {"type": "Point", "coordinates": [5.401127142110414, 43.29952274790985]}}, {"properties": {"stands": 3, "address": "GRIGNAN MARCELLE PAUL - RUE GRIGNAN ANGLE RUE DE LA PAIX MARCELLE PAUL", "bikes": 7, "lon": 5.373546945382951, "status": "OPEN", "update": "2015-12-21T11:36:27", "name": "1213-GRIGNAN - MARCELLE PAUL", "lat": 43.291357465205536}, "type": "Feature", "geometry": {"type": "Point", "coordinates": [5.373546945382951, 43.291357465205536]}}], "type": "FeatureCollection"}