{"features": [{"geometry": {"coordinates": [5.403244616491982, 43.250903869637334], "type": "Point"}, "properties": {"name": "9087-MAZARGUES", "lon": 5.403244616491982, "status": "OPEN", "stands": 3, "bikes": 18, "update": "2016-02-06T13:14:07", "lat": 43.250903869637334, "address": "MAZARGUES - ROND POINT DE MAZARGUES (OBELISQUE)"}, "type": "Feature"}, {"geometry": {"coordinates": [5.379895702048497, 43.301510278747365], "type": "Point"}, "properties": {"name": "1301- ST CHARLES MARSEILLAISES", "lon": 5.379895702048497, "status": "OPEN", "stands": 17, "bikes": 2, "update": "2016-02-06T13:13:46", "lat": 43.301510278747365, "address": "SAINT CHARLES MARSEILLAISES - PLACE DES MARSEILLAISES ANGLE RUE PHILIPPE DE GIRARD"}, "type": "Feature"}, {"geometry": {"coordinates": [5.379650236474981, 43.2896832563691], "type": "Point"}, "properties": {"name": "6217-ROSTAND - PREFECTURE", "lon": 5.379650236474981, "status": "OPEN", "stands": 14, "bikes": 1, "update": "2016-02-06T13:16:13", "lat": 43.2896832563691, "address": "ROSTAND PREFECTURE - 6 RUE EDMOND ROSTAND ANGLE RUE SYLVABELLE"}, "type": "Feature"}, {"geometry": {"coordinates": [5.370488134608402, 43.30056201196652], "type": "Point"}, "properties": {"name": "2184-REPUBLIQUE-CATHALA", "lon": 5.370488134608402, "status": "OPEN", "stands": 8, "bikes": 1, "update": "2016-02-06T13:07:45", "lat": 43.30056201196652, "address": "REPUBLIQUE CATHALA - RUE DE LA REPUBLIQUE ANGLE RUE JEAN MARC CATHALA"}, "type": "Feature"}, {"geometry": {"coordinates": [5.36651, 43.308731], "type": "Point"}, "properties": {"name": "02279 - DOCKS LES TERRASSES DU PORT", "lon": 5.36651, "status": "OPEN", "stands": 5, "bikes": 17, "update": "2016-02-06T13:14:46", "lat": 43.308731, "address": "SOUS A55 AU BOUT DES DOCKS FACE AU 22 QUAI DU LAZARET 13002"}, "type": "Feature"}, {"geometry": {"coordinates": [5.386356771062651, 43.30353946127941], "type": "Point"}, "properties": {"name": "1344 - FLAMMARION NATIONAL", "lon": 5.386356771062651, "status": "OPEN", "stands": 7, "bikes": 0, "update": "2016-02-06T13:07:14", "lat": 43.30353946127941, "address": "FLAMMARION NATIONAL - BOULEVARD CAMILLE FLAMMARION ANGLE BOULEVARD NATIONAL"}, "type": "Feature"}, {"geometry": {"coordinates": [5.36697414687028, 43.3051302607768], "type": "Point"}, "properties": {"name": "2272- JOLIETTE-DUNKERQUE", "lon": 5.36697414687028, "status": "OPEN", "stands": 9, "bikes": 5, "update": "2016-02-06T13:13:33", "lat": 43.3051302607768, "address": "JOLIETTE DUNKERQUE - PLACE DE LA JOLIETTE ANGLE BOULEVARD DUNKERQUE"}, "type": "Feature"}, {"geometry": {"coordinates": [5.375795816171145, 43.262455920908494], "type": "Point"}, "properties": {"name": "8068-PRADO BORELY", "lon": 5.375795816171145, "status": "OPEN", "stands": 6, "bikes": 2, "update": "2016-02-06T13:15:29", "lat": 43.262455920908494, "address": "PRADO BORELY - 579 AVENUE DU PRADO"}, "type": "Feature"}, {"geometry": {"coordinates": [5.394684906357751, 43.302008143688155], "type": "Point"}, "properties": {"name": "4238-LIBERATION-CHAPE-ESPERANDIEU", "lon": 5.394684906357751, "status": "OPEN", "stands": 12, "bikes": 0, "update": "2016-02-06T13:12:03", "lat": 43.302008143688155, "address": "LIBERATION CHAPE ESPERANDIEU - BOULAVARD LIBERATION ANGLE RUE CHAPE"}, "type": "Feature"}, {"geometry": {"coordinates": [5.371867606488009, 43.29312239728256], "type": "Point"}, "properties": {"name": "1003-PLACE AUX HUILES", "lon": 5.371867606488009, "status": "OPEN", "stands": 4, "bikes": 6, "update": "2016-02-06T13:09:52", "lat": 43.29312239728256, "address": "PLACE AUX HUILES - COURS ESTIENNE D'ORVES ANGLE RUE SAINT SAENS"}, "type": "Feature"}, {"geometry": {"coordinates": [5.375905974276691, 43.292666663006464], "type": "Point"}, "properties": {"name": "1216-SAINTE - LULLI", "lon": 5.375905974276691, "status": "OPEN", "stands": 6, "bikes": 9, "update": "2016-02-06T13:08:25", "lat": 43.292666663006464, "address": "SAINTE LULLI - 17 RUE SAINTE"}, "type": "Feature"}, {"geometry": {"coordinates": [5.366479730277853, 43.28923675488644], "type": "Point"}, "properties": {"name": "7215-ENDOUME - CORDERIE", "lon": 5.366479730277853, "status": "OPEN", "stands": 12, "bikes": 1, "update": "2016-02-06T13:10:59", "lat": 43.28923675488644, "address": "ENDOUME CORDERIE - 41 RUE D'ENDOUME"}, "type": "Feature"}, {"geometry": {"coordinates": [5.36552550703358, 43.295414354264665], "type": "Point"}, "properties": {"name": "2179-QUAI DU PORT", "lon": 5.36552550703358, "status": "OPEN", "stands": 0, "bikes": 15, "update": "2016-02-06T13:16:15", "lat": 43.295414354264665, "address": "QUAI DU PORT - 148 QUAI DU PORT"}, "type": "Feature"}, {"geometry": {"coordinates": [5.402740962235228, 43.2693522531282], "type": "Point"}, "properties": {"name": "9085-SCHLOESING TEISSERE", "lon": 5.402740962235228, "status": "OPEN", "stands": 0, "bikes": 16, "update": "2016-02-06T13:14:22", "lat": 43.2693522531282, "address": "SCHLOESSING TEISSERE - ANGLE BOULEVARD SCHLOESSING ET RUE RAYMOND TEISSERE"}, "type": "Feature"}, {"geometry": {"coordinates": [5.379124641857261, 43.289985879061746], "type": "Point"}, "properties": {"name": "6100-PAUL PEYTRAL", "lon": 5.379124641857261, "status": "OPEN", "stands": 7, "bikes": 2, "update": "2016-02-06T13:07:51", "lat": 43.289985879061746, "address": "PAUL PEYTRAL - 35 BOULEVARD PAUL PEYTRAL"}, "type": "Feature"}, {"geometry": {"coordinates": [5.401873594694653, 43.25402727813068], "type": "Point"}, "properties": {"name": "8149-391 MICHELET", "lon": 5.401873594694653, "status": "OPEN", "stands": 16, "bikes": 3, "update": "2016-02-06T13:12:32", "lat": 43.25402727813068, "address": "391 MICHELET - 391 BOULEVARD MICHELET"}, "type": "Feature"}, {"geometry": {"coordinates": [5.399686062414487, 43.27252367086013], "type": "Point"}, "properties": {"name": "9207- TEISSEIRE - ROUBAUD", "lon": 5.399686062414487, "status": "OPEN", "stands": 0, "bikes": 10, "update": "2016-02-06T13:16:08", "lat": 43.27252367086013, "address": "TEISSEIRE ROUBAUD - ANGLE RUE RAYMOND TEISSEIRE ET RUE MAGUY ROUBAUD"}, "type": "Feature"}, {"geometry": {"coordinates": [5.383105742132375, 43.28892000857008], "type": "Point"}, "properties": {"name": "6254-ROME - BERLIOZ - ITALIE", "lon": 5.383105742132375, "status": "OPEN", "stands": 14, "bikes": 0, "update": "2016-02-06T13:13:08", "lat": 43.28892000857008, "address": "ROME ITALIE BERLIOZ - FACE AU 10 RUE BERLIOZ"}, "type": "Feature"}, {"geometry": {"coordinates": [5.3901483781149, 43.304681870508325], "type": "Point"}, "properties": {"name": "1343 - FLAMMARION GROBET", "lon": 5.3901483781149, "status": "OPEN", "stands": 15, "bikes": 0, "update": "2016-02-06T13:10:36", "lat": 43.304681870508325, "address": "FLAMMARION GROBET - BOULEVARD CAMILLE FLAMMARION ANGLE RUE LOUIS GROBET"}, "type": "Feature"}, {"geometry": {"coordinates": [5.387779642713593, 43.2886166717576], "type": "Point"}, "properties": {"name": "6113-LODI VILLAGE", "lon": 5.387779642713593, "status": "OPEN", "stands": 15, "bikes": 0, "update": "2016-02-06T13:13:14", "lat": 43.2886166717576, "address": "LODI VILLAGE - FACE AU 89 RUE DE LODI"}, "type": "Feature"}, {"geometry": {"coordinates": [5.387773261785004, 43.30123319837804], "type": "Point"}, "properties": {"name": "1130- NATIONAL LONGCHAMP", "lon": 5.387773261785004, "status": "OPEN", "stands": 15, "bikes": 0, "update": "2016-02-06T13:07:06", "lat": 43.30123319837804, "address": "NATIONAL LONGCHAMP - 1 BD NATIONAL ANGLE LONGCHAMP"}, "type": "Feature"}, {"geometry": {"coordinates": [5.365239906973955, 43.270172262619184], "type": "Point"}, "properties": {"name": "7142-CORNICHE RAPATRIES", "lon": 5.365239906973955, "status": "OPEN", "stands": 12, "bikes": 3, "update": "2016-02-06T13:16:09", "lat": 43.270172262619184, "address": "CORNICHE RAPATRIES - CORNICHE J.F. KENNEDY FACE AU MEMORIAL DES RAPATRIES EN DIRECTION DU VIEUX PORT"}, "type": "Feature"}, {"geometry": {"coordinates": [5.393967016838425, 43.26796549967643], "type": "Point"}, "properties": {"name": "8147 - MICHELET HUVEAUNE", "lon": 5.393967016838425, "status": "OPEN", "stands": 4, "bikes": 11, "update": "2016-02-06T13:10:51", "lat": 43.26796549967643, "address": "MICHELET HUVEAUNE - ANGLE BOULEVARD MICHELET ET RUE JACQUES PICON"}, "type": "Feature"}, {"geometry": {"coordinates": [5.387375678428276, 43.31181964585524], "type": "Point"}, "properties": {"name": "3320 - BELLE DE MAI CADENAT", "lon": 5.387375678428276, "status": "OPEN", "stands": 6, "bikes": 9, "update": "2016-02-06T13:09:14", "lat": 43.31181964585524, "address": "BELLE DE MAI CADENAT - PLACE BERNARD CADENAT"}, "type": "Feature"}, {"geometry": {"coordinates": [5.38678589001619, 43.2865946021474], "type": "Point"}, "properties": {"name": "6177-BAILLE FRIEDLAND", "lon": 5.38678589001619, "status": "OPEN", "stands": 15, "bikes": 2, "update": "2016-02-06T13:10:40", "lat": 43.2865946021474, "address": "BAILLE FRIEDLAND - BOULEVARD BAILLE ANGLE RUE DE FRIEDLAND"}, "type": "Feature"}, {"geometry": {"coordinates": [5.39166970262158, 43.2722414899425], "type": "Point"}, "properties": {"name": "8307-PRADO MICHELET", "lon": 5.39166970262158, "status": "OPEN", "stands": 1, "bikes": 19, "update": "2016-02-06T13:14:18", "lat": 43.2722414899425, "address": "Parvis entr\u00e9e parc Chanot"}, "type": "Feature"}, {"geometry": {"coordinates": [5.397731278573822, 43.29748821146523], "type": "Point"}, "properties": {"name": "5103-RUE GEORGES", "lon": 5.397731278573822, "status": "OPEN", "stands": 14, "bikes": 1, "update": "2016-02-06T13:15:33", "lat": 43.29748821146523, "address": "RUE GEORGES - 28 RUE GEORGES"}, "type": "Feature"}, {"geometry": {"coordinates": [5.38661231791721, 43.29908095432929], "type": "Point"}, "properties": {"name": "1230-ROOSEVELT - REFORMES", "lon": 5.38661231791721, "status": "OPEN", "stands": 3, "bikes": 7, "update": "2016-02-06T13:08:48", "lat": 43.29908095432929, "address": "ROOSEVELT REFORMES - 7 COURS FRANKLIN ROOSEVELT"}, "type": "Feature"}, {"geometry": {"coordinates": [5.377690136115547, 43.30380276644441], "type": "Point"}, "properties": {"name": "1345 - SAINT CHARLES LECLERC ZATTARA", "lon": 5.377690136115547, "status": "OPEN", "stands": 12, "bikes": 0, "update": "2016-02-06T13:12:30", "lat": 43.30380276644441, "address": "SAINT CHARLES LECLERC ZATTARA - AVENUE DU GENERAL LECLERC ANGLE RUE ANTOINE ZATTARA"}, "type": "Feature"}, {"geometry": {"coordinates": [5.396409806138883, 43.27524269246836], "type": "Point"}, "properties": {"name": "8257-RABATAU - TEISSEIRE", "lon": 5.396409806138883, "status": "OPEN", "stands": 0, "bikes": 15, "update": "2016-02-06T13:15:51", "lat": 43.27524269246836, "address": "RABATAU TEISSEIRE - ANGLE BOULEVARD RABATAU ET FACE AU 68 RUE RAYMOND TEISSEIRE"}, "type": "Feature"}, {"geometry": {"coordinates": [5.373860886192452, 43.296824934966864], "type": "Point"}, "properties": {"name": "1346- REPUBLIQUE COUTELLERIE", "lon": 5.373860886192452, "status": "OPEN", "stands": 3, "bikes": 5, "update": "2016-02-06T13:07:17", "lat": 43.296824934966864, "address": "REPUBLIQUE COUTELLERIE - RUE DE LA REPUBLIQUE ANGLE RUE DE LA COUTELLERIE"}, "type": "Feature"}, {"geometry": {"coordinates": [5.378423799723321, 43.293485736186526], "type": "Point"}, "properties": {"name": "1297- ST F\u00c9RR\u00c9OL DAVSO", "lon": 5.378423799723321, "status": "OPEN", "stands": 0, "bikes": 16, "update": "2016-02-06T13:15:43", "lat": 43.293485736186526, "address": "ST FERREOL DAVSO - RUE FRANCIS DAVSO ANGLE RUE SAINT FERREOL"}, "type": "Feature"}, {"geometry": {"coordinates": [5.398913930872658, 43.25850879475187], "type": "Point"}, "properties": {"name": "9074-MICHELET LUCE", "lon": 5.398913930872658, "status": "OPEN", "stands": 1, "bikes": 13, "update": "2016-02-06T13:14:20", "lat": 43.25850879475187, "address": "MICHELET LUCE - ANGLE BOULEVARD MICHELET ET BOULEVARD LUCE"}, "type": "Feature"}, {"geometry": {"coordinates": [5.38545312564012, 43.29441078214159], "type": "Point"}, "properties": {"name": "1228-LA PLAINE SUD", "lon": 5.38545312564012, "status": "OPEN", "stands": 14, "bikes": 0, "update": "2016-02-06T13:08:30", "lat": 43.29441078214159, "address": "LA PLAINE SUD - RUE DES TROIS MAGES ANGLE PLACE JEAN JAURES"}, "type": "Feature"}, {"geometry": {"coordinates": [5.39403885378465, 43.28872669088929], "type": "Point"}, "properties": {"name": "5107-BAILLE CONCEPTION", "lon": 5.39403885378465, "status": "OPEN", "stands": 11, "bikes": 0, "update": "2016-02-06T13:16:00", "lat": 43.28872669088929, "address": "BAILLE CONCEPTION  - 145 BOULEVARD BAILLE"}, "type": "Feature"}, {"geometry": {"coordinates": [5.369497428189588, 43.30255028371949], "type": "Point"}, "properties": {"name": "2030-REPUBLIQUE DAMES", "lon": 5.369497428189588, "status": "OPEN", "stands": 4, "bikes": 1, "update": "2016-02-06T13:15:00", "lat": 43.30255028371949, "address": "RPUBLIQUE DAMES - 68 BOULEVARD DES DAMES"}, "type": "Feature"}, {"geometry": {"coordinates": [5.401285286456447, 43.292800863545835], "type": "Point"}, "properties": {"name": "5058 -SAKAKINI - SAINT PIERRE", "lon": 5.401285286456447, "status": "OPEN", "stands": 5, "bikes": 5, "update": "2016-02-06T13:13:49", "lat": 43.292800863545835, "address": "SAKAKINI SAINT PIERRE - BOULEVARD SAKAKINI ANGLE RUE SAINT PIERRE"}, "type": "Feature"}, {"geometry": {"coordinates": [5.3586207351308, 43.2884327278463], "type": "Point"}, "properties": {"name": "7027-PLACE DU 4 SEPTEMBRE", "lon": 5.3586207351308, "status": "OPEN", "stands": 2, "bikes": 12, "update": "2016-02-06T13:11:19", "lat": 43.2884327278463, "address": "2 RUE CAPITAINE DESSEMOND"}, "type": "Feature"}, {"geometry": {"coordinates": [5.386461522334788, 43.28350144850817], "type": "Point"}, "properties": {"name": "6208-ROUET", "lon": 5.386461522334788, "status": "OPEN", "stands": 9, "bikes": 6, "update": "2016-02-06T13:14:47", "lat": 43.28350144850817, "address": "ROUET - 48 RUE DU ROUET"}, "type": "Feature"}, {"geometry": {"coordinates": [5.370835093727862, 43.29780955608182], "type": "Point"}, "properties": {"name": "2012-GRAND RUE", "lon": 5.370835093727862, "status": "OPEN", "stands": 9, "bikes": 11, "update": "2016-02-06T13:15:24", "lat": 43.29780955608182, "address": "GRAND RUE - FACE AU 35 GRAND'RUE"}, "type": "Feature"}, {"geometry": {"coordinates": [5.375339514183368, 43.295686109850145], "type": "Point"}, "properties": {"name": "1001 - CANEBIERE REINE ELISABETH", "lon": 5.375339514183368, "status": "OPEN", "stands": 0, "bikes": 13, "update": "2016-02-06T13:15:05", "lat": 43.295686109850145, "address": "CANEBIERE REINE ELISABETH - CANEBIERE ANGLE REINE ELISABETH"}, "type": "Feature"}, {"geometry": {"coordinates": [5.37599738915791, 43.25394372546869], "type": "Point"}, "properties": {"name": "8144-ESCALE BORELY POINTE ROUGE", "lon": 5.37599738915791, "status": "OPEN", "stands": 9, "bikes": 1, "update": "2016-02-06T13:12:10", "lat": 43.25394372546869, "address": "ESCALE BORELY POINTE ROUGE - ESCALE BORELY EN DIRECTION DE L'AVENUE POINTE ROUGE"}, "type": "Feature"}, {"geometry": {"coordinates": [5.38279581908046, 43.2668438148239], "type": "Point"}, "properties": {"name": "8067-PRADO GABES", "lon": 5.38279581908046, "status": "OPEN", "stands": 7, "bikes": 8, "update": "2016-02-06T13:12:36", "lat": 43.2668438148239, "address": "PRADO GABES - AVENUE DU PRADO ANGLE BD DE GABES"}, "type": "Feature"}, {"geometry": {"coordinates": [5.349696475467313, 43.284213979400505], "type": "Point"}, "properties": {"name": "7062-88 CORNICHE - KENNEDY", "lon": 5.349696475467313, "status": "OPEN", "stands": 2, "bikes": 13, "update": "2016-02-06T13:15:43", "lat": 43.284213979400505, "address": "88 CORNICHE KENNEDY - 88 CORNICHE J.F. KENNEDY"}, "type": "Feature"}, {"geometry": {"coordinates": [5.375165446771129, 43.29542125608577], "type": "Point"}, "properties": {"name": "1210-BEAUVAU - CANEBIERE", "lon": 5.375165446771129, "status": "OPEN", "stands": 0, "bikes": 15, "update": "2016-02-06T13:08:18", "lat": 43.29542125608577, "address": "BEAUVAU CANEBIERE - RUE BEAUVAU"}, "type": "Feature"}, {"geometry": {"coordinates": [5.383285575102103, 43.286046362122946], "type": "Point"}, "properties": {"name": "6023- CASTELLANE", "lon": 5.383285575102103, "status": "OPEN", "stands": 11, "bikes": 8, "update": "2016-02-06T13:16:04", "lat": 43.286046362122946, "address": "CASTELLANE - ROND POINT CASTELLANE DEVANT LE CAFE DE PARIS"}, "type": "Feature"}, {"geometry": {"coordinates": [5.406000803377506, 43.29626340517055], "type": "Point"}, "properties": {"name": "4293- BLANCARDE", "lon": 5.406000803377506, "status": "OPEN", "stands": 13, "bikes": 1, "update": "2016-02-06T13:16:19", "lat": 43.29626340517055, "address": "BLANCARDE - GARE DE LA BLANCARDE"}, "type": "Feature"}, {"geometry": {"coordinates": [5.366506599649465, 43.23984252335505], "type": "Point"}, "properties": {"name": "8313- PARC PASTRE", "lon": 5.366506599649465, "status": "OPEN", "stands": 5, "bikes": 5, "update": "2016-02-06T13:13:54", "lat": 43.23984252335505, "address": "PARC PASTRE - ANGLE AVENUE DE MONTREDON ET AVENUE D'OUTRE MER"}, "type": "Feature"}, {"geometry": {"coordinates": [5.38299269172725, 43.2921244873688], "type": "Point"}, "properties": {"name": "6237-LIEUTAUD JULIEN", "lon": 5.38299269172725, "status": "OPEN", "stands": 10, "bikes": 0, "update": "2016-02-06T13:06:37", "lat": 43.2921244873688, "address": "LIEUTAUD JULIEN - FACE AU 20 BOULEVARD THEODORE THURNER"}, "type": "Feature"}, {"geometry": {"coordinates": [5.381500046726694, 43.29902793826475], "type": "Point"}, "properties": {"name": "1245-GAMBETTA - LAFAYETTE", "lon": 5.381500046726694, "status": "OPEN", "stands": 0, "bikes": 15, "update": "2016-02-06T13:10:50", "lat": 43.29902793826475, "address": "GAMBETTA LAFAYETTE - 6 ALLEES LEON GAMBETTA"}, "type": "Feature"}, {"geometry": {"coordinates": [5.373281108125947, 43.26469407213291], "type": "Point"}, "properties": {"name": "8132-PROMENADE POMPIDOU AMIRAL MUSELIER", "lon": 5.373281108125947, "status": "OPEN", "stands": 6, "bikes": 9, "update": "2016-02-06T13:08:49", "lat": 43.26469407213291, "address": "PROMENADE POMPIDOU AMIRAL MUSELIER - PROMENADE GEORGES POMPIDOU DEVANT LA PLACE AMIRAL MUSELIER"}, "type": "Feature"}, {"geometry": {"coordinates": [5.376413023650641, 43.25505597847173], "type": "Point"}, "properties": {"name": "8145-ESCALE BORELY", "lon": 5.376413023650641, "status": "OPEN", "stands": 5, "bikes": 15, "update": "2016-02-06T13:13:29", "lat": 43.25505597847173, "address": "ESCALE BORELY - ANGLE ESCALE BORELY ET AVENUE BONNEVEINE"}, "type": "Feature"}, {"geometry": {"coordinates": [5.400635371105712, 43.268405140653144], "type": "Point"}, "properties": {"name": "9219-PUGETTE - ANDRE", "lon": 5.400635371105712, "status": "OPEN", "stands": 0, "bikes": 15, "update": "2016-02-06T13:06:34", "lat": 43.268405140653144, "address": "PUGETTE ANDRE - ANGLE AVENUE DU GENERAL ANDRE FACE AU 23 BOULEVARD DE LA PUGETTE"}, "type": "Feature"}, {"geometry": {"coordinates": [5.391048744484495, 43.27278734452526], "type": "Point"}, "properties": {"name": "8134-ROND POINT DU PRADO", "lon": 5.391048744484495, "status": "OPEN", "stands": 14, "bikes": 5, "update": "2016-02-06T13:10:38", "lat": 43.27278734452526, "address": "ROND POINT DU PRADO - 300 AVENUE DU PRADO"}, "type": "Feature"}, {"geometry": {"coordinates": [5.36771555892562, 43.3047137105911], "type": "Point"}, "properties": {"name": "2341- JOLIETTE FORBIN", "lon": 5.36771555892562, "status": "OPEN", "stands": 1, "bikes": 14, "update": "2016-02-06T13:08:59", "lat": 43.3047137105911, "address": "JOLIETTE FORBIN - PLACE DE LA JOLIETTE ANGLE RUE DE FORBIN"}, "type": "Feature"}, {"geometry": {"coordinates": [5.374505152575336, 43.26178202177259], "type": "Point"}, "properties": {"name": "8131-PROMENADE POMPIDOU DAVID", "lon": 5.374505152575336, "status": "OPEN", "stands": 2, "bikes": 13, "update": "2016-02-06T13:09:18", "lat": 43.26178202177259, "address": "PROMENADE POMPIDOU DAVID -  PROMENADE GEORGES POMPIDOU AU NIVEAU DU ROND POINT DE DAVID"}, "type": "Feature"}, {"geometry": {"coordinates": [5.379450180172236, 43.28683835122117], "type": "Point"}, "properties": {"name": "6160-153 PARADIS", "lon": 5.379450180172236, "status": "OPEN", "stands": 7, "bikes": 7, "update": "2016-02-06T13:06:35", "lat": 43.28683835122117, "address": "153 PARADIS - 153 RUE PARADIS"}, "type": "Feature"}, {"geometry": {"coordinates": [5.398630311705657, 43.301185515493664], "type": "Point"}, "properties": {"name": "4111-FOCH FAYOLLE", "lon": 5.398630311705657, "status": "OPEN", "stands": 17, "bikes": 2, "update": "2016-02-06T13:11:09", "lat": 43.301185515493664, "address": "FOCH FAYOLLE - ANGLE AVENUE MARECHAL FOCH ET RUE MARECHAL FAYOLLE"}, "type": "Feature"}, {"geometry": {"coordinates": [5.37224035119238, 43.30598895681527], "type": "Point"}, "properties": {"name": "2323 -FORBIN PARIS", "lon": 5.37224035119238, "status": "OPEN", "stands": 11, "bikes": 2, "update": "2016-02-06T13:12:36", "lat": 43.30598895681527, "address": "FORBIN PARIS - RUE DE FORBIN ANGLE BOULEVARD DE PARIS"}, "type": "Feature"}, {"geometry": {"coordinates": [5.39517783172075, 43.25096285100345], "type": "Point"}, "properties": {"name": "9260- MAZARGUES - ALMERAS", "lon": 5.39517783172075, "status": "OPEN", "stands": 2, "bikes": 11, "update": "2016-02-06T13:06:44", "lat": 43.25096285100345, "address": "MAZARGUES ALMERAS - ANGLE AVENUE DE MAZARGUES ET IMPASSE ALMERAS"}, "type": "Feature"}, {"geometry": {"coordinates": [5.367786407891749, 43.304190155898155], "type": "Point"}, "properties": {"name": "2327- R\u00c9PUBLIQUE PLUMIER", "lon": 5.367786407891749, "status": "OPEN", "stands": 6, "bikes": 4, "update": "2016-02-06T13:08:11", "lat": 43.304190155898155, "address": "REPUBLIQUE PLUMIER - RUE DE LA REPUBLIQUE ANGLE RUE PLUMIER"}, "type": "Feature"}, {"geometry": {"coordinates": [5.377103061958931, 43.297138004748], "type": "Point"}, "properties": {"name": "1005-CENTRE BOURSE", "lon": 5.377103061958931, "status": "OPEN", "stands": 0, "bikes": 15, "update": "2016-02-06T13:10:17", "lat": 43.297138004748, "address": "CENTRE BOURSE - RUE BIR HAKEIM ENTREE CENTRE BOURSE"}, "type": "Feature"}, {"geometry": {"coordinates": [5.360224853219125, 43.29224532184672], "type": "Point"}, "properties": {"name": "7146-LIVON VIEUX PORT", "lon": 5.360224853219125, "status": "OPEN", "stands": 3, "bikes": 12, "update": "2016-02-06T13:14:30", "lat": 43.29224532184672, "address": "LIVON VIEUX PORT - 36 BOULEVARD CHARLES LIVON"}, "type": "Feature"}, {"geometry": {"coordinates": [5.391331392803749, 43.287814455889425], "type": "Point"}, "properties": {"name": "5024-BAILLE PAURIOL", "lon": 5.391331392803749, "status": "OPEN", "stands": 7, "bikes": 0, "update": "2016-02-06T13:12:28", "lat": 43.287814455889425, "address": "BAILLE PAURIOL - 114 BOULEVARD BAILLE ANGLE RUE PAURIOL"}, "type": "Feature"}, {"geometry": {"coordinates": [5.374638177288532, 43.29336790915692], "type": "Point"}, "properties": {"name": "1006-COURS JEAN BALLARD", "lon": 5.374638177288532, "status": "OPEN", "stands": 1, "bikes": 9, "update": "2016-02-06T13:15:44", "lat": 43.29336790915692, "address": "COURS JEAN BALLARD - 5 COURS JEAN BALLARD"}, "type": "Feature"}, {"geometry": {"coordinates": [5.384455147739253, 43.275618147775035], "type": "Point"}, "properties": {"name": "8246-PARADIS - LORD DUVEEN", "lon": 5.384455147739253, "status": "OPEN", "stands": 10, "bikes": 0, "update": "2016-02-06T13:11:37", "lat": 43.275618147775035, "address": "PARADIS LORD DUVEEN - 395 RUE PARADIS"}, "type": "Feature"}, {"geometry": {"coordinates": [5.387431047255536, 43.27974214607358], "type": "Point"}, "properties": {"name": "8053-PRADO - PERIER", "lon": 5.387431047255536, "status": "OPEN", "stands": 3, "bikes": 10, "update": "2016-02-06T13:09:20", "lat": 43.27974214607358, "address": "PRADO PERIER - 127 AVENUE DU PRADO"}, "type": "Feature"}, {"geometry": {"coordinates": [5.37544360265886, 43.260217853801166], "type": "Point"}, "properties": {"name": "8066-MENDES FRANCE HUVEAUNE", "lon": 5.37544360265886, "status": "OPEN", "stands": 1, "bikes": 17, "update": "2016-02-06T13:13:29", "lat": 43.260217853801166, "address": "MENDES FRANCE HUVEAUNE - AVENUE PEIRRE MENDES FRANCE DEVANT L'ENTREE DU PARC BORELY"}, "type": "Feature"}, {"geometry": {"coordinates": [5.393973899334583, 43.260699609117914], "type": "Point"}, "properties": {"name": "8261- 318 MAZARGUES", "lon": 5.393973899334583, "status": "OPEN", "stands": 6, "bikes": 9, "update": "2016-02-06T13:08:45", "lat": 43.260699609117914, "address": "318 MAZARGUES - FACE AU 318 AVENUE DE MAZARGUES"}, "type": "Feature"}, {"geometry": {"coordinates": [5.37602674729877, 43.29494730625887], "type": "Point"}, "properties": {"name": "1004-GENERAL DE GAULLE PARADIS", "lon": 5.37602674729877, "status": "OPEN", "stands": 0, "bikes": 10, "update": "2016-02-06T13:07:06", "lat": 43.29494730625887, "address": "GENERAL DE GAULLE PARADIS - PLACE GENERAL DE GAULLE FACE AU 11 RUE PARADIS"}, "type": "Feature"}, {"geometry": {"coordinates": [5.372259932395231, 43.29076433240633], "type": "Point"}, "properties": {"name": "6020-PLACE DE LA CORDERIE", "lon": 5.372259932395231, "status": "OPEN", "stands": 13, "bikes": 1, "update": "2016-02-06T13:06:21", "lat": 43.29076433240633, "address": "PLACE CORDERIE - AU CENTRE DE LA PLACE CORDERIE"}, "type": "Feature"}, {"geometry": {"coordinates": [5.396312199117862, 43.29581102315005], "type": "Point"}, "properties": {"name": "5280-CHAVE CAMAS", "lon": 5.396312199117862, "status": "OPEN", "stands": 10, "bikes": 3, "update": "2016-02-06T13:08:31", "lat": 43.29581102315005, "address": "CHAVE CAMAS - BOULEVARD CHAVE ANGLE RUE DU CAMAS"}, "type": "Feature"}, {"geometry": {"coordinates": [5.370540756635374, 43.243802055963265], "type": "Point"}, "properties": {"name": "8290- POINTE ROUGE - MONTREDON", "lon": 5.370540756635374, "status": "OPEN", "stands": 10, "bikes": 7, "update": "2016-02-06T13:15:28", "lat": 43.243802055963265, "address": "POINTE ROUGE MONTREDON - ANGLE AVENUE ODESSA ET AVENUE MONTREDON"}, "type": "Feature"}, {"geometry": {"coordinates": [5.392402358314715, 43.263999455764186], "type": "Point"}, "properties": {"name": "8262-MAZARGUES-BARRAL", "lon": 5.392402358314715, "status": "OPEN", "stands": 5, "bikes": 7, "update": "2016-02-06T13:11:49", "lat": 43.263999455764186, "address": "MAZARGUES BARRAL - ANGLE AVENUE DE MAZARGUES ET BOULEVARD BARRAL"}, "type": "Feature"}, {"geometry": {"coordinates": [5.378292250179226, 43.304244359587024], "type": "Point"}, "properties": {"name": "1316 -ST CHARLES FACULT\u00c9", "lon": 5.378292250179226, "status": "OPEN", "stands": 14, "bikes": 1, "update": "2016-02-06T13:15:39", "lat": 43.304244359587024, "address": "SAINT CHARLES FACULTE - BOULEVARD GUSTAVE DESPLACES ANGLE AVENUE DU GENERAL LECLERC"}, "type": "Feature"}, {"geometry": {"coordinates": [5.357823161216201, 43.29198908246378], "type": "Point"}, "properties": {"name": "7025-LIVON PASTEUR", "lon": 5.357823161216201, "status": "OPEN", "stands": 19, "bikes": 1, "update": "2016-02-06T13:12:54", "lat": 43.29198908246378, "address": "LIVON PASTEUR - BOULEVARD CHARLES LIVON ANGLE ESPLANADE DU PHARO"}, "type": "Feature"}, {"geometry": {"coordinates": [5.389298285180646, 43.30050650960441], "type": "Point"}, "properties": {"name": "2221-91 LIB\u00c9RATION", "lon": 5.389298285180646, "status": "OPEN", "stands": 9, "bikes": 1, "update": "2016-02-06T13:15:50", "lat": 43.30050650960441, "address": "91 LIBERATION - 91 BOULEVARD DE LA LIBERATION"}, "type": "Feature"}, {"geometry": {"coordinates": [5.372088524255505, 43.267272515671856], "type": "Point"}, "properties": {"name": "8065-PROMENADE POMPIDOU PALM BEACH", "lon": 5.372088524255505, "status": "OPEN", "stands": 4, "bikes": 11, "update": "2016-02-06T13:11:48", "lat": 43.267272515671856, "address": "PROMENADE POMPIDOU PALM BEACH - 6 PROMENADE GEORGES POMPIDOU"}, "type": "Feature"}, {"geometry": {"coordinates": [5.399877070301781, 43.29570956843267], "type": "Point"}, "properties": {"name": "5060-SAKAKINI CHAVE", "lon": 5.399877070301781, "status": "OPEN", "stands": 12, "bikes": 0, "update": "2016-02-06T13:10:34", "lat": 43.29570956843267, "address": "SAKAKINI CHAVE - 236 BOULEVARD CHAVE EN DIRECTION DE SAKAKINI"}, "type": "Feature"}, {"geometry": {"coordinates": [5.386273779435491, 43.26954179693142], "type": "Point"}, "properties": {"name": "8255-PRADO - PARADIS", "lon": 5.386273779435491, "status": "OPEN", "stands": 9, "bikes": 1, "update": "2016-02-06T13:07:17", "lat": 43.26954179693142, "address": "PRADO PARADIS - 390 AVENUE DU PRADO"}, "type": "Feature"}, {"geometry": {"coordinates": [5.397216233775408, 43.298680879912176], "type": "Point"}, "properties": {"name": "4057-PLACE SEBASTOPOL", "lon": 5.397216233775408, "status": "OPEN", "stands": 5, "bikes": 5, "update": "2016-02-06T13:14:37", "lat": 43.298680879912176, "address": "PLACE SEBASTOPOL - 20 PLACE SEBASTOPOL"}, "type": "Feature"}, {"geometry": {"coordinates": [5.389411648303773, 43.249867874570256], "type": "Point"}, "properties": {"name": "8093-HAMBOURG ROND POINT GUERRE", "lon": 5.389411648303773, "status": "OPEN", "stands": 0, "bikes": 15, "update": "2016-02-06T13:13:13", "lat": 43.249867874570256, "address": "HAMBOURG RONT POINT GUERRE - BOULEVARD DE HAMBOURG ANGLE ROND POINT PIERRE GUERRE"}, "type": "Feature"}, {"geometry": {"coordinates": [5.350628425025786, 43.28250633472905], "type": "Point"}, "properties": {"name": "7138-CORNICHE  ENDOUME", "lon": 5.350628425025786, "status": "OPEN", "stands": 2, "bikes": 13, "update": "2016-02-06T13:13:04", "lat": 43.28250633472905, "address": "CORNICHE ENDOUME - 126 CORNICHE J.F. KENNEDY"}, "type": "Feature"}, {"geometry": {"coordinates": [5.393678259953781, 43.305993453766845], "type": "Point"}, "properties": {"name": "4342 - FLAMMARION MONTRICHET", "lon": 5.393678259953781, "status": "OPEN", "stands": 10, "bikes": 0, "update": "2016-02-06T13:12:24", "lat": 43.305993453766845, "address": "FLAMMARION MONTRICHET - PLACE LE VERRIER ANGLE BD FLAMMARION ET  BD MONTRICHET"}, "type": "Feature"}, {"geometry": {"coordinates": [5.382390401095631, 43.29562159175117], "type": "Point"}, "properties": {"name": "1275- JULIEN - 3 MAGES", "lon": 5.382390401095631, "status": "OPEN", "stands": 5, "bikes": 2, "update": "2016-02-06T13:07:19", "lat": 43.29562159175117, "address": "JULIEN 3 MAGES - COURS JULIEN ANGLE RUE DES TROIS MAGES"}, "type": "Feature"}, {"geometry": {"coordinates": [5.39109605124139, 43.28292930261343], "type": "Point"}, "properties": {"name": "6187-DELPUECH CORINTHE", "lon": 5.39109605124139, "status": "OPEN", "stands": 6, "bikes": 8, "update": "2016-02-06T13:06:17", "lat": 43.28292930261343, "address": "DELPUECH CORINTHE - 29 BOULEVARD DELPUECH"}, "type": "Feature"}, {"geometry": {"coordinates": [5.371370384862697, 43.291634709693945], "type": "Point"}, "properties": {"name": "7212-SAINTE - NOTRE DAME", "lon": 5.371370384862697, "status": "OPEN", "stands": 6, "bikes": 3, "update": "2016-02-06T13:09:50", "lat": 43.291634709693945, "address": "SAINTE NOTRE DAME - 70 RUE SAINTE ANGLE RUE FORT NOTRE DAME"}, "type": "Feature"}, {"geometry": {"coordinates": [5.386729879719248, 43.293880006338135], "type": "Point"}, "properties": {"name": "1226-PLAINE-ST PIERRE", "lon": 5.386729879719248, "status": "OPEN", "stands": 17, "bikes": 0, "update": "2016-02-06T13:09:37", "lat": 43.293880006338135, "address": "PLAINE ST PIERRE - RUE SAINT PIERRE ANGLE PLACE JEAN JAURES"}, "type": "Feature"}, {"geometry": {"coordinates": [5.359258014511654, 43.290716834278136], "type": "Point"}, "properties": {"name": "7151-PASTEUR", "lon": 5.359258014511654, "status": "OPEN", "stands": 4, "bikes": 12, "update": "2016-02-06T13:06:15", "lat": 43.290716834278136, "address": "PASTEUR - 25 AVENUE PASTEUR"}, "type": "Feature"}, {"geometry": {"coordinates": [5.397126739923842, 43.24759828978683], "type": "Point"}, "properties": {"name": "9259-LANCIER-MARTHELINE", "lon": 5.397126739923842, "status": "OPEN", "stands": 1, "bikes": 14, "update": "2016-02-06T13:10:27", "lat": 43.24759828978683, "address": "LANCIER MARTHELINE - ANGLE CHEMIN DU LANCIER ET AVENUE DE LA  MARTHELINE"}, "type": "Feature"}, {"geometry": {"coordinates": [5.39631317835792, 43.28936342586655], "type": "Point"}, "properties": {"name": "5284 - BAILLE-HOPITAL-CONCEPTION", "lon": 5.39631317835792, "status": "OPEN", "stands": 12, "bikes": 1, "update": "2016-02-06T13:10:59", "lat": 43.28936342586655, "address": "BAILLE HOPITAL CONCEPTION - BOULEVARD BAILLE FACE A L'ENTREE PRINCIPALE DE L'HOPITAL DE LA CONCEPTION"}, "type": "Feature"}, {"geometry": {"coordinates": [5.372302255725486, 43.301805741199246], "type": "Point"}, "properties": {"name": "2240-DAMES - TERRAS", "lon": 5.372302255725486, "status": "OPEN", "stands": 7, "bikes": 2, "update": "2016-02-06T13:10:52", "lat": 43.301805741199246, "address": "DAMES TERRAS - BOULEVARD DES DAMES ANGLE RUE DU TERRAS"}, "type": "Feature"}, {"geometry": {"coordinates": [5.374740047327954, 43.29924603474944], "type": "Point"}, "properties": {"name": "1302-COLBERT -SAINTE BARBE", "lon": 5.374740047327954, "status": "OPEN", "stands": 3, "bikes": 8, "update": "2016-02-06T13:15:11", "lat": 43.29924603474944, "address": "COLBERT SAINTE BARBE - RUE COLBERT ANGLE RUE SAINTE BARBE"}, "type": "Feature"}, {"geometry": {"coordinates": [5.355962903211387, 43.28985620147398], "type": "Point"}, "properties": {"name": "7026-CATALANS CORNICHE", "lon": 5.355962903211387, "status": "OPEN", "stands": 1, "bikes": 14, "update": "2016-02-06T13:14:39", "lat": 43.28985620147398, "address": "CATALANS CORNICHE - 69 CORNICHE J.F. KENNEDY ANGLE RUE DES CATALANS"}, "type": "Feature"}, {"geometry": {"coordinates": [5.3707713851323, 43.2961387765145], "type": "Point"}, "properties": {"name": "1002-HOTEL DE VILLE", "lon": 5.3707713851323, "status": "OPEN", "stands": 16, "bikes": 15, "update": "2016-02-06T13:15:12", "lat": 43.2961387765145, "address": "HOTEL DE VILLE - Face au 42 QUAI DU PORT"}, "type": "Feature"}, {"geometry": {"coordinates": [5.385593763617925, 43.284775983612235], "type": "Point"}, "properties": {"name": "6176-CANTINI ROUET", "lon": 5.385593763617925, "status": "OPEN", "stands": 24, "bikes": 0, "update": "2016-02-06T13:07:45", "lat": 43.284775983612235, "address": "CANTINI ROUET - FACE AU 27 AVENUE JULES CANTINI"}, "type": "Feature"}, {"geometry": {"coordinates": [5.369716218117023, 43.30179774806541], "type": "Point"}, "properties": {"name": "2304 - R\u00c9PUBLIQUE MOISSON", "lon": 5.369716218117023, "status": "OPEN", "stands": 6, "bikes": 4, "update": "2016-02-06T13:14:23", "lat": 43.30179774806541, "address": "REPUBLIQUE MOISSON - RUE DE LA REPUBLIQUE ANGLE RUE FRANCOIS MOISSON"}, "type": "Feature"}, {"geometry": {"coordinates": [5.37693066220596, 43.29620767061392], "type": "Point"}, "properties": {"name": "1191-CANEBIERE-ST FERREOL", "lon": 5.37693066220596, "status": "OPEN", "stands": 3, "bikes": 7, "update": "2016-02-06T13:12:54", "lat": 43.29620767061392, "address": "CANEBIERE SAINT FERREOL - ANGLE CANEBIERE SAINT FERREOL"}, "type": "Feature"}, {"geometry": {"coordinates": [5.384138435260716, 43.292604598053984], "type": "Point"}, "properties": {"name": "6114-JULIEN BARTHELEMY", "lon": 5.384138435260716, "status": "OPEN", "stands": 7, "bikes": 2, "update": "2016-02-06T13:08:24", "lat": 43.292604598053984, "address": "JULIEN BARTHELEMY - 9 RUE 3 FRERES BARTHELEMY"}, "type": "Feature"}, {"geometry": {"coordinates": [5.392179383331833, 43.30143187524121], "type": "Point"}, "properties": {"name": "2222-151 LIBERATION", "lon": 5.392179383331833, "status": "OPEN", "stands": 8, "bikes": 2, "update": "2016-02-06T13:07:02", "lat": 43.30143187524121, "address": "151 LIBERATION - 151 BOULEVARD DE LA LIBERATION"}, "type": "Feature"}, {"geometry": {"coordinates": [5.383955032544848, 43.30236655745069], "type": "Point"}, "properties": {"name": "1299- ST CHARLES VOLTAIRE LIBERT\u00c9", "lon": 5.383955032544848, "status": "OPEN", "stands": 6, "bikes": 11, "update": "2016-02-06T13:15:58", "lat": 43.30236655745069, "address": "SAINT CHARLES VOLTAIRE LIBERTE - BOULEVARD VOLTAIRE ANGLE BOULEVARD DE LA LIBERTE"}, "type": "Feature"}, {"geometry": {"coordinates": [5.375131220340518, 43.294774773558274], "type": "Point"}, "properties": {"name": "1211-BEAUVAU - SUFFREN", "lon": 5.375131220340518, "status": "OPEN", "stands": 0, "bikes": 9, "update": "2016-02-06T13:15:43", "lat": 43.294774773558274, "address": "BEAUVAU SUFFREN - RUE BEAUVAU ANGLE RUE BAILLI DE SUFFREN"}, "type": "Feature"}, {"geometry": {"coordinates": [5.36291062831879, 43.2984594666424], "type": "Point"}, "properties": {"name": "2200-MUCEM", "lon": 5.36291062831879, "status": "OPEN", "stands": 1, "bikes": 25, "update": "2016-02-06T13:15:27", "lat": 43.2984594666424, "address": "Bd du Littoral, 100 m avant le Mucem, devant l\u2019entr\u00e9e du parking Vieux Port Fort St Jean, direction vieux port"}, "type": "Feature"}, {"geometry": {"coordinates": [5.385047448641554, 43.29952097558015], "type": "Point"}, "properties": {"name": "1287- STALINGRAD - R\u00c9FORM\u00c9S", "lon": 5.385047448641554, "status": "OPEN", "stands": 3, "bikes": 14, "update": "2016-02-06T13:16:00", "lat": 43.29952097558015, "address": "STALINGRAD REFORMES - SQUARE STALINGRAD"}, "type": "Feature"}, {"geometry": {"coordinates": [5.390405906592448, 43.274352269730755], "type": "Point"}, "properties": {"name": "8308-PRADO LATIL", "lon": 5.390405906592448, "status": "OPEN", "stands": 10, "bikes": 0, "update": "2016-02-06T13:07:00", "lat": 43.274352269730755, "address": "PRADO LATIL - 247 AVENUE DU PRADO"}, "type": "Feature"}, {"geometry": {"coordinates": [5.385552216536626, 43.26869900851042], "type": "Point"}, "properties": {"name": "8202-397 PRADO", "lon": 5.385552216536626, "status": "OPEN", "stands": 9, "bikes": 4, "update": "2016-02-06T13:11:01", "lat": 43.26869900851042, "address": "397 PRADO - 397 AVENUE DU PRADO"}, "type": "Feature"}, {"geometry": {"coordinates": [5.39024943158741, 43.30958891338201], "type": "Point"}, "properties": {"name": "3321 - BELLE DE MAI FRICHE", "lon": 5.39024943158741, "status": "OPEN", "stands": 12, "bikes": 3, "update": "2016-02-06T13:12:50", "lat": 43.30958891338201, "address": "BELLE DE MAI FRICHE - ANGLE RUE GUIBAL ET RUE JOBIN"}, "type": "Feature"}, {"geometry": {"coordinates": [5.381324, 43.290022], "type": "Point"}, "properties": {"name": "06253 - ROME SYLVABELLE", "lon": 5.381324, "status": "OPEN", "stands": 6, "bikes": 3, "update": "2016-02-06T13:16:21", "lat": 43.290022, "address": "angle rue de rome rue sylvabelle"}, "type": "Feature"}, {"geometry": {"coordinates": [5.375548341850035, 43.290329770206334], "type": "Point"}, "properties": {"name": "6154-PIERRE PUGET BRETEUIL", "lon": 5.375548341850035, "status": "OPEN", "stands": 5, "bikes": 3, "update": "2016-02-06T13:14:44", "lat": 43.290329770206334, "address": "PIERRE PUGET BRETEUIL - COURS PIERRE PUGET ANGLE RUE BRETEUIL"}, "type": "Feature"}, {"geometry": {"coordinates": [5.381132215559973, 43.29789631329341], "type": "Point"}, "properties": {"name": "1264 - CANEBI\u00c8RE DUGOMMIER", "lon": 5.381132215559973, "status": "OPEN", "stands": 0, "bikes": 9, "update": "2016-02-06T13:12:03", "lat": 43.29789631329341, "address": "CANEBIERE DUGOMMIER - LA CANEBIERE ANGLE BOULEVARD DUGOMMIER"}, "type": "Feature"}, {"geometry": {"coordinates": [5.392112767343369, 43.284456097132846], "type": "Point"}, "properties": {"name": "6206-TOULON - MENPENTI", "lon": 5.392112767343369, "status": "OPEN", "stands": 13, "bikes": 3, "update": "2016-02-06T13:12:52", "lat": 43.284456097132846, "address": "TOULON MENPENTI - ANGLE AVENUE DE TOULON ET RUE MENPENTI"}, "type": "Feature"}, {"geometry": {"coordinates": [5.390871390171412, 43.295363145406], "type": "Point"}, "properties": {"name": "5104-CHAVE EUG\u00c8NE PIERRE", "lon": 5.390871390171412, "status": "OPEN", "stands": 5, "bikes": 5, "update": "2016-02-06T13:14:07", "lat": 43.295363145406, "address": "CHAVE EUGENE PIERRE - BOULEVARD CHAVE ANGLE BOULEVARD EUGENE PIERRE"}, "type": "Feature"}, {"geometry": {"coordinates": [5.39960982405674, 43.2902407800378], "type": "Point"}, "properties": {"name": "5106-JEAN MOULIN BAILLE", "lon": 5.39960982405674, "status": "OPEN", "stands": 14, "bikes": 1, "update": "2016-02-06T13:15:04", "lat": 43.2902407800378, "address": "JEAN MOULIN BAILLE - BOULEVARD JEAN  MOULIN ANGLE BOULEVARD BAILLE"}, "type": "Feature"}, {"geometry": {"coordinates": [5.388799115293999, 43.29899195650368], "type": "Point"}, "properties": {"name": "5220-ROOSEVELT - ORAN", "lon": 5.388799115293999, "status": "OPEN", "stands": 9, "bikes": 1, "update": "2016-02-06T13:13:33", "lat": 43.29899195650368, "address": "ROOSEVELT ORAN - 53 COURS FRANKLIN ROOSEVELT ANGLE RUE D'ORAN"}, "type": "Feature"}, {"geometry": {"coordinates": [5.388799649683594, 43.27654702249427], "type": "Point"}, "properties": {"name": "8309- PRADO DUVEEN", "lon": 5.388799649683594, "status": "OPEN", "stands": 8, "bikes": 10, "update": "2016-02-06T13:14:56", "lat": 43.27654702249427, "address": "PRADO DUVEEN - 72 AVENUE DU PRADO"}, "type": "Feature"}, {"geometry": {"coordinates": [5.389387542314263, 43.269318556371154], "type": "Point"}, "properties": {"name": "8265- N\u00c9GRESKO - PAULET", "lon": 5.389387542314263, "status": "OPEN", "stands": 2, "bikes": 13, "update": "2016-02-06T13:15:53", "lat": 43.269318556371154, "address": "NEGRESKO PAULET - FACE AU 42 RUE NEGRESKO"}, "type": "Feature"}, {"geometry": {"coordinates": [5.366730359523051, 43.30331167287617], "type": "Point"}, "properties": {"name": "2032- DAMES  SCHUMANN", "lon": 5.366730359523051, "status": "OPEN", "stands": 11, "bikes": 2, "update": "2016-02-06T13:08:00", "lat": 43.30331167287617, "address": "DAMES SCHUMANN - 96 BOULEVARD DES DAMES"}, "type": "Feature"}, {"geometry": {"coordinates": [5.36370990786361, 43.28946760889984], "type": "Point"}, "properties": {"name": "7153-CORSE ST MAURICE", "lon": 5.36370990786361, "status": "OPEN", "stands": 7, "bikes": 3, "update": "2016-02-06T13:08:47", "lat": 43.28946760889984, "address": "CORSE SAINT MAURICE - 28 AVENUE DE LA CORSE ANGLE RAMPE SAINT MAURICE"}, "type": "Feature"}, {"geometry": {"coordinates": [5.374447484757423, 43.24789994774334], "type": "Point"}, "properties": {"name": "8078-VIEILLE CHAPELLE", "lon": 5.374447484757423, "status": "OPEN", "stands": 7, "bikes": 13, "update": "2016-02-06T13:12:47", "lat": 43.24789994774334, "address": "VIEILLE CHAPELLE - 35 AVENUE DE LA POINTE ROUGE"}, "type": "Feature"}, {"geometry": {"coordinates": [5.385996090720193, 43.29582518327951], "type": "Point"}, "properties": {"name": "1224-PLAINE - BIBLIOTHEQUE", "lon": 5.385996090720193, "status": "OPEN", "stands": 16, "bikes": 0, "update": "2016-02-06T13:08:37", "lat": 43.29582518327951, "address": "PLAINE BIBLIOTHEQUE - 45 RUE DE LA BIBLIOTHEQUE"}, "type": "Feature"}, {"geometry": {"coordinates": [5.401127142110414, 43.29952274790985], "type": "Point"}, "properties": {"name": "4022-SAKAKINI FOCH", "lon": 5.401127142110414, "status": "OPEN", "stands": 7, "bikes": 4, "update": "2016-02-06T13:14:01", "lat": 43.29952274790985, "address": "SAKAKINI FOCH - BOULAVARD SAKAKINI ANGLE AVENUE MARECHAL FOCH"}, "type": "Feature"}, {"geometry": {"coordinates": [5.373546945382951, 43.291357465205536], "type": "Point"}, "properties": {"name": "1213-GRIGNAN - MARCELLE PAUL", "lon": 5.373546945382951, "status": "OPEN", "stands": 9, "bikes": 1, "update": "2016-02-06T13:14:31", "lat": 43.291357465205536, "address": "GRIGNAN MARCELLE PAUL - RUE GRIGNAN ANGLE RUE DE LA PAIX MARCELLE PAUL"}, "type": "Feature"}], "type": "FeatureCollection"}