{"features": [{"geometry": {"coordinates": [5.403244616491982, 43.250903869637334], "type": "Point"}, "type": "Feature", "properties": {"status": "OPEN", "lon": 5.403244616491982, "stands": 3, "address": "MAZARGUES - ROND POINT DE MAZARGUES (OBELISQUE)", "name": "9087-MAZARGUES", "bikes": 18, "update": "2016-02-07T19:53:50", "lat": 43.250903869637334}}, {"geometry": {"coordinates": [5.379895702048497, 43.301510278747365], "type": "Point"}, "type": "Feature", "properties": {"status": "OPEN", "lon": 5.379895702048497, "stands": 19, "address": "SAINT CHARLES MARSEILLAISES - PLACE DES MARSEILLAISES ANGLE RUE PHILIPPE DE GIRARD", "name": "1301- ST CHARLES MARSEILLAISES", "bikes": 0, "update": "2016-02-07T19:56:15", "lat": 43.301510278747365}}, {"geometry": {"coordinates": [5.379650236474981, 43.2896832563691], "type": "Point"}, "type": "Feature", "properties": {"status": "OPEN", "lon": 5.379650236474981, "stands": 15, "address": "ROSTAND PREFECTURE - 6 RUE EDMOND ROSTAND ANGLE RUE SYLVABELLE", "name": "6217-ROSTAND - PREFECTURE", "bikes": 0, "update": "2016-02-07T19:48:49", "lat": 43.2896832563691}}, {"geometry": {"coordinates": [5.370488134608402, 43.30056201196652], "type": "Point"}, "type": "Feature", "properties": {"status": "OPEN", "lon": 5.370488134608402, "stands": 6, "address": "REPUBLIQUE CATHALA - RUE DE LA REPUBLIQUE ANGLE RUE JEAN MARC CATHALA", "name": "2184-REPUBLIQUE-CATHALA", "bikes": 3, "update": "2016-02-07T19:53:29", "lat": 43.30056201196652}}, {"geometry": {"coordinates": [5.36651, 43.308731], "type": "Point"}, "type": "Feature", "properties": {"status": "OPEN", "lon": 5.36651, "stands": 5, "address": "SOUS A55 AU BOUT DES DOCKS FACE AU 22 QUAI DU LAZARET 13002", "name": "02279 - DOCKS LES TERRASSES DU PORT", "bikes": 17, "update": "2016-02-07T19:55:47", "lat": 43.308731}}, {"geometry": {"coordinates": [5.386356771062651, 43.30353946127941], "type": "Point"}, "type": "Feature", "properties": {"status": "OPEN", "lon": 5.386356771062651, "stands": 7, "address": "FLAMMARION NATIONAL - BOULEVARD CAMILLE FLAMMARION ANGLE BOULEVARD NATIONAL", "name": "1344 - FLAMMARION NATIONAL", "bikes": 0, "update": "2016-02-07T19:53:44", "lat": 43.30353946127941}}, {"geometry": {"coordinates": [5.36697414687028, 43.3051302607768], "type": "Point"}, "type": "Feature", "properties": {"status": "OPEN", "lon": 5.36697414687028, "stands": 0, "address": "JOLIETTE DUNKERQUE - PLACE DE LA JOLIETTE ANGLE BOULEVARD DUNKERQUE", "name": "2272- JOLIETTE-DUNKERQUE", "bikes": 14, "update": "2016-02-07T19:55:55", "lat": 43.3051302607768}}, {"geometry": {"coordinates": [5.375795816171145, 43.262455920908494], "type": "Point"}, "type": "Feature", "properties": {"status": "OPEN", "lon": 5.375795816171145, "stands": 4, "address": "PRADO BORELY - 579 AVENUE DU PRADO", "name": "8068-PRADO BORELY", "bikes": 4, "update": "2016-02-07T19:52:10", "lat": 43.262455920908494}}, {"geometry": {"coordinates": [5.394684906357751, 43.302008143688155], "type": "Point"}, "type": "Feature", "properties": {"status": "OPEN", "lon": 5.394684906357751, "stands": 12, "address": "LIBERATION CHAPE ESPERANDIEU - BOULAVARD LIBERATION ANGLE RUE CHAPE", "name": "4238-LIBERATION-CHAPE-ESPERANDIEU", "bikes": 0, "update": "2016-02-07T19:51:37", "lat": 43.302008143688155}}, {"geometry": {"coordinates": [5.371867606488009, 43.29312239728256], "type": "Point"}, "type": "Feature", "properties": {"status": "OPEN", "lon": 5.371867606488009, "stands": 0, "address": "PLACE AUX HUILES - COURS ESTIENNE D'ORVES ANGLE RUE SAINT SAENS", "name": "1003-PLACE AUX HUILES", "bikes": 10, "update": "2016-02-07T19:54:55", "lat": 43.29312239728256}}, {"geometry": {"coordinates": [5.375905974276691, 43.292666663006464], "type": "Point"}, "type": "Feature", "properties": {"status": "OPEN", "lon": 5.375905974276691, "stands": 3, "address": "SAINTE LULLI - 17 RUE SAINTE", "name": "1216-SAINTE - LULLI", "bikes": 12, "update": "2016-02-07T19:46:23", "lat": 43.292666663006464}}, {"geometry": {"coordinates": [5.366479730277853, 43.28923675488644], "type": "Point"}, "type": "Feature", "properties": {"status": "OPEN", "lon": 5.366479730277853, "stands": 11, "address": "ENDOUME CORDERIE - 41 RUE D'ENDOUME", "name": "7215-ENDOUME - CORDERIE", "bikes": 2, "update": "2016-02-07T19:53:27", "lat": 43.28923675488644}}, {"geometry": {"coordinates": [5.36552550703358, 43.295414354264665], "type": "Point"}, "type": "Feature", "properties": {"status": "OPEN", "lon": 5.36552550703358, "stands": 1, "address": "QUAI DU PORT - 148 QUAI DU PORT", "name": "2179-QUAI DU PORT", "bikes": 14, "update": "2016-02-07T19:47:59", "lat": 43.295414354264665}}, {"geometry": {"coordinates": [5.402740962235228, 43.2693522531282], "type": "Point"}, "type": "Feature", "properties": {"status": "OPEN", "lon": 5.402740962235228, "stands": 3, "address": "SCHLOESSING TEISSERE - ANGLE BOULEVARD SCHLOESSING ET RUE RAYMOND TEISSERE", "name": "9085-SCHLOESING TEISSERE", "bikes": 13, "update": "2016-02-07T19:47:46", "lat": 43.2693522531282}}, {"geometry": {"coordinates": [5.379124641857261, 43.289985879061746], "type": "Point"}, "type": "Feature", "properties": {"status": "OPEN", "lon": 5.379124641857261, "stands": 9, "address": "PAUL PEYTRAL - 35 BOULEVARD PAUL PEYTRAL", "name": "6100-PAUL PEYTRAL", "bikes": 0, "update": "2016-02-07T19:51:16", "lat": 43.289985879061746}}, {"geometry": {"coordinates": [5.401873594694653, 43.25402727813068], "type": "Point"}, "type": "Feature", "properties": {"status": "OPEN", "lon": 5.401873594694653, "stands": 18, "address": "391 MICHELET - 391 BOULEVARD MICHELET", "name": "8149-391 MICHELET", "bikes": 1, "update": "2016-02-07T19:56:04", "lat": 43.25402727813068}}, {"geometry": {"coordinates": [5.399686062414487, 43.27252367086013], "type": "Point"}, "type": "Feature", "properties": {"status": "OPEN", "lon": 5.399686062414487, "stands": 0, "address": "TEISSEIRE ROUBAUD - ANGLE RUE RAYMOND TEISSEIRE ET RUE MAGUY ROUBAUD", "name": "9207- TEISSEIRE - ROUBAUD", "bikes": 10, "update": "2016-02-07T19:52:50", "lat": 43.27252367086013}}, {"geometry": {"coordinates": [5.383105742132375, 43.28892000857008], "type": "Point"}, "type": "Feature", "properties": {"status": "OPEN", "lon": 5.383105742132375, "stands": 12, "address": "ROME ITALIE BERLIOZ - FACE AU 10 RUE BERLIOZ", "name": "6254-ROME - BERLIOZ - ITALIE", "bikes": 2, "update": "2016-02-07T19:47:19", "lat": 43.28892000857008}}, {"geometry": {"coordinates": [5.3901483781149, 43.304681870508325], "type": "Point"}, "type": "Feature", "properties": {"status": "OPEN", "lon": 5.3901483781149, "stands": 15, "address": "FLAMMARION GROBET - BOULEVARD CAMILLE FLAMMARION ANGLE RUE LOUIS GROBET", "name": "1343 - FLAMMARION GROBET", "bikes": 0, "update": "2016-02-07T19:49:30", "lat": 43.304681870508325}}, {"geometry": {"coordinates": [5.387779642713593, 43.2886166717576], "type": "Point"}, "type": "Feature", "properties": {"status": "OPEN", "lon": 5.387779642713593, "stands": 15, "address": "LODI VILLAGE - FACE AU 89 RUE DE LODI", "name": "6113-LODI VILLAGE", "bikes": 0, "update": "2016-02-07T19:51:21", "lat": 43.2886166717576}}, {"geometry": {"coordinates": [5.387773261785004, 43.30123319837804], "type": "Point"}, "type": "Feature", "properties": {"status": "OPEN", "lon": 5.387773261785004, "stands": 14, "address": "NATIONAL LONGCHAMP - 1 BD NATIONAL ANGLE LONGCHAMP", "name": "1130- NATIONAL LONGCHAMP", "bikes": 1, "update": "2016-02-07T19:47:11", "lat": 43.30123319837804}}, {"geometry": {"coordinates": [5.365239906973955, 43.270172262619184], "type": "Point"}, "type": "Feature", "properties": {"status": "OPEN", "lon": 5.365239906973955, "stands": 11, "address": "CORNICHE RAPATRIES - CORNICHE J.F. KENNEDY FACE AU MEMORIAL DES RAPATRIES EN DIRECTION DU VIEUX PORT", "name": "7142-CORNICHE RAPATRIES", "bikes": 4, "update": "2016-02-07T19:52:22", "lat": 43.270172262619184}}, {"geometry": {"coordinates": [5.393967016838425, 43.26796549967643], "type": "Point"}, "type": "Feature", "properties": {"status": "OPEN", "lon": 5.393967016838425, "stands": 1, "address": "MICHELET HUVEAUNE - ANGLE BOULEVARD MICHELET ET RUE JACQUES PICON", "name": "8147 - MICHELET HUVEAUNE", "bikes": 14, "update": "2016-02-07T19:53:05", "lat": 43.26796549967643}}, {"geometry": {"coordinates": [5.387375678428276, 43.31181964585524], "type": "Point"}, "type": "Feature", "properties": {"status": "OPEN", "lon": 5.387375678428276, "stands": 8, "address": "BELLE DE MAI CADENAT - PLACE BERNARD CADENAT", "name": "3320 - BELLE DE MAI CADENAT", "bikes": 7, "update": "2016-02-07T19:47:10", "lat": 43.31181964585524}}, {"geometry": {"coordinates": [5.38678589001619, 43.2865946021474], "type": "Point"}, "type": "Feature", "properties": {"status": "OPEN", "lon": 5.38678589001619, "stands": 13, "address": "BAILLE FRIEDLAND - BOULEVARD BAILLE ANGLE RUE DE FRIEDLAND", "name": "6177-BAILLE FRIEDLAND", "bikes": 4, "update": "2016-02-07T19:47:34", "lat": 43.2865946021474}}, {"geometry": {"coordinates": [5.39166970262158, 43.2722414899425], "type": "Point"}, "type": "Feature", "properties": {"status": "OPEN", "lon": 5.39166970262158, "stands": 1, "address": "Parvis entr\u00e9e parc Chanot", "name": "8307-PRADO MICHELET", "bikes": 19, "update": "2016-02-07T19:49:00", "lat": 43.2722414899425}}, {"geometry": {"coordinates": [5.397731278573822, 43.29748821146523], "type": "Point"}, "type": "Feature", "properties": {"status": "OPEN", "lon": 5.397731278573822, "stands": 13, "address": "RUE GEORGES - 28 RUE GEORGES", "name": "5103-RUE GEORGES", "bikes": 1, "update": "2016-02-07T19:47:10", "lat": 43.29748821146523}}, {"geometry": {"coordinates": [5.38661231791721, 43.29908095432929], "type": "Point"}, "type": "Feature", "properties": {"status": "OPEN", "lon": 5.38661231791721, "stands": 8, "address": "ROOSEVELT REFORMES - 7 COURS FRANKLIN ROOSEVELT", "name": "1230-ROOSEVELT - REFORMES", "bikes": 2, "update": "2016-02-07T19:49:31", "lat": 43.29908095432929}}, {"geometry": {"coordinates": [5.377690136115547, 43.30380276644441], "type": "Point"}, "type": "Feature", "properties": {"status": "OPEN", "lon": 5.377690136115547, "stands": 11, "address": "SAINT CHARLES LECLERC ZATTARA - AVENUE DU GENERAL LECLERC ANGLE RUE ANTOINE ZATTARA", "name": "1345 - SAINT CHARLES LECLERC ZATTARA", "bikes": 1, "update": "2016-02-07T19:49:43", "lat": 43.30380276644441}}, {"geometry": {"coordinates": [5.396409806138883, 43.27524269246836], "type": "Point"}, "type": "Feature", "properties": {"status": "OPEN", "lon": 5.396409806138883, "stands": 1, "address": "RABATAU TEISSEIRE - ANGLE BOULEVARD RABATAU ET FACE AU 68 RUE RAYMOND TEISSEIRE", "name": "8257-RABATAU - TEISSEIRE", "bikes": 14, "update": "2016-02-07T19:56:10", "lat": 43.27524269246836}}, {"geometry": {"coordinates": [5.373860886192452, 43.296824934966864], "type": "Point"}, "type": "Feature", "properties": {"status": "OPEN", "lon": 5.373860886192452, "stands": 0, "address": "REPUBLIQUE COUTELLERIE - RUE DE LA REPUBLIQUE ANGLE RUE DE LA COUTELLERIE", "name": "1346- REPUBLIQUE COUTELLERIE", "bikes": 8, "update": "2016-02-07T19:50:45", "lat": 43.296824934966864}}, {"geometry": {"coordinates": [5.378423799723321, 43.293485736186526], "type": "Point"}, "type": "Feature", "properties": {"status": "OPEN", "lon": 5.378423799723321, "stands": 9, "address": "ST FERREOL DAVSO - RUE FRANCIS DAVSO ANGLE RUE SAINT FERREOL", "name": "1297- ST F\u00c9RR\u00c9OL DAVSO", "bikes": 7, "update": "2016-02-07T19:53:22", "lat": 43.293485736186526}}, {"geometry": {"coordinates": [5.398913930872658, 43.25850879475187], "type": "Point"}, "type": "Feature", "properties": {"status": "OPEN", "lon": 5.398913930872658, "stands": 0, "address": "MICHELET LUCE - ANGLE BOULEVARD MICHELET ET BOULEVARD LUCE", "name": "9074-MICHELET LUCE", "bikes": 14, "update": "2016-02-07T19:52:36", "lat": 43.25850879475187}}, {"geometry": {"coordinates": [5.38545312564012, 43.29441078214159], "type": "Point"}, "type": "Feature", "properties": {"status": "OPEN", "lon": 5.38545312564012, "stands": 12, "address": "LA PLAINE SUD - RUE DES TROIS MAGES ANGLE PLACE JEAN JAURES", "name": "1228-LA PLAINE SUD", "bikes": 2, "update": "2016-02-07T19:53:55", "lat": 43.29441078214159}}, {"geometry": {"coordinates": [5.39403885378465, 43.28872669088929], "type": "Point"}, "type": "Feature", "properties": {"status": "OPEN", "lon": 5.39403885378465, "stands": 10, "address": "BAILLE CONCEPTION  - 145 BOULEVARD BAILLE", "name": "5107-BAILLE CONCEPTION", "bikes": 1, "update": "2016-02-07T19:52:28", "lat": 43.28872669088929}}, {"geometry": {"coordinates": [5.369497428189588, 43.30255028371949], "type": "Point"}, "type": "Feature", "properties": {"status": "OPEN", "lon": 5.369497428189588, "stands": 0, "address": "RPUBLIQUE DAMES - 68 BOULEVARD DES DAMES", "name": "2030-REPUBLIQUE DAMES", "bikes": 5, "update": "2016-02-07T19:48:32", "lat": 43.30255028371949}}, {"geometry": {"coordinates": [5.401285286456447, 43.292800863545835], "type": "Point"}, "type": "Feature", "properties": {"status": "OPEN", "lon": 5.401285286456447, "stands": 10, "address": "SAKAKINI SAINT PIERRE - BOULEVARD SAKAKINI ANGLE RUE SAINT PIERRE", "name": "5058 -SAKAKINI - SAINT PIERRE", "bikes": 0, "update": "2016-02-07T19:48:37", "lat": 43.292800863545835}}, {"geometry": {"coordinates": [5.3586207351308, 43.2884327278463], "type": "Point"}, "type": "Feature", "properties": {"status": "OPEN", "lon": 5.3586207351308, "stands": 8, "address": "2 RUE CAPITAINE DESSEMOND", "name": "7027-PLACE DU 4 SEPTEMBRE", "bikes": 6, "update": "2016-02-07T19:54:51", "lat": 43.2884327278463}}, {"geometry": {"coordinates": [5.386461522334788, 43.28350144850817], "type": "Point"}, "type": "Feature", "properties": {"status": "OPEN", "lon": 5.386461522334788, "stands": 13, "address": "ROUET - 48 RUE DU ROUET", "name": "6208-ROUET", "bikes": 2, "update": "2016-02-07T19:50:38", "lat": 43.28350144850817}}, {"geometry": {"coordinates": [5.370835093727862, 43.29780955608182], "type": "Point"}, "type": "Feature", "properties": {"status": "OPEN", "lon": 5.370835093727862, "stands": 0, "address": "GRAND RUE - FACE AU 35 GRAND'RUE", "name": "2012-GRAND RUE", "bikes": 20, "update": "2016-02-07T19:52:08", "lat": 43.29780955608182}}, {"geometry": {"coordinates": [5.375339514183368, 43.295686109850145], "type": "Point"}, "type": "Feature", "properties": {"status": "OPEN", "lon": 5.375339514183368, "stands": 0, "address": "CANEBIERE REINE ELISABETH - CANEBIERE ANGLE REINE ELISABETH", "name": "1001 - CANEBIERE REINE ELISABETH", "bikes": 12, "update": "2016-02-07T19:53:29", "lat": 43.295686109850145}}, {"geometry": {"coordinates": [5.37599738915791, 43.25394372546869], "type": "Point"}, "type": "Feature", "properties": {"status": "OPEN", "lon": 5.37599738915791, "stands": 6, "address": "ESCALE BORELY POINTE ROUGE - ESCALE BORELY EN DIRECTION DE L'AVENUE POINTE ROUGE", "name": "8144-ESCALE BORELY POINTE ROUGE", "bikes": 4, "update": "2016-02-07T19:55:33", "lat": 43.25394372546869}}, {"geometry": {"coordinates": [5.38279581908046, 43.2668438148239], "type": "Point"}, "type": "Feature", "properties": {"status": "OPEN", "lon": 5.38279581908046, "stands": 6, "address": "PRADO GABES - AVENUE DU PRADO ANGLE BD DE GABES", "name": "8067-PRADO GABES", "bikes": 9, "update": "2016-02-07T19:49:19", "lat": 43.2668438148239}}, {"geometry": {"coordinates": [5.349696475467313, 43.284213979400505], "type": "Point"}, "type": "Feature", "properties": {"status": "OPEN", "lon": 5.349696475467313, "stands": 0, "address": "88 CORNICHE KENNEDY - 88 CORNICHE J.F. KENNEDY", "name": "7062-88 CORNICHE - KENNEDY", "bikes": 15, "update": "2016-02-07T19:47:56", "lat": 43.284213979400505}}, {"geometry": {"coordinates": [5.375165446771129, 43.29542125608577], "type": "Point"}, "type": "Feature", "properties": {"status": "OPEN", "lon": 5.375165446771129, "stands": 0, "address": "BEAUVAU CANEBIERE - RUE BEAUVAU", "name": "1210-BEAUVAU - CANEBIERE", "bikes": 15, "update": "2016-02-07T19:52:33", "lat": 43.29542125608577}}, {"geometry": {"coordinates": [5.383285575102103, 43.286046362122946], "type": "Point"}, "type": "Feature", "properties": {"status": "OPEN", "lon": 5.383285575102103, "stands": 19, "address": "CASTELLANE - ROND POINT CASTELLANE DEVANT LE CAFE DE PARIS", "name": "6023- CASTELLANE", "bikes": 0, "update": "2016-02-07T19:54:11", "lat": 43.286046362122946}}, {"geometry": {"coordinates": [5.406000803377506, 43.29626340517055], "type": "Point"}, "type": "Feature", "properties": {"status": "OPEN", "lon": 5.406000803377506, "stands": 14, "address": "BLANCARDE - GARE DE LA BLANCARDE", "name": "4293- BLANCARDE", "bikes": 0, "update": "2016-02-07T19:55:40", "lat": 43.29626340517055}}, {"geometry": {"coordinates": [5.366506599649465, 43.23984252335505], "type": "Point"}, "type": "Feature", "properties": {"status": "OPEN", "lon": 5.366506599649465, "stands": 10, "address": "PARC PASTRE - ANGLE AVENUE DE MONTREDON ET AVENUE D'OUTRE MER", "name": "8313- PARC PASTRE", "bikes": 0, "update": "2016-02-07T19:47:20", "lat": 43.23984252335505}}, {"geometry": {"coordinates": [5.38299269172725, 43.2921244873688], "type": "Point"}, "type": "Feature", "properties": {"status": "OPEN", "lon": 5.38299269172725, "stands": 10, "address": "LIEUTAUD JULIEN - FACE AU 20 BOULEVARD THEODORE THURNER", "name": "6237-LIEUTAUD JULIEN", "bikes": 0, "update": "2016-02-07T19:53:58", "lat": 43.2921244873688}}, {"geometry": {"coordinates": [5.381500046726694, 43.29902793826475], "type": "Point"}, "type": "Feature", "properties": {"status": "OPEN", "lon": 5.381500046726694, "stands": 3, "address": "GAMBETTA LAFAYETTE - 6 ALLEES LEON GAMBETTA", "name": "1245-GAMBETTA - LAFAYETTE", "bikes": 12, "update": "2016-02-07T19:49:10", "lat": 43.29902793826475}}, {"geometry": {"coordinates": [5.373281108125947, 43.26469407213291], "type": "Point"}, "type": "Feature", "properties": {"status": "OPEN", "lon": 5.373281108125947, "stands": 1, "address": "PROMENADE POMPIDOU AMIRAL MUSELIER - PROMENADE GEORGES POMPIDOU DEVANT LA PLACE AMIRAL MUSELIER", "name": "8132-PROMENADE POMPIDOU AMIRAL MUSELIER", "bikes": 14, "update": "2016-02-07T19:56:13", "lat": 43.26469407213291}}, {"geometry": {"coordinates": [5.376413023650641, 43.25505597847173], "type": "Point"}, "type": "Feature", "properties": {"status": "OPEN", "lon": 5.376413023650641, "stands": 8, "address": "ESCALE BORELY - ANGLE ESCALE BORELY ET AVENUE BONNEVEINE", "name": "8145-ESCALE BORELY", "bikes": 12, "update": "2016-02-07T12:58:12", "lat": 43.25505597847173}}, {"geometry": {"coordinates": [5.400635371105712, 43.268405140653144], "type": "Point"}, "type": "Feature", "properties": {"status": "OPEN", "lon": 5.400635371105712, "stands": 0, "address": "PUGETTE ANDRE - ANGLE AVENUE DU GENERAL ANDRE FACE AU 23 BOULEVARD DE LA PUGETTE", "name": "9219-PUGETTE - ANDRE", "bikes": 15, "update": "2016-02-07T19:47:31", "lat": 43.268405140653144}}, {"geometry": {"coordinates": [5.391048744484495, 43.27278734452526], "type": "Point"}, "type": "Feature", "properties": {"status": "OPEN", "lon": 5.391048744484495, "stands": 0, "address": "ROND POINT DU PRADO - 300 AVENUE DU PRADO", "name": "8134-ROND POINT DU PRADO", "bikes": 20, "update": "2016-02-07T19:51:34", "lat": 43.27278734452526}}, {"geometry": {"coordinates": [5.36771555892562, 43.3047137105911], "type": "Point"}, "type": "Feature", "properties": {"status": "OPEN", "lon": 5.36771555892562, "stands": 0, "address": "JOLIETTE FORBIN - PLACE DE LA JOLIETTE ANGLE RUE DE FORBIN", "name": "2341- JOLIETTE FORBIN", "bikes": 15, "update": "2016-02-07T19:54:01", "lat": 43.3047137105911}}, {"geometry": {"coordinates": [5.374505152575336, 43.26178202177259], "type": "Point"}, "type": "Feature", "properties": {"status": "OPEN", "lon": 5.374505152575336, "stands": 0, "address": "PROMENADE POMPIDOU DAVID -  PROMENADE GEORGES POMPIDOU AU NIVEAU DU ROND POINT DE DAVID", "name": "8131-PROMENADE POMPIDOU DAVID", "bikes": 15, "update": "2016-02-07T19:52:51", "lat": 43.26178202177259}}, {"geometry": {"coordinates": [5.379450180172236, 43.28683835122117], "type": "Point"}, "type": "Feature", "properties": {"status": "OPEN", "lon": 5.379450180172236, "stands": 13, "address": "153 PARADIS - 153 RUE PARADIS", "name": "6160-153 PARADIS", "bikes": 1, "update": "2016-02-07T19:46:45", "lat": 43.28683835122117}}, {"geometry": {"coordinates": [5.398630311705657, 43.301185515493664], "type": "Point"}, "type": "Feature", "properties": {"status": "OPEN", "lon": 5.398630311705657, "stands": 18, "address": "FOCH FAYOLLE - ANGLE AVENUE MARECHAL FOCH ET RUE MARECHAL FAYOLLE", "name": "4111-FOCH FAYOLLE", "bikes": 1, "update": "2016-02-07T19:53:45", "lat": 43.301185515493664}}, {"geometry": {"coordinates": [5.37224035119238, 43.30598895681527], "type": "Point"}, "type": "Feature", "properties": {"status": "OPEN", "lon": 5.37224035119238, "stands": 12, "address": "FORBIN PARIS - RUE DE FORBIN ANGLE BOULEVARD DE PARIS", "name": "2323 -FORBIN PARIS", "bikes": 1, "update": "2016-02-07T19:53:37", "lat": 43.30598895681527}}, {"geometry": {"coordinates": [5.39517783172075, 43.25096285100345], "type": "Point"}, "type": "Feature", "properties": {"status": "OPEN", "lon": 5.39517783172075, "stands": 8, "address": "MAZARGUES ALMERAS - ANGLE AVENUE DE MAZARGUES ET IMPASSE ALMERAS", "name": "9260- MAZARGUES - ALMERAS", "bikes": 5, "update": "2016-02-07T19:48:33", "lat": 43.25096285100345}}, {"geometry": {"coordinates": [5.367786407891749, 43.304190155898155], "type": "Point"}, "type": "Feature", "properties": {"status": "OPEN", "lon": 5.367786407891749, "stands": 0, "address": "REPUBLIQUE PLUMIER - RUE DE LA REPUBLIQUE ANGLE RUE PLUMIER", "name": "2327- R\u00c9PUBLIQUE PLUMIER", "bikes": 10, "update": "2016-02-07T19:48:09", "lat": 43.304190155898155}}, {"geometry": {"coordinates": [5.377103061958931, 43.297138004748], "type": "Point"}, "type": "Feature", "properties": {"status": "OPEN", "lon": 5.377103061958931, "stands": 1, "address": "CENTRE BOURSE - RUE BIR HAKEIM ENTREE CENTRE BOURSE", "name": "1005-CENTRE BOURSE", "bikes": 14, "update": "2016-02-07T19:51:51", "lat": 43.297138004748}}, {"geometry": {"coordinates": [5.360224853219125, 43.29224532184672], "type": "Point"}, "type": "Feature", "properties": {"status": "OPEN", "lon": 5.360224853219125, "stands": 14, "address": "LIVON VIEUX PORT - 36 BOULEVARD CHARLES LIVON", "name": "7146-LIVON VIEUX PORT", "bikes": 1, "update": "2016-02-07T19:47:52", "lat": 43.29224532184672}}, {"geometry": {"coordinates": [5.391331392803749, 43.287814455889425], "type": "Point"}, "type": "Feature", "properties": {"status": "OPEN", "lon": 5.391331392803749, "stands": 6, "address": "BAILLE PAURIOL - 114 BOULEVARD BAILLE ANGLE RUE PAURIOL", "name": "5024-BAILLE PAURIOL", "bikes": 1, "update": "2016-02-07T19:48:11", "lat": 43.287814455889425}}, {"geometry": {"coordinates": [5.374638177288532, 43.29336790915692], "type": "Point"}, "type": "Feature", "properties": {"status": "OPEN", "lon": 5.374638177288532, "stands": 0, "address": "COURS JEAN BALLARD - 5 COURS JEAN BALLARD", "name": "1006-COURS JEAN BALLARD", "bikes": 10, "update": "2016-02-07T19:47:49", "lat": 43.29336790915692}}, {"geometry": {"coordinates": [5.384455147739253, 43.275618147775035], "type": "Point"}, "type": "Feature", "properties": {"status": "OPEN", "lon": 5.384455147739253, "stands": 10, "address": "PARADIS LORD DUVEEN - 395 RUE PARADIS", "name": "8246-PARADIS - LORD DUVEEN", "bikes": 0, "update": "2016-02-07T19:54:58", "lat": 43.275618147775035}}, {"geometry": {"coordinates": [5.387431047255536, 43.27974214607358], "type": "Point"}, "type": "Feature", "properties": {"status": "OPEN", "lon": 5.387431047255536, "stands": 5, "address": "PRADO PERIER - 127 AVENUE DU PRADO", "name": "8053-PRADO - PERIER", "bikes": 8, "update": "2016-02-07T19:46:25", "lat": 43.27974214607358}}, {"geometry": {"coordinates": [5.37544360265886, 43.260217853801166], "type": "Point"}, "type": "Feature", "properties": {"status": "OPEN", "lon": 5.37544360265886, "stands": 1, "address": "MENDES FRANCE HUVEAUNE - AVENUE PEIRRE MENDES FRANCE DEVANT L'ENTREE DU PARC BORELY", "name": "8066-MENDES FRANCE HUVEAUNE", "bikes": 17, "update": "2016-02-07T19:46:19", "lat": 43.260217853801166}}, {"geometry": {"coordinates": [5.393973899334583, 43.260699609117914], "type": "Point"}, "type": "Feature", "properties": {"status": "OPEN", "lon": 5.393973899334583, "stands": 0, "address": "318 MAZARGUES - FACE AU 318 AVENUE DE MAZARGUES", "name": "8261- 318 MAZARGUES", "bikes": 15, "update": "2016-02-07T19:50:48", "lat": 43.260699609117914}}, {"geometry": {"coordinates": [5.37602674729877, 43.29494730625887], "type": "Point"}, "type": "Feature", "properties": {"status": "OPEN", "lon": 5.37602674729877, "stands": 0, "address": "GENERAL DE GAULLE PARADIS - PLACE GENERAL DE GAULLE FACE AU 11 RUE PARADIS", "name": "1004-GENERAL DE GAULLE PARADIS", "bikes": 10, "update": "2016-02-07T19:55:35", "lat": 43.29494730625887}}, {"geometry": {"coordinates": [5.372259932395231, 43.29076433240633], "type": "Point"}, "type": "Feature", "properties": {"status": "OPEN", "lon": 5.372259932395231, "stands": 14, "address": "PLACE CORDERIE - AU CENTRE DE LA PLACE CORDERIE", "name": "6020-PLACE DE LA CORDERIE", "bikes": 0, "update": "2016-02-07T19:52:59", "lat": 43.29076433240633}}, {"geometry": {"coordinates": [5.396312199117862, 43.29581102315005], "type": "Point"}, "type": "Feature", "properties": {"status": "OPEN", "lon": 5.396312199117862, "stands": 11, "address": "CHAVE CAMAS - BOULEVARD CHAVE ANGLE RUE DU CAMAS", "name": "5280-CHAVE CAMAS", "bikes": 2, "update": "2016-02-07T19:49:41", "lat": 43.29581102315005}}, {"geometry": {"coordinates": [5.370540756635374, 43.243802055963265], "type": "Point"}, "type": "Feature", "properties": {"status": "OPEN", "lon": 5.370540756635374, "stands": 0, "address": "POINTE ROUGE MONTREDON - ANGLE AVENUE ODESSA ET AVENUE MONTREDON", "name": "8290- POINTE ROUGE - MONTREDON", "bikes": 17, "update": "2016-02-07T19:51:52", "lat": 43.243802055963265}}, {"geometry": {"coordinates": [5.392402358314715, 43.263999455764186], "type": "Point"}, "type": "Feature", "properties": {"status": "OPEN", "lon": 5.392402358314715, "stands": 2, "address": "MAZARGUES BARRAL - ANGLE AVENUE DE MAZARGUES ET BOULEVARD BARRAL", "name": "8262-MAZARGUES-BARRAL", "bikes": 10, "update": "2016-02-07T19:53:52", "lat": 43.263999455764186}}, {"geometry": {"coordinates": [5.378292250179226, 43.304244359587024], "type": "Point"}, "type": "Feature", "properties": {"status": "OPEN", "lon": 5.378292250179226, "stands": 15, "address": "SAINT CHARLES FACULTE - BOULEVARD GUSTAVE DESPLACES ANGLE AVENUE DU GENERAL LECLERC", "name": "1316 -ST CHARLES FACULT\u00c9", "bikes": 0, "update": "2016-02-07T19:53:25", "lat": 43.304244359587024}}, {"geometry": {"coordinates": [5.357823161216201, 43.29198908246378], "type": "Point"}, "type": "Feature", "properties": {"status": "OPEN", "lon": 5.357823161216201, "stands": 19, "address": "LIVON PASTEUR - BOULEVARD CHARLES LIVON ANGLE ESPLANADE DU PHARO", "name": "7025-LIVON PASTEUR", "bikes": 1, "update": "2016-02-07T19:48:22", "lat": 43.29198908246378}}, {"geometry": {"coordinates": [5.389298285180646, 43.30050650960441], "type": "Point"}, "type": "Feature", "properties": {"status": "OPEN", "lon": 5.389298285180646, "stands": 10, "address": "91 LIBERATION - 91 BOULEVARD DE LA LIBERATION", "name": "2221-91 LIB\u00c9RATION", "bikes": 0, "update": "2016-02-07T19:53:33", "lat": 43.30050650960441}}, {"geometry": {"coordinates": [5.372088524255505, 43.267272515671856], "type": "Point"}, "type": "Feature", "properties": {"status": "OPEN", "lon": 5.372088524255505, "stands": 3, "address": "PROMENADE POMPIDOU PALM BEACH - 6 PROMENADE GEORGES POMPIDOU", "name": "8065-PROMENADE POMPIDOU PALM BEACH", "bikes": 12, "update": "2016-02-07T19:55:41", "lat": 43.267272515671856}}, {"geometry": {"coordinates": [5.399877070301781, 43.29570956843267], "type": "Point"}, "type": "Feature", "properties": {"status": "OPEN", "lon": 5.399877070301781, "stands": 11, "address": "SAKAKINI CHAVE - 236 BOULEVARD CHAVE EN DIRECTION DE SAKAKINI", "name": "5060-SAKAKINI CHAVE", "bikes": 1, "update": "2016-02-07T19:56:05", "lat": 43.29570956843267}}, {"geometry": {"coordinates": [5.386273779435491, 43.26954179693142], "type": "Point"}, "type": "Feature", "properties": {"status": "OPEN", "lon": 5.386273779435491, "stands": 3, "address": "PRADO PARADIS - 390 AVENUE DU PRADO", "name": "8255-PRADO - PARADIS", "bikes": 6, "update": "2016-02-07T19:51:57", "lat": 43.26954179693142}}, {"geometry": {"coordinates": [5.397216233775408, 43.298680879912176], "type": "Point"}, "type": "Feature", "properties": {"status": "OPEN", "lon": 5.397216233775408, "stands": 10, "address": "PLACE SEBASTOPOL - 20 PLACE SEBASTOPOL", "name": "4057-PLACE SEBASTOPOL", "bikes": 0, "update": "2016-02-07T19:52:43", "lat": 43.298680879912176}}, {"geometry": {"coordinates": [5.389411648303773, 43.249867874570256], "type": "Point"}, "type": "Feature", "properties": {"status": "OPEN", "lon": 5.389411648303773, "stands": 5, "address": "HAMBOURG RONT POINT GUERRE - BOULEVARD DE HAMBOURG ANGLE ROND POINT PIERRE GUERRE", "name": "8093-HAMBOURG ROND POINT GUERRE", "bikes": 10, "update": "2016-02-07T19:50:16", "lat": 43.249867874570256}}, {"geometry": {"coordinates": [5.350628425025786, 43.28250633472905], "type": "Point"}, "type": "Feature", "properties": {"status": "OPEN", "lon": 5.350628425025786, "stands": 1, "address": "CORNICHE ENDOUME - 126 CORNICHE J.F. KENNEDY", "name": "7138-CORNICHE  ENDOUME", "bikes": 14, "update": "2016-02-07T19:56:17", "lat": 43.28250633472905}}, {"geometry": {"coordinates": [5.393678259953781, 43.305993453766845], "type": "Point"}, "type": "Feature", "properties": {"status": "OPEN", "lon": 5.393678259953781, "stands": 10, "address": "FLAMMARION MONTRICHET - PLACE LE VERRIER ANGLE BD FLAMMARION ET  BD MONTRICHET", "name": "4342 - FLAMMARION MONTRICHET", "bikes": 0, "update": "2016-02-07T19:47:48", "lat": 43.305993453766845}}, {"geometry": {"coordinates": [5.382390401095631, 43.29562159175117], "type": "Point"}, "type": "Feature", "properties": {"status": "OPEN", "lon": 5.382390401095631, "stands": 7, "address": "JULIEN 3 MAGES - COURS JULIEN ANGLE RUE DES TROIS MAGES", "name": "1275- JULIEN - 3 MAGES", "bikes": 0, "update": "2016-02-07T19:53:17", "lat": 43.29562159175117}}, {"geometry": {"coordinates": [5.39109605124139, 43.28292930261343], "type": "Point"}, "type": "Feature", "properties": {"status": "OPEN", "lon": 5.39109605124139, "stands": 9, "address": "DELPUECH CORINTHE - 29 BOULEVARD DELPUECH", "name": "6187-DELPUECH CORINTHE", "bikes": 6, "update": "2016-02-07T19:50:24", "lat": 43.28292930261343}}, {"geometry": {"coordinates": [5.371370384862697, 43.291634709693945], "type": "Point"}, "type": "Feature", "properties": {"status": "OPEN", "lon": 5.371370384862697, "stands": 5, "address": "SAINTE NOTRE DAME - 70 RUE SAINTE ANGLE RUE FORT NOTRE DAME", "name": "7212-SAINTE - NOTRE DAME", "bikes": 4, "update": "2016-02-07T19:55:46", "lat": 43.291634709693945}}, {"geometry": {"coordinates": [5.386729879719248, 43.293880006338135], "type": "Point"}, "type": "Feature", "properties": {"status": "OPEN", "lon": 5.386729879719248, "stands": 17, "address": "PLAINE ST PIERRE - RUE SAINT PIERRE ANGLE PLACE JEAN JAURES", "name": "1226-PLAINE-ST PIERRE", "bikes": 0, "update": "2016-02-07T19:46:30", "lat": 43.293880006338135}}, {"geometry": {"coordinates": [5.359258014511654, 43.290716834278136], "type": "Point"}, "type": "Feature", "properties": {"status": "OPEN", "lon": 5.359258014511654, "stands": 10, "address": "PASTEUR - 25 AVENUE PASTEUR", "name": "7151-PASTEUR", "bikes": 6, "update": "2016-02-07T19:53:28", "lat": 43.290716834278136}}, {"geometry": {"coordinates": [5.397126739923842, 43.24759828978683], "type": "Point"}, "type": "Feature", "properties": {"status": "OPEN", "lon": 5.397126739923842, "stands": 1, "address": "LANCIER MARTHELINE - ANGLE CHEMIN DU LANCIER ET AVENUE DE LA  MARTHELINE", "name": "9259-LANCIER-MARTHELINE", "bikes": 14, "update": "2016-02-07T19:47:09", "lat": 43.24759828978683}}, {"geometry": {"coordinates": [5.39631317835792, 43.28936342586655], "type": "Point"}, "type": "Feature", "properties": {"status": "OPEN", "lon": 5.39631317835792, "stands": 12, "address": "BAILLE HOPITAL CONCEPTION - BOULEVARD BAILLE FACE A L'ENTREE PRINCIPALE DE L'HOPITAL DE LA CONCEPTION", "name": "5284 - BAILLE-HOPITAL-CONCEPTION", "bikes": 1, "update": "2016-02-07T19:54:08", "lat": 43.28936342586655}}, {"geometry": {"coordinates": [5.372302255725486, 43.301805741199246], "type": "Point"}, "type": "Feature", "properties": {"status": "OPEN", "lon": 5.372302255725486, "stands": 5, "address": "DAMES TERRAS - BOULEVARD DES DAMES ANGLE RUE DU TERRAS", "name": "2240-DAMES - TERRAS", "bikes": 4, "update": "2016-02-07T19:46:18", "lat": 43.301805741199246}}, {"geometry": {"coordinates": [5.374740047327954, 43.29924603474944], "type": "Point"}, "type": "Feature", "properties": {"status": "OPEN", "lon": 5.374740047327954, "stands": 0, "address": "COLBERT SAINTE BARBE - RUE COLBERT ANGLE RUE SAINTE BARBE", "name": "1302-COLBERT -SAINTE BARBE", "bikes": 11, "update": "2016-02-07T19:50:01", "lat": 43.29924603474944}}, {"geometry": {"coordinates": [5.355962903211387, 43.28985620147398], "type": "Point"}, "type": "Feature", "properties": {"status": "OPEN", "lon": 5.355962903211387, "stands": 4, "address": "CATALANS CORNICHE - 69 CORNICHE J.F. KENNEDY ANGLE RUE DES CATALANS", "name": "7026-CATALANS CORNICHE", "bikes": 11, "update": "2016-02-07T19:55:22", "lat": 43.28985620147398}}, {"geometry": {"coordinates": [5.3707713851323, 43.2961387765145], "type": "Point"}, "type": "Feature", "properties": {"status": "OPEN", "lon": 5.3707713851323, "stands": 1, "address": "HOTEL DE VILLE - Face au 42 QUAI DU PORT", "name": "1002-HOTEL DE VILLE", "bikes": 30, "update": "2016-02-07T19:55:57", "lat": 43.2961387765145}}, {"geometry": {"coordinates": [5.385593763617925, 43.284775983612235], "type": "Point"}, "type": "Feature", "properties": {"status": "OPEN", "lon": 5.385593763617925, "stands": 24, "address": "CANTINI ROUET - FACE AU 27 AVENUE JULES CANTINI", "name": "6176-CANTINI ROUET", "bikes": 0, "update": "2016-02-07T19:48:05", "lat": 43.284775983612235}}, {"geometry": {"coordinates": [5.369716218117023, 43.30179774806541], "type": "Point"}, "type": "Feature", "properties": {"status": "OPEN", "lon": 5.369716218117023, "stands": 1, "address": "REPUBLIQUE MOISSON - RUE DE LA REPUBLIQUE ANGLE RUE FRANCOIS MOISSON", "name": "2304 - R\u00c9PUBLIQUE MOISSON", "bikes": 9, "update": "2016-02-07T19:47:15", "lat": 43.30179774806541}}, {"geometry": {"coordinates": [5.37693066220596, 43.29620767061392], "type": "Point"}, "type": "Feature", "properties": {"status": "OPEN", "lon": 5.37693066220596, "stands": 0, "address": "CANEBIERE SAINT FERREOL - ANGLE CANEBIERE SAINT FERREOL", "name": "1191-CANEBIERE-ST FERREOL", "bikes": 10, "update": "2016-02-07T19:55:03", "lat": 43.29620767061392}}, {"geometry": {"coordinates": [5.384138435260716, 43.292604598053984], "type": "Point"}, "type": "Feature", "properties": {"status": "OPEN", "lon": 5.384138435260716, "stands": 8, "address": "JULIEN BARTHELEMY - 9 RUE 3 FRERES BARTHELEMY", "name": "6114-JULIEN BARTHELEMY", "bikes": 1, "update": "2016-02-07T19:48:37", "lat": 43.292604598053984}}, {"geometry": {"coordinates": [5.392179383331833, 43.30143187524121], "type": "Point"}, "type": "Feature", "properties": {"status": "OPEN", "lon": 5.392179383331833, "stands": 10, "address": "151 LIBERATION - 151 BOULEVARD DE LA LIBERATION", "name": "2222-151 LIBERATION", "bikes": 0, "update": "2016-02-07T19:47:45", "lat": 43.30143187524121}}, {"geometry": {"coordinates": [5.383955032544848, 43.30236655745069], "type": "Point"}, "type": "Feature", "properties": {"status": "OPEN", "lon": 5.383955032544848, "stands": 13, "address": "SAINT CHARLES VOLTAIRE LIBERTE - BOULEVARD VOLTAIRE ANGLE BOULEVARD DE LA LIBERTE", "name": "1299- ST CHARLES VOLTAIRE LIBERT\u00c9", "bikes": 3, "update": "2016-02-07T19:50:52", "lat": 43.30236655745069}}, {"geometry": {"coordinates": [5.375131220340518, 43.294774773558274], "type": "Point"}, "type": "Feature", "properties": {"status": "OPEN", "lon": 5.375131220340518, "stands": 0, "address": "BEAUVAU SUFFREN - RUE BEAUVAU ANGLE RUE BAILLI DE SUFFREN", "name": "1211-BEAUVAU - SUFFREN", "bikes": 9, "update": "2016-02-07T19:55:50", "lat": 43.294774773558274}}, {"geometry": {"coordinates": [5.36291062831879, 43.2984594666424], "type": "Point"}, "type": "Feature", "properties": {"status": "OPEN", "lon": 5.36291062831879, "stands": 9, "address": "Bd du Littoral, 100 m avant le Mucem, devant l\u2019entr\u00e9e du parking Vieux Port Fort St Jean, direction vieux port", "name": "2200-MUCEM", "bikes": 17, "update": "2016-02-07T19:48:00", "lat": 43.2984594666424}}, {"geometry": {"coordinates": [5.385047448641554, 43.29952097558015], "type": "Point"}, "type": "Feature", "properties": {"status": "OPEN", "lon": 5.385047448641554, "stands": 14, "address": "STALINGRAD REFORMES - SQUARE STALINGRAD", "name": "1287- STALINGRAD - R\u00c9FORM\u00c9S", "bikes": 3, "update": "2016-02-07T19:55:32", "lat": 43.29952097558015}}, {"geometry": {"coordinates": [5.390405906592448, 43.274352269730755], "type": "Point"}, "type": "Feature", "properties": {"status": "OPEN", "lon": 5.390405906592448, "stands": 5, "address": "PRADO LATIL - 247 AVENUE DU PRADO", "name": "8308-PRADO LATIL", "bikes": 5, "update": "2016-02-07T19:53:21", "lat": 43.274352269730755}}, {"geometry": {"coordinates": [5.385552216536626, 43.26869900851042], "type": "Point"}, "type": "Feature", "properties": {"status": "OPEN", "lon": 5.385552216536626, "stands": 11, "address": "397 PRADO - 397 AVENUE DU PRADO", "name": "8202-397 PRADO", "bikes": 2, "update": "2016-02-07T19:50:34", "lat": 43.26869900851042}}, {"geometry": {"coordinates": [5.39024943158741, 43.30958891338201], "type": "Point"}, "type": "Feature", "properties": {"status": "OPEN", "lon": 5.39024943158741, "stands": 15, "address": "BELLE DE MAI FRICHE - ANGLE RUE GUIBAL ET RUE JOBIN", "name": "3321 - BELLE DE MAI FRICHE", "bikes": 0, "update": "2016-02-07T19:47:21", "lat": 43.30958891338201}}, {"geometry": {"coordinates": [5.381324, 43.290022], "type": "Point"}, "type": "Feature", "properties": {"status": "OPEN", "lon": 5.381324, "stands": 9, "address": "angle rue de rome rue sylvabelle", "name": "06253 - ROME SYLVABELLE", "bikes": 0, "update": "2016-02-07T19:52:19", "lat": 43.290022}}, {"geometry": {"coordinates": [5.375548341850035, 43.290329770206334], "type": "Point"}, "type": "Feature", "properties": {"status": "OPEN", "lon": 5.375548341850035, "stands": 3, "address": "PIERRE PUGET BRETEUIL - COURS PIERRE PUGET ANGLE RUE BRETEUIL", "name": "6154-PIERRE PUGET BRETEUIL", "bikes": 5, "update": "2016-02-07T19:53:06", "lat": 43.290329770206334}}, {"geometry": {"coordinates": [5.381132215559973, 43.29789631329341], "type": "Point"}, "type": "Feature", "properties": {"status": "OPEN", "lon": 5.381132215559973, "stands": 0, "address": "CANEBIERE DUGOMMIER - LA CANEBIERE ANGLE BOULEVARD DUGOMMIER", "name": "1264 - CANEBI\u00c8RE DUGOMMIER", "bikes": 9, "update": "2016-02-07T19:46:33", "lat": 43.29789631329341}}, {"geometry": {"coordinates": [5.392112767343369, 43.284456097132846], "type": "Point"}, "type": "Feature", "properties": {"status": "OPEN", "lon": 5.392112767343369, "stands": 13, "address": "TOULON MENPENTI - ANGLE AVENUE DE TOULON ET RUE MENPENTI", "name": "6206-TOULON - MENPENTI", "bikes": 3, "update": "2016-02-07T19:52:43", "lat": 43.284456097132846}}, {"geometry": {"coordinates": [5.390871390171412, 43.295363145406], "type": "Point"}, "type": "Feature", "properties": {"status": "OPEN", "lon": 5.390871390171412, "stands": 10, "address": "CHAVE EUGENE PIERRE - BOULEVARD CHAVE ANGLE BOULEVARD EUGENE PIERRE", "name": "5104-CHAVE EUG\u00c8NE PIERRE", "bikes": 0, "update": "2016-02-07T19:47:08", "lat": 43.295363145406}}, {"geometry": {"coordinates": [5.39960982405674, 43.2902407800378], "type": "Point"}, "type": "Feature", "properties": {"status": "OPEN", "lon": 5.39960982405674, "stands": 14, "address": "JEAN MOULIN BAILLE - BOULEVARD JEAN  MOULIN ANGLE BOULEVARD BAILLE", "name": "5106-JEAN MOULIN BAILLE", "bikes": 1, "update": "2016-02-07T19:51:14", "lat": 43.2902407800378}}, {"geometry": {"coordinates": [5.388799115293999, 43.29899195650368], "type": "Point"}, "type": "Feature", "properties": {"status": "OPEN", "lon": 5.388799115293999, "stands": 9, "address": "ROOSEVELT ORAN - 53 COURS FRANKLIN ROOSEVELT ANGLE RUE D'ORAN", "name": "5220-ROOSEVELT - ORAN", "bikes": 1, "update": "2016-02-07T19:47:27", "lat": 43.29899195650368}}, {"geometry": {"coordinates": [5.388799649683594, 43.27654702249427], "type": "Point"}, "type": "Feature", "properties": {"status": "OPEN", "lon": 5.388799649683594, "stands": 8, "address": "PRADO DUVEEN - 72 AVENUE DU PRADO", "name": "8309- PRADO DUVEEN", "bikes": 10, "update": "2016-02-07T19:55:07", "lat": 43.27654702249427}}, {"geometry": {"coordinates": [5.389387542314263, 43.269318556371154], "type": "Point"}, "type": "Feature", "properties": {"status": "OPEN", "lon": 5.389387542314263, "stands": 12, "address": "NEGRESKO PAULET - FACE AU 42 RUE NEGRESKO", "name": "8265- N\u00c9GRESKO - PAULET", "bikes": 3, "update": "2016-02-07T19:50:11", "lat": 43.269318556371154}}, {"geometry": {"coordinates": [5.366730359523051, 43.30331167287617], "type": "Point"}, "type": "Feature", "properties": {"status": "OPEN", "lon": 5.366730359523051, "stands": 1, "address": "DAMES SCHUMANN - 96 BOULEVARD DES DAMES", "name": "2032- DAMES  SCHUMANN", "bikes": 12, "update": "2016-02-07T19:52:38", "lat": 43.30331167287617}}, {"geometry": {"coordinates": [5.36370990786361, 43.28946760889984], "type": "Point"}, "type": "Feature", "properties": {"status": "OPEN", "lon": 5.36370990786361, "stands": 9, "address": "CORSE SAINT MAURICE - 28 AVENUE DE LA CORSE ANGLE RAMPE SAINT MAURICE", "name": "7153-CORSE ST MAURICE", "bikes": 1, "update": "2016-02-07T19:52:17", "lat": 43.28946760889984}}, {"geometry": {"coordinates": [5.374447484757423, 43.24789994774334], "type": "Point"}, "type": "Feature", "properties": {"status": "OPEN", "lon": 5.374447484757423, "stands": 3, "address": "VIEILLE CHAPELLE - 35 AVENUE DE LA POINTE ROUGE", "name": "8078-VIEILLE CHAPELLE", "bikes": 17, "update": "2016-02-07T19:48:49", "lat": 43.24789994774334}}, {"geometry": {"coordinates": [5.385996090720193, 43.29582518327951], "type": "Point"}, "type": "Feature", "properties": {"status": "OPEN", "lon": 5.385996090720193, "stands": 15, "address": "PLAINE BIBLIOTHEQUE - 45 RUE DE LA BIBLIOTHEQUE", "name": "1224-PLAINE - BIBLIOTHEQUE", "bikes": 1, "update": "2016-02-07T19:51:09", "lat": 43.29582518327951}}, {"geometry": {"coordinates": [5.401127142110414, 43.29952274790985], "type": "Point"}, "type": "Feature", "properties": {"status": "OPEN", "lon": 5.401127142110414, "stands": 11, "address": "SAKAKINI FOCH - BOULAVARD SAKAKINI ANGLE AVENUE MARECHAL FOCH", "name": "4022-SAKAKINI FOCH", "bikes": 0, "update": "2016-02-07T19:50:27", "lat": 43.29952274790985}}, {"geometry": {"coordinates": [5.373546945382951, 43.291357465205536], "type": "Point"}, "type": "Feature", "properties": {"status": "OPEN", "lon": 5.373546945382951, "stands": 8, "address": "GRIGNAN MARCELLE PAUL - RUE GRIGNAN ANGLE RUE DE LA PAIX MARCELLE PAUL", "name": "1213-GRIGNAN - MARCELLE PAUL", "bikes": 2, "update": "2016-02-07T19:51:09", "lat": 43.291357465205536}}], "type": "FeatureCollection"}