{"type": "FeatureCollection", "features": [{"type": "Feature", "geometry": {"type": "Point", "coordinates": [-93.256551, 44.984892]}, "properties": {"name": "100 Main Street SE", "lon": -93.256551, "lat": 44.984892, "status": "CLOSED", "stands": 27, "update": "2015-11-04T12:04:04", "address": "100 Main Street SE", "bikes": 0}}, {"type": "Feature", "geometry": {"type": "Point", "coordinates": [-93.223374, 44.957341]}, "properties": {"name": "25th Street & 33rd Ave S", "lon": -93.223374, "lat": 44.957341, "status": "CLOSED", "stands": 15, "update": "2015-11-02T15:35:25", "address": "25th Street & 33rd Ave S", "bikes": 0}}, {"type": "Feature", "geometry": {"type": "Point", "coordinates": [-93.240149, 44.967115]}, "properties": {"name": "Riverside Ave & 23rd Ave S", "lon": -93.240149, "lat": 44.967115, "status": "CLOSED", "stands": 15, "update": "2015-11-02T17:49:24", "address": "Riverside Ave & 23rd Ave S", "bikes": 0}}, {"type": "Feature", "geometry": {"type": "Point", "coordinates": [-93.306269, 44.991412]}, "properties": {"name": "Plymouth Ave N &  N Oliver Ave", "lon": -93.306269, "lat": 44.991412, "status": "CLOSED", "stands": 15, "update": "2015-11-03T12:02:28", "address": "Plymouth Ave N &  N Oliver Ave", "bikes": 0}}, {"type": "Feature", "geometry": {"type": "Point", "coordinates": [-93.27869, 44.97534]}, "properties": {"name": "11th Street & Hennepin", "lon": -93.27869, "lat": 44.97534, "status": "CLOSED", "stands": 23, "update": "2015-11-02T20:11:46", "address": "11th Street & Hennepin", "bikes": 0}}, {"type": "Feature", "geometry": {"type": "Point", "coordinates": [-93.25392, 44.98889]}, "properties": {"name": "Hennepin & Central Avenue NE", "lon": -93.25392, "lat": 44.98889, "status": "CLOSED", "stands": 15, "update": "2015-11-03T12:02:59", "address": "Hennepin & Central Avenue NE", "bikes": 0}}, {"type": "Feature", "geometry": {"type": "Point", "coordinates": [-93.276435, 44.972217]}, "properties": {"name": "YWCA Downtown", "lon": -93.276435, "lat": 44.972217, "status": "CLOSED", "stands": 23, "update": "2015-11-05T12:03:53", "address": "YWCA Downtown", "bikes": 0}}, {"type": "Feature", "geometry": {"type": "Point", "coordinates": [-93.26872, 44.97265]}, "properties": {"name": "9th Street & 4th Ave", "lon": -93.26872, "lat": 44.97265, "status": "CLOSED", "stands": 19, "update": "2015-11-02T17:36:26", "address": "9th Street & 4th Ave", "bikes": 0}}, {"type": "Feature", "geometry": {"type": "Point", "coordinates": [-93.2602, 44.94859]}, "properties": {"name": "Midtown Exchange", "lon": -93.2602, "lat": 44.94859, "status": "CLOSED", "stands": 19, "update": "2015-11-02T16:50:41", "address": "Midtown Exchange", "bikes": 0}}, {"type": "Feature", "geometry": {"type": "Point", "coordinates": [-93.23746, 44.98102]}, "properties": {"name": "4th Street & 13th Ave SE", "lon": -93.23746, "lat": 44.98102, "status": "CLOSED", "stands": 19, "update": "2015-11-04T12:04:16", "address": "4th Street & 13th Ave SE", "bikes": 0}}, {"type": "Feature", "geometry": {"type": "Point", "coordinates": [-93.28305, 44.97391]}, "properties": {"name": "Hennepin & Laurel Ave", "lon": -93.28305, "lat": 44.97391, "status": "CLOSED", "stands": 15, "update": "2015-11-02T20:06:54", "address": "Hennepin & Laurel Ave", "bikes": 0}}, {"type": "Feature", "geometry": {"type": "Point", "coordinates": [-93.272459, 44.986087]}, "properties": {"name": "North 2nd Street & 4th Ave N", "lon": -93.272459, "lat": 44.986087, "status": "CLOSED", "stands": 19, "update": "2015-11-03T16:25:14", "address": "North 2nd Street & 4th Ave N", "bikes": 0}}, {"type": "Feature", "geometry": {"type": "Point", "coordinates": [-93.275861, 44.970041]}, "properties": {"name": "Mpls Convention Center", "lon": -93.275861, "lat": 44.970041, "status": "CLOSED", "stands": 19, "update": "2015-11-03T12:02:31", "address": "Mpls Convention Center", "bikes": 0}}, {"type": "Feature", "geometry": {"type": "Point", "coordinates": [-93.288227319717, 44.949484653766]}, "properties": {"name": "Lyndale Ave S & W 29th Street", "lon": -93.288227319717, "lat": 44.949484653766, "status": "CLOSED", "stands": 19, "update": "2015-11-03T12:00:33", "address": "Lyndale Ave S & W 29th Street", "bikes": 0}}, {"type": "Feature", "geometry": {"type": "Point", "coordinates": [-93.241042, 44.96293]}, "properties": {"name": "22nd Ave S & Franklin Ave", "lon": -93.241042, "lat": 44.96293, "status": "CLOSED", "stands": 15, "update": "2015-11-02T17:04:42", "address": "22nd Ave S & Franklin Ave", "bikes": 0}}, {"type": "Feature", "geometry": {"type": "Point", "coordinates": [-93.24748, 44.97344]}, "properties": {"name": "Washington & Cedar", "lon": -93.24748, "lat": 44.97344, "status": "CLOSED", "stands": 20, "update": "2015-11-02T12:03:06", "address": "Washington & Cedar", "bikes": 0}}, {"type": "Feature", "geometry": {"type": "Point", "coordinates": [-93.28848, 44.96746]}, "properties": {"name": "Walker Art Center", "lon": -93.28848, "lat": 44.96746, "status": "CLOSED", "stands": 17, "update": "2015-11-04T18:12:24", "address": "Walker Art Center", "bikes": 0}}, {"type": "Feature", "geometry": {"type": "Point", "coordinates": [-93.28815, 44.960744]}, "properties": {"name": "Lyndale Ave S & 22nd Street ", "lon": -93.28815, "lat": 44.960744, "status": "CLOSED", "stands": 19, "update": "2015-11-02T18:36:19", "address": "Lyndale Ave S & 22nd Street ", "bikes": 0}}, {"type": "Feature", "geometry": {"type": "Point", "coordinates": [-93.274981, 44.957214]}, "properties": {"name": "MCAD", "lon": -93.274981, "lat": 44.957214, "status": "CLOSED", "stands": 17, "update": "2015-11-04T18:44:19", "address": "MCAD", "bikes": 0}}, {"type": "Feature", "geometry": {"type": "Point", "coordinates": [-93.243754, 44.971359]}, "properties": {"name": "Social Sciences", "lon": -93.243754, "lat": 44.971359, "status": "CLOSED", "stands": 28, "update": "2015-11-04T12:01:02", "address": "Social Sciences", "bikes": 0}}, {"type": "Feature", "geometry": {"type": "Point", "coordinates": [-93.29853, 44.95131]}, "properties": {"name": "YWCA Uptown", "lon": -93.29853, "lat": 44.95131, "status": "CLOSED", "stands": 19, "update": "2015-11-03T12:00:35", "address": "YWCA Uptown", "bikes": 0}}, {"type": "Feature", "geometry": {"type": "Point", "coordinates": [-93.27099, 44.98383]}, "properties": {"name": "Washington & 2nd Ave N", "lon": -93.27099, "lat": 44.98383, "status": "CLOSED", "stands": 19, "update": "2015-11-03T17:01:37", "address": "Washington & 2nd Ave N", "bikes": 0}}, {"type": "Feature", "geometry": {"type": "Point", "coordinates": [-93.28775, 44.95548]}, "properties": {"name": "26th Street & Lyndale", "lon": -93.28775, "lat": 44.95548, "status": "CLOSED", "stands": 15, "update": "2015-11-02T20:50:58", "address": "26th Street & Lyndale", "bikes": 0}}, {"type": "Feature", "geometry": {"type": "Point", "coordinates": [-93.26259, 44.95355]}, "properties": {"name": "Chicago & 27th Street", "lon": -93.26259, "lat": 44.95355, "status": "CLOSED", "stands": 15, "update": "2015-11-02T16:57:05", "address": "Chicago & 27th Street", "bikes": 0}}, {"type": "Feature", "geometry": {"type": "Point", "coordinates": [-93.234762, 44.973378]}, "properties": {"name": "Coffman Union", "lon": -93.234762, "lat": 44.973378, "status": "CLOSED", "stands": 3, "update": "2015-11-03T19:21:58", "address": "Coffman Union", "bikes": 0}}, {"type": "Feature", "geometry": {"type": "Point", "coordinates": [-93.234911, 44.977406]}, "properties": {"name": "Williamson Hall", "lon": -93.234911, "lat": 44.977406, "status": "CLOSED", "stands": 25, "update": "2015-11-04T12:01:44", "address": "Williamson Hall", "bikes": 0}}, {"type": "Feature", "geometry": {"type": "Point", "coordinates": [-93.23206, 44.97209]}, "properties": {"name": "Mayo Memorial Building", "lon": -93.23206, "lat": 44.97209, "status": "CLOSED", "stands": 25, "update": "2015-11-04T12:02:17", "address": "Mayo Memorial Building", "bikes": 0}}, {"type": "Feature", "geometry": {"type": "Point", "coordinates": [-93.24519, 44.97003]}, "properties": {"name": "4th Street S & 19th Ave", "lon": -93.24519, "lat": 44.97003, "status": "CLOSED", "stands": 19, "update": "2015-11-02T12:02:53", "address": "4th Street S & 19th Ave", "bikes": 0}}, {"type": "Feature", "geometry": {"type": "Point", "coordinates": [-93.266925215721, 44.980873610847]}, "properties": {"name": "Washington & Marquette", "lon": -93.266925215721, "lat": 44.980873610847, "status": "CLOSED", "stands": 19, "update": "2015-11-03T15:58:52", "address": "Washington & Marquette", "bikes": 0}}, {"type": "Feature", "geometry": {"type": "Point", "coordinates": [-93.266701, 44.976602]}, "properties": {"name": "Hennepin County Government Center", "lon": -93.266701, "lat": 44.976602, "status": "CLOSED", "stands": 27, "update": "2015-11-02T12:01:15", "address": "Hennepin County Government Center", "bikes": 0}}, {"type": "Feature", "geometry": {"type": "Point", "coordinates": [-93.2583, 44.96251]}, "properties": {"name": "Franklin & 11th Ave", "lon": -93.2583, "lat": 44.96251, "status": "CLOSED", "stands": 15, "update": "2015-11-02T17:18:16", "address": "Franklin & 11th Ave", "bikes": 0}}, {"type": "Feature", "geometry": {"type": "Point", "coordinates": [-93.22697, 44.97202]}, "properties": {"name": "Oak Street Ramp", "lon": -93.22697, "lat": 44.97202, "status": "CLOSED", "stands": 23, "update": "2015-11-04T12:03:19", "address": "Oak Street Ramp", "bikes": 0}}, {"type": "Feature", "geometry": {"type": "Point", "coordinates": [-93.263454437256, 44.980926733576]}, "properties": {"name": "South 2nd Street & 3rd Ave S", "lon": -93.263454437256, "lat": 44.980926733576, "status": "CLOSED", "stands": 27, "update": "2015-11-03T16:03:17", "address": "South 2nd Street & 3rd Ave S", "bikes": 0}}, {"type": "Feature", "geometry": {"type": "Point", "coordinates": [-93.221639, 44.977028]}, "properties": {"name": "23rd Ave SE & 6th Street SE", "lon": -93.221639, "lat": 44.977028, "status": "CLOSED", "stands": 18, "update": "2015-11-03T12:00:54", "address": "23rd Ave SE & 6th Street SE", "bikes": 0}}, {"type": "Feature", "geometry": {"type": "Point", "coordinates": [-93.23189, 44.97913]}, "properties": {"name": "4th Street & 17th Ave SE", "lon": -93.23189, "lat": 44.97913, "status": "CLOSED", "stands": 15, "update": "2015-11-03T17:25:28", "address": "4th Street & 17th Ave SE", "bikes": 0}}, {"type": "Feature", "geometry": {"type": "Point", "coordinates": [-93.284927, 44.9715]}, "properties": {"name": "Loring Park", "lon": -93.284927, "lat": 44.9715, "status": "CLOSED", "stands": 15, "update": "2015-11-02T20:02:54", "address": "Loring Park", "bikes": 0}}, {"type": "Feature", "geometry": {"type": "Point", "coordinates": [-93.269217, 44.980199]}, "properties": {"name": "Downtown Library", "lon": -93.269217, "lat": 44.980199, "status": "CLOSED", "stands": 31, "update": "2015-11-03T19:45:55", "address": "Downtown Library", "bikes": 0}}, {"type": "Feature", "geometry": {"type": "Point", "coordinates": [-93.251136, 44.969225]}, "properties": {"name": "Currie Park", "lon": -93.251136, "lat": 44.969225, "status": "CLOSED", "stands": 15, "update": "2015-11-02T17:57:24", "address": "Currie Park", "bikes": 0}}, {"type": "Feature", "geometry": {"type": "Point", "coordinates": [-93.252269, 44.96285]}, "properties": {"name": "E Franklin Ave & Bloomington Ave S", "lon": -93.252269, "lat": 44.96285, "status": "CLOSED", "stands": 15, "update": "2015-11-02T17:05:18", "address": "E Franklin Ave & Bloomington Ave S", "bikes": 0}}, {"type": "Feature", "geometry": {"type": "Point", "coordinates": [-93.274544, 44.973839]}, "properties": {"name": "10th Street & Nicollet Mall", "lon": -93.274544, "lat": 44.973839, "status": "CLOSED", "stands": 0, "update": "1970-01-01T01:00:00", "address": "10th Street & Nicollet Mall", "bikes": 0}}, {"type": "Feature", "geometry": {"type": "Point", "coordinates": [-93.27405, 44.97265]}, "properties": {"name": "11th Street & Marquette", "lon": -93.27405, "lat": 44.97265, "status": "CLOSED", "stands": 19, "update": "2015-11-05T12:03:12", "address": "11th Street & Marquette", "bikes": 0}}, {"type": "Feature", "geometry": {"type": "Point", "coordinates": [-93.267526, 44.962846]}, "properties": {"name": "Franklin & Portland", "lon": -93.267526, "lat": 44.962846, "status": "CLOSED", "stands": 15, "update": "2015-11-02T17:40:32", "address": "Franklin & Portland", "bikes": 0}}, {"type": "Feature", "geometry": {"type": "Point", "coordinates": [-93.272185, 44.975641]}, "properties": {"name": "IDS Center", "lon": -93.272185, "lat": 44.975641, "status": "CLOSED", "stands": 23, "update": "2015-11-02T20:53:36", "address": "IDS Center", "bikes": 0}}, {"type": "Feature", "geometry": {"type": "Point", "coordinates": [-93.30077, 44.94865]}, "properties": {"name": "Lake Street & Humboldt", "lon": -93.30077, "lat": 44.94865, "status": "CLOSED", "stands": 19, "update": "2015-11-02T21:04:39", "address": "Lake Street & Humboldt", "bikes": 0}}, {"type": "Feature", "geometry": {"type": "Point", "coordinates": [-93.29714298, 44.9554734]}, "properties": {"name": "26th Street & Hennepin", "lon": -93.29714298, "lat": 44.9554734, "status": "CLOSED", "stands": 15, "update": "2015-11-02T18:20:24", "address": "26th Street & Hennepin", "bikes": 0}}, {"type": "Feature", "geometry": {"type": "Point", "coordinates": [-93.230893, 44.962701]}, "properties": {"name": "Franklin & 28th Ave", "lon": -93.230893, "lat": 44.962701, "status": "CLOSED", "stands": 19, "update": "2015-11-02T17:38:37", "address": "Franklin & 28th Ave", "bikes": 0}}, {"type": "Feature", "geometry": {"type": "Point", "coordinates": [-93.25576, 44.98717]}, "properties": {"name": "University & Bank Street SE", "lon": -93.25576, "lat": 44.98717, "status": "CLOSED", "stands": 19, "update": "2015-11-03T12:03:42", "address": "University & Bank Street SE", "bikes": 0}}, {"type": "Feature", "geometry": {"type": "Point", "coordinates": [-93.29303, 44.96146]}, "properties": {"name": "Dupont Ave & 22nd Street", "lon": -93.29303, "lat": 44.96146, "status": "CLOSED", "stands": 15, "update": "2015-11-02T18:28:18", "address": "Dupont Ave & 22nd Street", "bikes": 0}}, {"type": "Feature", "geometry": {"type": "Point", "coordinates": [-93.26599, 44.97974]}, "properties": {"name": "3rd Street S & 2nd Ave S", "lon": -93.26599, "lat": 44.97974, "status": "CLOSED", "stands": 27, "update": "2015-11-03T18:51:46", "address": "3rd Street S & 2nd Ave S", "bikes": 0}}, {"type": "Feature", "geometry": {"type": "Point", "coordinates": [-93.275626, 44.980536]}, "properties": {"name": "2nd Ave N & N 6th Street", "lon": -93.275626, "lat": 44.980536, "status": "CLOSED", "stands": 23, "update": "2015-11-03T12:03:18", "address": "2nd Ave N & N 6th Street", "bikes": 0}}, {"type": "Feature", "geometry": {"type": "Point", "coordinates": [-93.25535, 44.97654]}, "properties": {"name": "Washington Ave S & 10th Ave S", "lon": -93.25535, "lat": 44.97654, "status": "CLOSED", "stands": 19, "update": "2015-11-02T16:16:45", "address": "Washington Ave S & 10th Ave S", "bikes": 0}}, {"type": "Feature", "geometry": {"type": "Point", "coordinates": [-93.27796, 44.95618]}, "properties": {"name": "Nicollet Ave & W 26th Street", "lon": -93.27796, "lat": 44.95618, "status": "CLOSED", "stands": 15, "update": "2015-11-02T17:50:41", "address": "Nicollet Ave & W 26th Street", "bikes": 0}}, {"type": "Feature", "geometry": {"type": "Point", "coordinates": [-93.266684, 44.97497]}, "properties": {"name": "7th Street & 4th Ave. S", "lon": -93.266684, "lat": 44.97497, "status": "CLOSED", "stands": 15, "update": "2015-11-02T17:27:25", "address": "7th Street & 4th Ave. S", "bikes": 0}}, {"type": "Feature", "geometry": {"type": "Point", "coordinates": [-93.279038071632, 44.984125390044]}, "properties": {"name": "Target Field Station", "lon": -93.279038071632, "lat": 44.984125390044, "status": "CLOSED", "stands": 23, "update": "2015-11-05T12:02:24", "address": "Target Field Station", "bikes": 0}}, {"type": "Feature", "geometry": {"type": "Point", "coordinates": [-93.269278, 44.950371]}, "properties": {"name": "Midtown Greenway & 5th Ave S", "lon": -93.269278, "lat": 44.950371, "status": "CLOSED", "stands": 15, "update": "2015-11-04T17:23:01", "address": "Midtown Greenway & 5th Ave S", "bikes": 0}}, {"type": "Feature", "geometry": {"type": "Point", "coordinates": [-93.211264014244, 44.973371428374]}, "properties": {"name": "Malcolm Ave SE & 5th Street SE", "lon": -93.211264014244, "lat": 44.973371428374, "status": "CLOSED", "stands": 23, "update": "2015-11-05T12:01:45", "address": "Malcolm Ave SE & 5th Street SE", "bikes": 0}}, {"type": "Feature", "geometry": {"type": "Point", "coordinates": [-93.22854, 44.9743]}, "properties": {"name": "McNamara Center", "lon": -93.22854, "lat": 44.9743, "status": "CLOSED", "stands": 19, "update": "2015-11-04T12:00:53", "address": "McNamara Center", "bikes": 0}}, {"type": "Feature", "geometry": {"type": "Point", "coordinates": [-93.23818, 44.97685]}, "properties": {"name": "Elliot Hall", "lon": -93.23818, "lat": 44.97685, "status": "CLOSED", "stands": 14, "update": "2015-11-03T16:36:45", "address": "Elliot Hall", "bikes": 0}}, {"type": "Feature", "geometry": {"type": "Point", "coordinates": [-93.26079, 44.970553]}, "properties": {"name": "Elliot Park", "lon": -93.26079, "lat": 44.970553, "status": "CLOSED", "stands": 15, "update": "2015-11-02T17:48:39", "address": "Elliot Park", "bikes": 0}}, {"type": "Feature", "geometry": {"type": "Point", "coordinates": [-93.29736, 44.946687]}, "properties": {"name": "W 31st Street & Hennepin Ave S", "lon": -93.29736, "lat": 44.946687, "status": "CLOSED", "stands": 19, "update": "2015-11-02T19:23:51", "address": "W 31st Street & Hennepin Ave S", "bikes": 0}}, {"type": "Feature", "geometry": {"type": "Point", "coordinates": [-93.277939, 44.96342]}, "properties": {"name": "Nicollet & Franklin", "lon": -93.277939, "lat": 44.96342, "status": "CLOSED", "stands": 23, "update": "2015-11-02T17:46:41", "address": "Nicollet & Franklin", "bikes": 0}}, {"type": "Feature", "geometry": {"type": "Point", "coordinates": [-93.27831, 44.9519]}, "properties": {"name": "28th Street & Nicollet Ave. S", "lon": -93.27831, "lat": 44.9519, "status": "CLOSED", "stands": 15, "update": "2015-11-02T17:55:02", "address": "28th Street & Nicollet Ave. S", "bikes": 0}}, {"type": "Feature", "geometry": {"type": "Point", "coordinates": [-93.304427, 44.981147]}, "properties": {"name": "Glenwood Ave & N Morgan Ave.", "lon": -93.304427, "lat": 44.981147, "status": "CLOSED", "stands": 14, "update": "2015-11-03T12:01:17", "address": "Glenwood Ave & N Morgan Ave.", "bikes": 0}}, {"type": "Feature", "geometry": {"type": "Point", "coordinates": [-93.28542, 44.98052]}, "properties": {"name": "Minneapolis Farmers Market", "lon": -93.28542, "lat": 44.98052, "status": "CLOSED", "stands": 15, "update": "2015-11-03T12:03:36", "address": "Minneapolis Farmers Market", "bikes": 0}}, {"type": "Feature", "geometry": {"type": "Point", "coordinates": [-93.279783725739, 44.989879107463]}, "properties": {"name": "Washington Ave N & 9th Ave N", "lon": -93.279783725739, "lat": 44.989879107463, "status": "CLOSED", "stands": 15, "update": "2015-11-03T15:59:36", "address": "Washington Ave N & 9th Ave N", "bikes": 0}}, {"type": "Feature", "geometry": {"type": "Point", "coordinates": [-93.322066, 44.9798]}, "properties": {"name": "Wirth Beach", "lon": -93.322066, "lat": 44.9798, "status": "CLOSED", "stands": 15, "update": "2015-11-06T12:02:56", "address": "Wirth Beach", "bikes": 0}}, {"type": "Feature", "geometry": {"type": "Point", "coordinates": [-93.290941, 44.999341]}, "properties": {"name": "Bryant Ave N & West Broadway", "lon": -93.290941, "lat": 44.999341, "status": "CLOSED", "stands": 10, "update": "2015-11-03T16:15:20", "address": "Bryant Ave N & West Broadway", "bikes": 0}}, {"type": "Feature", "geometry": {"type": "Point", "coordinates": [-93.297071, 44.99957]}, "properties": {"name": "Girard Ave N & W Broadway Ave", "lon": -93.297071, "lat": 44.99957, "status": "CLOSED", "stands": 15, "update": "2015-11-03T15:48:24", "address": "Girard Ave N & W Broadway Ave", "bikes": 0}}, {"type": "Feature", "geometry": {"type": "Point", "coordinates": [-93.287559, 45.005994]}, "properties": {"name": "Farview Park", "lon": -93.287559, "lat": 45.005994, "status": "CLOSED", "stands": 15, "update": "2015-11-03T12:03:54", "address": "Farview Park", "bikes": 0}}, {"type": "Feature", "geometry": {"type": "Point", "coordinates": [-93.305857, 45.002448]}, "properties": {"name": "West Broadway & Logan Ave N", "lon": -93.305857, "lat": 45.002448, "status": "CLOSED", "stands": 15, "update": "2015-11-03T15:42:46", "address": "West Broadway & Logan Ave N", "bikes": 0}}, {"type": "Feature", "geometry": {"type": "Point", "coordinates": [-93.307798, 45.013318]}, "properties": {"name": "Lowry Ave N & Penn Ave", "lon": -93.307798, "lat": 45.013318, "status": "CLOSED", "stands": 15, "update": "2015-11-03T12:01:37", "address": "Lowry Ave N & Penn Ave", "bikes": 0}}, {"type": "Feature", "geometry": {"type": "Point", "coordinates": [-93.298634, 44.941388]}, "properties": {"name": "West 34th Street  & Hennepin Ave S", "lon": -93.298634, "lat": 44.941388, "status": "CLOSED", "stands": 19, "update": "2015-11-02T18:50:10", "address": "West 34th Street  & Hennepin Ave S", "bikes": 0}}, {"type": "Feature", "geometry": {"type": "Point", "coordinates": [-93.218919, 44.97259]}, "properties": {"name": "27th Ave SE & University Ave.", "lon": -93.218919, "lat": 44.97259, "status": "CLOSED", "stands": 15, "update": "2015-11-03T12:01:32", "address": "27th Ave SE & University Ave.", "bikes": 0}}, {"type": "Feature", "geometry": {"type": "Point", "coordinates": [-93.20525, 44.96616]}, "properties": {"name": "Curfew Street & Ellis Ave.", "lon": -93.20525, "lat": 44.96616, "status": "CLOSED", "stands": 15, "update": "2015-11-03T12:03:26", "address": "Curfew Street & Ellis Ave.", "bikes": 0}}, {"type": "Feature", "geometry": {"type": "Point", "coordinates": [-93.195906, 44.963549]}, "properties": {"name": "Carleton Street & University Ave ", "lon": -93.195906, "lat": 44.963549, "status": "CLOSED", "stands": 14, "update": "2015-11-03T16:21:07", "address": "Carleton Street & University Ave ", "bikes": 0}}, {"type": "Feature", "geometry": {"type": "Point", "coordinates": [-93.17706, 44.95665]}, "properties": {"name": "Fairview Ave. & University Ave.", "lon": -93.17706, "lat": 44.95665, "status": "CLOSED", "stands": 15, "update": "2015-11-04T12:04:18", "address": "Fairview Ave. & University Ave.", "bikes": 0}}, {"type": "Feature", "geometry": {"type": "Point", "coordinates": [-93.165868, 44.964172]}, "properties": {"name": "Hamline University", "lon": -93.165868, "lat": 44.964172, "status": "CLOSED", "stands": 15, "update": "2015-11-04T12:03:44", "address": "Hamline University", "bikes": 0}}, {"type": "Feature", "geometry": {"type": "Point", "coordinates": [-93.16734, 44.956624]}, "properties": {"name": "Sherburne Ave & Snelling Ave N", "lon": -93.16734, "lat": 44.956624, "status": "CLOSED", "stands": 15, "update": "2015-11-04T12:01:44", "address": "Sherburne Ave & Snelling Ave N", "bikes": 0}}, {"type": "Feature", "geometry": {"type": "Point", "coordinates": [-93.24054, 44.94823]}, "properties": {"name": "Midtown YWCA", "lon": -93.24054, "lat": 44.94823, "status": "CLOSED", "stands": 15, "update": "2015-11-04T12:01:34", "address": "Midtown YWCA", "bikes": 0}}, {"type": "Feature", "geometry": {"type": "Point", "coordinates": [-93.22106, 44.94826]}, "properties": {"name": "East Lake Street & 36th Ave S", "lon": -93.22106, "lat": 44.94826, "status": "CLOSED", "stands": 15, "update": "2015-11-02T16:20:50", "address": "East Lake Street & 36th Ave S", "bikes": 0}}, {"type": "Feature", "geometry": {"type": "Point", "coordinates": [-93.136556, 44.956052]}, "properties": {"name": "N Victoria Street & University Ave ", "lon": -93.136556, "lat": 44.956052, "status": "CLOSED", "stands": 15, "update": "2015-11-04T12:02:17", "address": "N Victoria Street & University Ave ", "bikes": 0}}, {"type": "Feature", "geometry": {"type": "Point", "coordinates": [-93.185819, 44.948147]}, "properties": {"name": "Wilder Street & Marshall Ave", "lon": -93.185819, "lat": 44.948147, "status": "CLOSED", "stands": 15, "update": "2015-11-02T15:41:52", "address": "Wilder Street & Marshall Ave", "bikes": 0}}, {"type": "Feature", "geometry": {"type": "Point", "coordinates": [-93.177093, 44.940513]}, "properties": {"name": "Grand Ave & Fairview Ave", "lon": -93.177093, "lat": 44.940513, "status": "CLOSED", "stands": 15, "update": "2015-11-02T12:02:44", "address": "Grand Ave & Fairview Ave", "bikes": 0}}, {"type": "Feature", "geometry": {"type": "Point", "coordinates": [-93.17022, 44.940218]}, "properties": {"name": "Macalester College", "lon": -93.17022, "lat": 44.940218, "status": "CLOSED", "stands": 15, "update": "2015-11-02T15:55:41", "address": "Macalester College", "bikes": 0}}, {"type": "Feature", "geometry": {"type": "Point", "coordinates": [-93.2669, 44.96954]}, "properties": {"name": "Grant Street & Portland Ave", "lon": -93.2669, "lat": 44.96954, "status": "CLOSED", "stands": 15, "update": "2015-11-02T17:44:02", "address": "Grant Street & Portland Ave", "bikes": 0}}, {"type": "Feature", "geometry": {"type": "Point", "coordinates": [-93.24812, 44.983281]}, "properties": {"name": "6th Ave. SE & University Ave.", "lon": -93.24812, "lat": 44.983281, "status": "CLOSED", "stands": 23, "update": "2015-11-06T12:01:22", "address": "6th Ave. SE & University Ave.", "bikes": 0}}, {"type": "Feature", "geometry": {"type": "Point", "coordinates": [-93.317294418812, 44.948467166877]}, "properties": {"name": "Lake Calhoun Center", "lon": -93.317294418812, "lat": 44.948467166877, "status": "CLOSED", "stands": 27, "update": "2015-11-02T19:37:02", "address": "Lake Calhoun Center", "bikes": 0}}, {"type": "Feature", "geometry": {"type": "Point", "coordinates": [-93.26023, 44.978068]}, "properties": {"name": "Portland Ave. & Washington Ave.", "lon": -93.26023, "lat": 44.978068, "status": "CLOSED", "stands": 19, "update": "2015-11-02T16:53:04", "address": "Portland Ave. & Washington Ave.", "bikes": 0}}, {"type": "Feature", "geometry": {"type": "Point", "coordinates": [-93.2675139, 44.9825943]}, "properties": {"name": "Gateway Park", "lon": -93.2675139, "lat": 44.9825943, "status": "CLOSED", "stands": 15, "update": "2015-11-03T17:18:46", "address": "Gateway Park", "bikes": 0}}, {"type": "Feature", "geometry": {"type": "Point", "coordinates": [-93.266854, 44.995348]}, "properties": {"name": "Marshall Street NE & 8th Ave. NE", "lon": -93.266854, "lat": 44.995348, "status": "CLOSED", "stands": 15, "update": "2015-11-03T12:03:08", "address": "Marshall Street NE & 8th Ave. NE", "bikes": 0}}, {"type": "Feature", "geometry": {"type": "Point", "coordinates": [-93.27651, 44.989166]}, "properties": {"name": "2nd Street N & 8th Ave. N", "lon": -93.27651, "lat": 44.989166, "status": "CLOSED", "stands": 19, "update": "2015-11-03T20:46:37", "address": "2nd Street N & 8th Ave. N", "bikes": 0}}, {"type": "Feature", "geometry": {"type": "Point", "coordinates": [-93.26296, 44.999894]}, "properties": {"name": "University Ave. NE & 12th Ave. NE", "lon": -93.26296, "lat": 44.999894, "status": "CLOSED", "stands": 15, "update": "2015-11-03T15:32:37", "address": "University Ave. NE & 12th Ave. NE", "bikes": 0}}, {"type": "Feature", "geometry": {"type": "Point", "coordinates": [-93.283163, 44.948556]}, "properties": {"name": "Pleasant Ave S &  Lake Street", "lon": -93.283163, "lat": 44.948556, "status": "CLOSED", "stands": 15, "update": "2015-11-03T12:03:10", "address": "Pleasant Ave S &  Lake Street", "bikes": 0}}, {"type": "Feature", "geometry": {"type": "Point", "coordinates": [-93.29038, 44.94478]}, "properties": {"name": "West 32nd Street & Bryant Ave S", "lon": -93.29038, "lat": 44.94478, "status": "CLOSED", "stands": 15, "update": "2015-11-02T18:36:48", "address": "West 32nd Street & Bryant Ave S", "bikes": 0}}, {"type": "Feature", "geometry": {"type": "Point", "coordinates": [-93.2912, 44.93775]}, "properties": {"name": "West 36th Street & Bryant Ave S", "lon": -93.2912, "lat": 44.93775, "status": "CLOSED", "stands": 15, "update": "2015-11-02T18:43:35", "address": "West 36th Street & Bryant Ave S", "bikes": 0}}, {"type": "Feature", "geometry": {"type": "Point", "coordinates": [-93.281991, 44.968237]}, "properties": {"name": "West 15th Street & Willow", "lon": -93.281991, "lat": 44.968237, "status": "CLOSED", "stands": 19, "update": "2015-11-02T19:21:53", "address": "West 15th Street & Willow", "bikes": 0}}, {"type": "Feature", "geometry": {"type": "Point", "coordinates": [-93.192758, 44.939936]}, "properties": {"name": "Grand Ave & Cretin Ave", "lon": -93.192758, "lat": 44.939936, "status": "CLOSED", "stands": 15, "update": "2015-11-04T12:01:54", "address": "Grand Ave & Cretin Ave", "bikes": 0}}, {"type": "Feature", "geometry": {"type": "Point", "coordinates": [-93.1529, 44.94016]}, "properties": {"name": "Kowalski's Market", "lon": -93.1529, "lat": 44.94016, "status": "CLOSED", "stands": 15, "update": "2015-11-03T20:24:25", "address": "Kowalski's Market", "bikes": 0}}, {"type": "Feature", "geometry": {"type": "Point", "coordinates": [-93.138832, 44.941599]}, "properties": {"name": "N Milton Street & Summit Ave", "lon": -93.138832, "lat": 44.941599, "status": "CLOSED", "stands": 15, "update": "2015-11-05T12:04:33", "address": "N Milton Street & Summit Ave", "bikes": 0}}, {"type": "Feature", "geometry": {"type": "Point", "coordinates": [-93.1517, 44.98115]}, "properties": {"name": "Como Park Conservatory", "lon": -93.1517, "lat": 44.98115, "status": "CLOSED", "stands": 19, "update": "2015-11-06T12:04:33", "address": "Como Park Conservatory", "bikes": 0}}, {"type": "Feature", "geometry": {"type": "Point", "coordinates": [-93.12661, 44.945736]}, "properties": {"name": "Hague Ave & Dale Street", "lon": -93.12661, "lat": 44.945736, "status": "CLOSED", "stands": 15, "update": "2015-11-03T18:23:22", "address": "Hague Ave & Dale Street", "bikes": 0}}, {"type": "Feature", "geometry": {"type": "Point", "coordinates": [-93.25276, 44.99882]}, "properties": {"name": "Logan Park", "lon": -93.25276, "lat": 44.99882, "status": "CLOSED", "stands": 15, "update": "2015-11-03T15:38:39", "address": "Logan Park", "bikes": 0}}, {"type": "Feature", "geometry": {"type": "Point", "coordinates": [-93.146379, 44.955363]}, "properties": {"name": "Lexington Pkwy & University Ave", "lon": -93.146379, "lat": 44.955363, "status": "CLOSED", "stands": 15, "update": "2015-11-04T12:02:43", "address": "Lexington Pkwy & University Ave", "bikes": 0}}, {"type": "Feature", "geometry": {"type": "Point", "coordinates": [-93.126088, 44.956066]}, "properties": {"name": "Dale Street N & University Ave", "lon": -93.126088, "lat": 44.956066, "status": "CLOSED", "stands": 15, "update": "2015-11-04T12:04:35", "address": "Dale Street N & University Ave", "bikes": 0}}, {"type": "Feature", "geometry": {"type": "Point", "coordinates": [-93.214864, 44.971012]}, "properties": {"name": "University Ave SE & 29th Ave SE", "lon": -93.214864, "lat": 44.971012, "status": "CLOSED", "stands": 15, "update": "2015-11-03T12:04:29", "address": "University Ave SE & 29th Ave SE", "bikes": 0}}, {"type": "Feature", "geometry": {"type": "Point", "coordinates": [-93.212892, 44.987934]}, "properties": {"name": "Como Ave. SE & 29th Ave. SE", "lon": -93.212892, "lat": 44.987934, "status": "CLOSED", "stands": 14, "update": "2015-11-04T12:02:02", "address": "Como Ave. SE & 29th Ave. SE", "bikes": 0}}, {"type": "Feature", "geometry": {"type": "Point", "coordinates": [-93.230469, 44.987517]}, "properties": {"name": "15th Ave. SE & Como Ave. SE", "lon": -93.230469, "lat": 44.987517, "status": "CLOSED", "stands": 15, "update": "2015-11-04T12:03:43", "address": "15th Ave. SE & Como Ave. SE", "bikes": 0}}, {"type": "Feature", "geometry": {"type": "Point", "coordinates": [-93.143383, 44.981914]}, "properties": {"name": "Lake Como Pavilion", "lon": -93.143383, "lat": 44.981914, "status": "CLOSED", "stands": 23, "update": "2015-11-06T12:03:30", "address": "Lake Como Pavilion", "bikes": 0}}, {"type": "Feature", "geometry": {"type": "Point", "coordinates": [-93.126261, 44.939779]}, "properties": {"name": "Dale Street & Grand Ave.", "lon": -93.126261, "lat": 44.939779, "status": "CLOSED", "stands": 14, "update": "2015-11-03T20:18:08", "address": "Dale Street & Grand Ave.", "bikes": 0}}, {"type": "Feature", "geometry": {"type": "Point", "coordinates": [-93.156984, 44.953527]}, "properties": {"name": "St. Paul Police Western District", "lon": -93.156984, "lat": 44.953527, "status": "CLOSED", "stands": 14, "update": "2015-11-04T12:01:33", "address": "St. Paul Police Western District", "bikes": 0}}, {"type": "Feature", "geometry": {"type": "Point", "coordinates": [-93.247114, 45.00994]}, "properties": {"name": "Central Ave. NE & 22nd Ave NE", "lon": -93.247114, "lat": 45.00994, "status": "CLOSED", "stands": 15, "update": "2015-11-02T22:12:16", "address": "Central Ave. NE & 22nd Ave NE", "bikes": 0}}, {"type": "Feature", "geometry": {"type": "Point", "coordinates": [-93.185029, 44.984527]}, "properties": {"name": "U of M St. Paul Student Center", "lon": -93.185029, "lat": 44.984527, "status": "CLOSED", "stands": 15, "update": "2015-11-04T12:03:09", "address": "U of M St. Paul Student Center", "bikes": 0}}, {"type": "Feature", "geometry": {"type": "Point", "coordinates": [-93.1873, 44.945367]}, "properties": {"name": "Cleveland Ave N & Laurel Ave", "lon": -93.1873, "lat": 44.945367, "status": "CLOSED", "stands": 15, "update": "2015-11-02T12:00:26", "address": "Cleveland Ave N & Laurel Ave", "bikes": 0}}, {"type": "Feature", "geometry": {"type": "Point", "coordinates": [-93.2321, 44.97394]}, "properties": {"name": "Washington Ave SE & Union Street SE", "lon": -93.2321, "lat": 44.97394, "status": "CLOSED", "stands": 27, "update": "2015-11-04T12:04:39", "address": "Washington Ave SE & Union Street SE", "bikes": 0}}, {"type": "Feature", "geometry": {"type": "Point", "coordinates": [-93.10673, 44.949053]}, "properties": {"name": "Minnesota History Center", "lon": -93.10673, "lat": 44.949053, "status": "CLOSED", "stands": 15, "update": "2015-11-04T12:03:00", "address": "Minnesota History Center", "bikes": 0}}, {"type": "Feature", "geometry": {"type": "Point", "coordinates": [-93.09759, 44.950189]}, "properties": {"name": "10th Street E & Cedar Street", "lon": -93.09759, "lat": 44.950189, "status": "CLOSED", "stands": 15, "update": "2015-11-04T12:05:03", "address": "10th Street E & Cedar Street", "bikes": 0}}, {"type": "Feature", "geometry": {"type": "Point", "coordinates": [-93.091207, 44.949433]}, "properties": {"name": "7th Place & Jackson Street", "lon": -93.091207, "lat": 44.949433, "status": "CLOSED", "stands": 14, "update": "2015-11-04T12:01:19", "address": "7th Place & Jackson Street", "bikes": 0}}, {"type": "Feature", "geometry": {"type": "Point", "coordinates": [-93.086584, 44.948399]}, "properties": {"name": "Union Depot", "lon": -93.086584, "lat": 44.948399, "status": "CLOSED", "stands": 23, "update": "2015-11-04T12:03:51", "address": "Union Depot", "bikes": 0}}, {"type": "Feature", "geometry": {"type": "Point", "coordinates": [-93.088802, 44.946191]}, "properties": {"name": "Kellogg Blvd E & Jackson Street", "lon": -93.088802, "lat": 44.946191, "status": "CLOSED", "stands": 19, "update": "2015-11-04T12:00:48", "address": "Kellogg Blvd E & Jackson Street", "bikes": 0}}, {"type": "Feature", "geometry": {"type": "Point", "coordinates": [-93.089245, 44.950766]}, "properties": {"name": "7th Street E & Wacouta Street", "lon": -93.089245, "lat": 44.950766, "status": "CLOSED", "stands": 15, "update": "2015-11-04T12:02:09", "address": "7th Street E & Wacouta Street", "bikes": 0}}, {"type": "Feature", "geometry": {"type": "Point", "coordinates": [-93.0845, 44.94965]}, "properties": {"name": "Broadway Street N & 4th Street E", "lon": -93.0845, "lat": 44.94965, "status": "CLOSED", "stands": 19, "update": "2015-11-04T12:03:15", "address": "Broadway Street N & 4th Street E", "bikes": 0}}, {"type": "Feature", "geometry": {"type": "Point", "coordinates": [-93.10445, 44.95385]}, "properties": {"name": "Minnesota Dept. of Transportation", "lon": -93.10445, "lat": 44.95385, "status": "CLOSED", "stands": 15, "update": "2015-11-04T12:04:25", "address": "Minnesota Dept. of Transportation", "bikes": 0}}, {"type": "Feature", "geometry": {"type": "Point", "coordinates": [-93.103863, 44.945173]}, "properties": {"name": "Kellogg Blvd W & Smith Ave", "lon": -93.103863, "lat": 44.945173, "status": "CLOSED", "stands": 15, "update": "2015-11-04T12:02:06", "address": "Kellogg Blvd W & Smith Ave", "bikes": 0}}, {"type": "Feature", "geometry": {"type": "Point", "coordinates": [-93.08465, 44.956028]}, "properties": {"name": "Lafayette Road & Grove Street", "lon": -93.08465, "lat": 44.956028, "status": "CLOSED", "stands": 18, "update": "2015-11-04T12:04:28", "address": "Lafayette Road & Grove Street", "bikes": 0}}, {"type": "Feature", "geometry": {"type": "Point", "coordinates": [-93.09231, 44.94683]}, "properties": {"name": "5th Street E & Minnesota Street N", "lon": -93.09231, "lat": 44.94683, "status": "CLOSED", "stands": 19, "update": "2015-11-04T12:02:56", "address": "5th Street E & Minnesota Street N", "bikes": 0}}, {"type": "Feature", "geometry": {"type": "Point", "coordinates": [-93.096114, 44.945267]}, "properties": {"name": "Landmark Plaza", "lon": -93.096114, "lat": 44.945267, "status": "CLOSED", "stands": 19, "update": "2015-11-04T12:01:10", "address": "Landmark Plaza", "bikes": 0}}, {"type": "Feature", "geometry": {"type": "Point", "coordinates": [-93.09663, 44.94813]}, "properties": {"name": "Wells Fargo Place", "lon": -93.09663, "lat": 44.94813, "status": "CLOSED", "stands": 19, "update": "2015-11-04T12:02:05", "address": "Wells Fargo Place", "bikes": 0}}, {"type": "Feature", "geometry": {"type": "Point", "coordinates": [-93.0779, 44.93002]}, "properties": {"name": "State Street & Cesar Chavez Street", "lon": -93.0779, "lat": 44.93002, "status": "CLOSED", "stands": 15, "update": "2015-11-04T12:04:24", "address": "State Street & Cesar Chavez Street", "bikes": 0}}, {"type": "Feature", "geometry": {"type": "Point", "coordinates": [-93.089031, 44.939047]}, "properties": {"name": "Wabasha Street S & E Fillmore Ave", "lon": -93.089031, "lat": 44.939047, "status": "CLOSED", "stands": 15, "update": "2015-11-04T12:01:14", "address": "Wabasha Street S & E Fillmore Ave", "bikes": 0}}, {"type": "Feature", "geometry": {"type": "Point", "coordinates": [-93.094532, 44.93768]}, "properties": {"name": "Harriet Island", "lon": -93.094532, "lat": 44.93768, "status": "CLOSED", "stands": 19, "update": "2015-11-05T12:04:17", "address": "Harriet Island", "bikes": 0}}, {"type": "Feature", "geometry": {"type": "Point", "coordinates": [-93.09227, 44.943846]}, "properties": {"name": "Kellogg Blvd & Wabasha Street", "lon": -93.09227, "lat": 44.943846, "status": "CLOSED", "stands": 19, "update": "2015-11-04T12:03:37", "address": "Kellogg Blvd & Wabasha Street", "bikes": 0}}, {"type": "Feature", "geometry": {"type": "Point", "coordinates": [-93.084497, 44.934503]}, "properties": {"name": "Wabasha Street S & Cesar Chavez Street", "lon": -93.084497, "lat": 44.934503, "status": "CLOSED", "stands": 15, "update": "2015-11-04T12:04:05", "address": "Wabasha Street S & Cesar Chavez Street", "bikes": 0}}, {"type": "Feature", "geometry": {"type": "Point", "coordinates": [-93.098712, 44.940902]}, "properties": {"name": "Upper Landing", "lon": -93.098712, "lat": 44.940902, "status": "CLOSED", "stands": 19, "update": "2015-11-05T12:03:25", "address": "Upper Landing", "bikes": 0}}, {"type": "Feature", "geometry": {"type": "Point", "coordinates": [-93.10624, 44.94144]}, "properties": {"name": "7th Street W & Grand Ave", "lon": -93.10624, "lat": 44.94144, "status": "CLOSED", "stands": 19, "update": "2015-11-04T12:03:01", "address": "7th Street W & Grand Ave", "bikes": 0}}, {"type": "Feature", "geometry": {"type": "Point", "coordinates": [-93.097836, 44.942846]}, "properties": {"name": "Science Museum of Minnesota", "lon": -93.097836, "lat": 44.942846, "status": "CLOSED", "stands": 19, "update": "2015-11-04T12:01:57", "address": "Science Museum of Minnesota", "bikes": 0}}, {"type": "Feature", "geometry": {"type": "Point", "coordinates": [-93.1151, 44.9467]}, "properties": {"name": "Selby Ave & Virginia Street", "lon": -93.1151, "lat": 44.9467, "status": "CLOSED", "stands": 19, "update": "2015-11-03T18:15:40", "address": "Selby Ave & Virginia Street", "bikes": 0}}, {"type": "Feature", "geometry": {"type": "Point", "coordinates": [-93.11665, 44.95562]}, "properties": {"name": "University Ave & Western Ave", "lon": -93.11665, "lat": 44.95562, "status": "CLOSED", "stands": 15, "update": "2015-11-04T12:02:32", "address": "University Ave & Western Ave", "bikes": 0}}, {"type": "Feature", "geometry": {"type": "Point", "coordinates": [-93.097817, 44.954697]}, "properties": {"name": "E 14th Street & N Robert Street ", "lon": -93.097817, "lat": 44.954697, "status": "CLOSED", "stands": 17, "update": "2015-11-04T12:02:31", "address": "E 14th Street & N Robert Street ", "bikes": 0}}, {"type": "Feature", "geometry": {"type": "Point", "coordinates": [-93.10955, 44.95476]}, "properties": {"name": "N Marion Street & University Ave W", "lon": -93.10955, "lat": 44.95476, "status": "CLOSED", "stands": 15, "update": "2015-11-04T12:02:24", "address": "N Marion Street & University Ave W", "bikes": 0}}, {"type": "Feature", "geometry": {"type": "Point", "coordinates": [-93.094545, 44.951132]}, "properties": {"name": "N Robert Street & E 10th Street", "lon": -93.094545, "lat": 44.951132, "status": "CLOSED", "stands": 19, "update": "2015-11-04T12:04:03", "address": "N Robert Street & E 10th Street", "bikes": 0}}, {"type": "Feature", "geometry": {"type": "Point", "coordinates": [-93.277505, 44.977128]}, "properties": {"name": "9th Street N & Hawthorne Ave", "lon": -93.277505, "lat": 44.977128, "status": "CLOSED", "stands": 25, "update": "2015-11-02T12:01:01", "address": "9th Street N & Hawthorne Ave", "bikes": 0}}, {"type": "Feature", "geometry": {"type": "Point", "coordinates": [-93.256736, 44.977521]}, "properties": {"name": "Chicago Ave & Washington Ave S", "lon": -93.256736, "lat": 44.977521, "status": "CLOSED", "stands": 19, "update": "2015-11-02T16:37:18", "address": "Chicago Ave & Washington Ave S", "bikes": 0}}, {"type": "Feature", "geometry": {"type": "Point", "coordinates": [-93.269087, 44.988461]}, "properties": {"name": "N 4th Ave & W River Parkway", "lon": -93.269087, "lat": 44.988461, "status": "CLOSED", "stands": 15, "update": "2015-11-03T16:29:31", "address": "N 4th Ave & W River Parkway", "bikes": 0}}, {"type": "Feature", "geometry": {"type": "Point", "coordinates": [-93.277037, 45.00095]}, "properties": {"name": "Minneapolis Park & Recreation Board", "lon": -93.277037, "lat": 45.00095, "status": "CLOSED", "stands": 15, "update": "2015-11-03T12:03:13", "address": "Minneapolis Park & Recreation Board", "bikes": 0}}, {"type": "Feature", "geometry": {"type": "Point", "coordinates": [-93.29065, 45.033069]}, "properties": {"name": "Webber Park", "lon": -93.29065, "lat": 45.033069, "status": "CLOSED", "stands": 15, "update": "2015-11-06T12:02:49", "address": "Webber Park", "bikes": 0}}, {"type": "Feature", "geometry": {"type": "Point", "coordinates": [-93.187381, 44.894044]}, "properties": {"name": "Fort Snelling Visitor Center", "lon": -93.187381, "lat": 44.894044, "status": "CLOSED", "stands": 19, "update": "2015-11-05T12:04:20", "address": "Fort Snelling Visitor Center", "bikes": 0}}, {"type": "Feature", "geometry": {"type": "Point", "coordinates": [-93.213587, 44.916906]}, "properties": {"name": "Minnehaha Park", "lon": -93.213587, "lat": 44.916906, "status": "CLOSED", "stands": 27, "update": "2015-11-02T16:12:46", "address": "Minnehaha Park", "bikes": 0}}, {"type": "Feature", "geometry": {"type": "Point", "coordinates": [-93.30713, 44.92936]}, "properties": {"name": "Lake Harriet Bandshell", "lon": -93.30713, "lat": 44.92936, "status": "CLOSED", "stands": 25, "update": "2015-11-05T12:03:34", "address": "Lake Harriet Bandshell", "bikes": 0}}, {"type": "Feature", "geometry": {"type": "Point", "coordinates": [-93.242761, 44.915957]}, "properties": {"name": "Lake Nokomis", "lon": -93.242761, "lat": 44.915957, "status": "CLOSED", "stands": 23, "update": "2015-11-06T12:03:51", "address": "Lake Nokomis", "bikes": 0}}, {"type": "Feature", "geometry": {"type": "Point", "coordinates": [-93.2125, 44.9342]}, "properties": {"name": "E 38th Street & 42nd Ave S", "lon": -93.2125, "lat": 44.9342, "status": "CLOSED", "stands": 15, "update": "2015-11-02T15:40:24", "address": "E 38th Street & 42nd Ave S", "bikes": 0}}, {"type": "Feature", "geometry": {"type": "Point", "coordinates": [-93.320212, 44.937817]}, "properties": {"name": "W 36th Street & W Calhoun Parkway", "lon": -93.320212, "lat": 44.937817, "status": "CLOSED", "stands": 19, "update": "2015-11-05T12:00:59", "address": "W 36th Street & W Calhoun Parkway", "bikes": 0}}, {"type": "Feature", "geometry": {"type": "Point", "coordinates": [-93.206201, 44.948452]}, "properties": {"name": "Lake Street & West River Parkway", "lon": -93.206201, "lat": 44.948452, "status": "CLOSED", "stands": 15, "update": "2015-11-02T15:48:18", "address": "Lake Street & West River Parkway", "bikes": 0}}, {"type": "Feature", "geometry": {"type": "Point", "coordinates": [-93.293129, 44.949699]}, "properties": {"name": "Dupont Ave S & W 29th Street", "lon": -93.293129, "lat": 44.949699, "status": "CLOSED", "stands": 15, "update": "2015-11-02T18:14:58", "address": "Dupont Ave S & W 29th Street", "bikes": 0}}, {"type": "Feature", "geometry": {"type": "Point", "coordinates": [-93.314597, 44.92515]}, "properties": {"name": "Upton Ave S & Sheridan Ave S", "lon": -93.314597, "lat": 44.92515, "status": "CLOSED", "stands": 19, "update": "2015-11-05T12:05:16", "address": "Upton Ave S & Sheridan Ave S", "bikes": 0}}, {"type": "Feature", "geometry": {"type": "Point", "coordinates": [-93.233092, 44.947329]}, "properties": {"name": "27th Ave S & Minnehaha Ave", "lon": -93.233092, "lat": 44.947329, "status": "CLOSED", "stands": 15, "update": "2015-11-02T16:50:22", "address": "27th Ave S & Minnehaha Ave", "bikes": 0}}, {"type": "Feature", "geometry": {"type": "Point", "coordinates": [-93.198283, 44.905043]}, "properties": {"name": "Coldwater Spring", "lon": -93.198283, "lat": 44.905043, "status": "CLOSED", "stands": 15, "update": "2015-11-05T12:05:02", "address": "Coldwater Spring", "bikes": 0}}, {"type": "Feature", "geometry": {"type": "Point", "coordinates": [-93.21953, 44.920466]}, "properties": {"name": "46th Street Light Rail Station", "lon": -93.21953, "lat": 44.920466, "status": "CLOSED", "stands": 19, "update": "2015-11-02T16:19:56", "address": "46th Street Light Rail Station", "bikes": 0}}, {"type": "Feature", "geometry": {"type": "Point", "coordinates": [-93.229338, 44.93434]}, "properties": {"name": "38th Street Light Rail Station", "lon": -93.229338, "lat": 44.93434, "status": "CLOSED", "stands": 15, "update": "2015-11-02T15:27:48", "address": "38th Street Light Rail Station", "bikes": 0}}, {"type": "Feature", "geometry": {"type": "Point", "coordinates": [-93.187264, 44.919593]}, "properties": {"name": "Cleveland Ave S & Highland Parkway", "lon": -93.187264, "lat": 44.919593, "status": "CLOSED", "stands": 15, "update": "2015-11-02T16:05:44", "address": "Cleveland Ave S & Highland Parkway", "bikes": 0}}, {"type": "Feature", "geometry": {"type": "Point", "coordinates": [-93.252189, 44.97673]}, "properties": {"name": "11th Ave S & S 2nd Street", "lon": -93.252189, "lat": 44.97673, "status": "CLOSED", "stands": 3, "update": "2015-11-02T16:04:48", "address": "11th Ave S & S 2nd Street", "bikes": 0}}, {"type": "Feature", "geometry": {"type": "Point", "coordinates": [-93.268633, 44.998613]}, "properties": {"name": "Broadway & Marshall Street NE", "lon": -93.268633, "lat": 44.998613, "status": "CLOSED", "stands": 15, "update": "2015-11-03T15:28:19", "address": "Broadway & Marshall Street NE", "bikes": 0}}, {"type": "Feature", "geometry": {"type": "Point", "coordinates": [-93.271571, 45.006229]}, "properties": {"name": "Marshall Street NE & 18th Ave NE", "lon": -93.271571, "lat": 45.006229, "status": "CLOSED", "stands": 15, "update": "2015-11-03T12:03:59", "address": "Marshall Street NE & 18th Ave NE", "bikes": 0}}, {"type": "Feature", "geometry": {"type": "Point", "coordinates": [-93.270256, 44.99254]}, "properties": {"name": "Boom Island Park", "lon": -93.270256, "lat": 44.99254, "status": "CLOSED", "stands": 15, "update": "2015-11-03T12:01:31", "address": "Boom Island Park", "bikes": 0}}, {"type": "Feature", "geometry": {"type": "Point", "coordinates": [-93.197997, 44.940288]}, "properties": {"name": "Mississippi River Blvd & Summit Ave", "lon": -93.197997, "lat": 44.940288, "status": "CLOSED", "stands": 15, "update": "2015-11-03T20:34:25", "address": "Mississippi River Blvd & Summit Ave", "bikes": 0}}, {"type": "Feature", "geometry": {"type": "Point", "coordinates": [-93.191837, 44.943017]}, "properties": {"name": "University of St. Thomas", "lon": -93.191837, "lat": 44.943017, "status": "CLOSED", "stands": 19, "update": "2015-11-02T15:47:39", "address": "University of St. Thomas", "bikes": 0}}, {"type": "Feature", "geometry": {"type": "Point", "coordinates": [-93.18237, 44.890527]}, "properties": {"name": "Fort Snelling State Park", "lon": -93.18237, "lat": 44.890527, "status": "CLOSED", "stands": 19, "update": "2015-11-05T12:01:43", "address": "Fort Snelling State Park", "bikes": 0}}, {"type": "Feature", "geometry": {"type": "Point", "coordinates": [-93.27166, 45.01312]}, "properties": {"name": "Marshall Street NE & Lowry Ave", "lon": -93.27166, "lat": 45.01312, "status": "CLOSED", "stands": 15, "update": "2015-11-03T12:02:07", "address": "Marshall Street NE & Lowry Ave", "bikes": 0}}, {"type": "Feature", "geometry": {"type": "Point", "coordinates": [-93.278133, 44.96995]}, "properties": {"name": "Nicollet Mall & Grant Street", "lon": -93.278133, "lat": 44.96995, "status": "CLOSED", "stands": 15, "update": "2015-11-05T12:03:50", "address": "Nicollet Mall & Grant Street", "bikes": 0}}, {"type": "Feature", "geometry": {"type": "Point", "coordinates": [-93.305209, 44.9485]}, "properties": {"name": "Lake Street & Knox Ave S", "lon": -93.305209, "lat": 44.9485, "status": "CLOSED", "stands": 33, "update": "2015-11-02T20:20:28", "address": "Lake Street & Knox Ave S", "bikes": 0}}, {"type": "Feature", "geometry": {"type": "Point", "coordinates": [-93.26145, 44.985388]}, "properties": {"name": "Nicollet Island", "lon": -93.26145, "lat": 44.985388, "status": "CLOSED", "stands": 15, "update": "2015-11-03T12:02:55", "address": "Nicollet Island", "bikes": 0}}, {"type": "Feature", "geometry": {"type": "Point", "coordinates": [-93.270503282547, 44.978665179559]}, "properties": {"name": "5th Street & Nicollet Mall", "lon": -93.270503282547, "lat": 44.978665179559, "status": "CLOSED", "stands": 19, "update": "2015-11-03T18:09:34", "address": "5th Street & Nicollet Mall", "bikes": 0}}, {"type": "Feature", "geometry": {"type": "Point", "coordinates": [-93.270649, 44.974795]}, "properties": {"name": "8th Street & 2nd Ave S", "lon": -93.270649, "lat": 44.974795, "status": "CLOSED", "stands": 19, "update": "2015-11-03T12:03:29", "address": "8th Street & 2nd Ave S", "bikes": 0}}, {"type": "Feature", "geometry": {"type": "Point", "coordinates": [-93.252102, 44.985465]}, "properties": {"name": "SE 3rd Ave & University Ave SE", "lon": -93.252102, "lat": 44.985465, "status": "CLOSED", "stands": 15, "update": "2015-11-03T12:04:08", "address": "SE 3rd Ave & University Ave SE", "bikes": 0}}, {"type": "Feature", "geometry": {"type": "Point", "coordinates": [-93.249653, 44.983321]}, "properties": {"name": "2nd Street SE & 5th Ave SE", "lon": -93.249653, "lat": 44.983321, "status": "CLOSED", "stands": 15, "update": "2015-11-03T12:03:05", "address": "2nd Street SE & 5th Ave SE", "bikes": 0}}, {"type": "Feature", "geometry": {"type": "Point", "coordinates": [-93.240282, 44.980831]}, "properties": {"name": "Sanford Hall", "lon": -93.240282, "lat": 44.980831, "status": "CLOSED", "stands": 23, "update": "2015-11-04T12:03:03", "address": "Sanford Hall", "bikes": 0}}, {"type": "Feature", "geometry": {"type": "Point", "coordinates": [-93.221021, 44.972128]}, "properties": {"name": "Delaware St SE & 26th Ave SE", "lon": -93.221021, "lat": 44.972128, "status": "CLOSED", "stands": 19, "update": "2015-11-05T12:02:07", "address": "Delaware St SE & 26th Ave SE", "bikes": 0}}, {"type": "Feature", "geometry": {"type": "Point", "coordinates": [-93.237254, 44.973607]}, "properties": {"name": "Weisman Art Museum", "lon": -93.237254, "lat": 44.973607, "status": "CLOSED", "stands": 18, "update": "2015-11-05T12:04:15", "address": "Weisman Art Museum", "bikes": 0}}, {"type": "Feature", "geometry": {"type": "Point", "coordinates": [-93.268604, 44.983902]}, "properties": {"name": "1st Ave N & 2nd Street N", "lon": -93.268604, "lat": 44.983902, "status": "CLOSED", "stands": 19, "update": "2015-11-03T18:43:18", "address": "1st Ave N & 2nd Street N", "bikes": 0}}, {"type": "Feature", "geometry": {"type": "Point", "coordinates": [-93.279854, 44.987996]}, "properties": {"name": "3rd Street N & 8th Ave N", "lon": -93.279854, "lat": 44.987996, "status": "CLOSED", "stands": 19, "update": "2015-11-03T15:53:41", "address": "3rd Street N & 8th Ave N", "bikes": 0}}, {"type": "Feature", "geometry": {"type": "Point", "coordinates": [-93.277234, 44.98446]}, "properties": {"name": "5th Ave N & 4th Street N", "lon": -93.277234, "lat": 44.98446, "status": "CLOSED", "stands": 19, "update": "2015-11-03T15:39:25", "address": "5th Ave N & 4th Street N", "bikes": 0}}, {"type": "Feature", "geometry": {"type": "Point", "coordinates": [-93.274031, 44.985406]}, "properties": {"name": "Washington Ave N & Cedar Lake Trail", "lon": -93.274031, "lat": 44.985406, "status": "CLOSED", "stands": 19, "update": "2015-11-03T15:42:20", "address": "Washington Ave N & Cedar Lake Trail", "bikes": 0}}, {"type": "Feature", "geometry": {"type": "Point", "coordinates": [-93.269195, 44.981895]}, "properties": {"name": "Hennepin Ave & S Washington Ave", "lon": -93.269195, "lat": 44.981895, "status": "OPEN", "stands": 23, "update": "2015-10-28T15:26:35", "address": "Hennepin Ave & S Washington Ave", "bikes": 0}}, {"type": "Feature", "geometry": {"type": "Point", "coordinates": [-93.286294, 44.966145]}, "properties": {"name": "Groveland Ave & Clifton Place", "lon": -93.286294, "lat": 44.966145, "status": "CLOSED", "stands": 18, "update": "2015-11-02T19:09:19", "address": "Groveland Ave & Clifton Place", "bikes": 0}}, {"type": "Feature", "geometry": {"type": "Point", "coordinates": [-93.254295, 44.990328]}, "properties": {"name": "5th Street NE & 1st Ave NE", "lon": -93.254295, "lat": 44.990328, "status": "CLOSED", "stands": 15, "update": "2015-11-03T17:08:39", "address": "5th Street NE & 1st Ave NE", "bikes": 0}}, {"type": "Feature", "geometry": {"type": "Point", "coordinates": [-93.255558, 44.991821]}, "properties": {"name": "5th Street NE & 3rd Ave NE", "lon": -93.255558, "lat": 44.991821, "status": "CLOSED", "stands": 14, "update": "2015-11-02T23:27:35", "address": "5th Street NE & 3rd Ave NE", "bikes": 0}}, {"type": "Feature", "geometry": {"type": "Point", "coordinates": [-93.264573, 45.01304]}, "properties": {"name": "3rd Street NE & Lowry Ave NE", "lon": -93.264573, "lat": 45.01304, "status": "CLOSED", "stands": 15, "update": "2015-11-03T12:00:49", "address": "3rd Street NE & Lowry Ave NE", "bikes": 0}}, {"type": "Feature", "geometry": {"type": "Point", "coordinates": [-93.268598, 45.010119]}, "properties": {"name": "22nd Ave NE & California Street NE", "lon": -93.268598, "lat": 45.010119, "status": "CLOSED", "stands": 15, "update": "2015-11-03T12:01:01", "address": "22nd Ave NE & California Street NE", "bikes": 0}}, {"type": "Feature", "geometry": {"type": "Point", "coordinates": [-93.19782, 44.892483]}, "properties": {"name": "Fort Snelling LRT Station", "lon": -93.19782, "lat": 44.892483, "status": "CLOSED", "stands": 15, "update": "2015-11-06T16:04:11", "address": "Fort Snelling LRT Station", "bikes": 0}}, {"type": "Feature", "geometry": {"type": "Point", "coordinates": [-93.266553, 45.006321]}, "properties": {"name": "18th Ave Trail & 2nd Street NE", "lon": -93.266553, "lat": 45.006321, "status": "CLOSED", "stands": 15, "update": "2015-11-03T12:05:17", "address": "18th Ave Trail & 2nd Street NE", "bikes": 0}}, {"type": "Feature", "geometry": {"type": "Point", "coordinates": [-93.220066, 44.953566]}, "properties": {"name": "Nice Ride World Headquarters", "lon": -93.220066, "lat": 44.953566, "status": "CLOSED", "stands": 3, "update": "2015-11-04T00:00:56", "address": "Nice Ride World Headquarters", "bikes": 0}}]}