{"features": [{"properties": {"bikes": 0, "lon": -93.256551, "name": "100 Main Street SE", "stands": 27, "status": "CLOSED", "address": "100 Main Street SE", "update": "2015-11-04T12:04:04", "lat": 44.984892}, "geometry": {"type": "Point", "coordinates": [-93.256551, 44.984892]}, "type": "Feature"}, {"properties": {"bikes": 0, "lon": -93.223374, "name": "25th Street & 33rd Ave S", "stands": 15, "status": "CLOSED", "address": "25th Street & 33rd Ave S", "update": "2015-11-02T15:35:25", "lat": 44.957341}, "geometry": {"type": "Point", "coordinates": [-93.223374, 44.957341]}, "type": "Feature"}, {"properties": {"bikes": 0, "lon": -93.240149, "name": "Riverside Ave & 23rd Ave S", "stands": 15, "status": "CLOSED", "address": "Riverside Ave & 23rd Ave S", "update": "2015-11-02T17:49:24", "lat": 44.967115}, "geometry": {"type": "Point", "coordinates": [-93.240149, 44.967115]}, "type": "Feature"}, {"properties": {"bikes": 0, "lon": -93.306269, "name": "Plymouth Ave N &  N Oliver Ave", "stands": 15, "status": "CLOSED", "address": "Plymouth Ave N &  N Oliver Ave", "update": "2015-11-03T12:02:28", "lat": 44.991412}, "geometry": {"type": "Point", "coordinates": [-93.306269, 44.991412]}, "type": "Feature"}, {"properties": {"bikes": 0, "lon": -93.27869, "name": "11th Street & Hennepin", "stands": 23, "status": "CLOSED", "address": "11th Street & Hennepin", "update": "2015-11-02T20:11:46", "lat": 44.97534}, "geometry": {"type": "Point", "coordinates": [-93.27869, 44.97534]}, "type": "Feature"}, {"properties": {"bikes": 0, "lon": -93.25392, "name": "Hennepin & Central Avenue NE", "stands": 15, "status": "CLOSED", "address": "Hennepin & Central Avenue NE", "update": "2015-11-03T12:02:59", "lat": 44.98889}, "geometry": {"type": "Point", "coordinates": [-93.25392, 44.98889]}, "type": "Feature"}, {"properties": {"bikes": 0, "lon": -93.276435, "name": "YWCA Downtown", "stands": 23, "status": "CLOSED", "address": "YWCA Downtown", "update": "2015-11-05T12:03:53", "lat": 44.972217}, "geometry": {"type": "Point", "coordinates": [-93.276435, 44.972217]}, "type": "Feature"}, {"properties": {"bikes": 0, "lon": -93.26872, "name": "9th Street & 4th Ave", "stands": 19, "status": "CLOSED", "address": "9th Street & 4th Ave", "update": "2015-11-02T17:36:26", "lat": 44.97265}, "geometry": {"type": "Point", "coordinates": [-93.26872, 44.97265]}, "type": "Feature"}, {"properties": {"bikes": 0, "lon": -93.2602, "name": "Midtown Exchange", "stands": 19, "status": "CLOSED", "address": "Midtown Exchange", "update": "2015-11-02T16:50:41", "lat": 44.94859}, "geometry": {"type": "Point", "coordinates": [-93.2602, 44.94859]}, "type": "Feature"}, {"properties": {"bikes": 0, "lon": -93.23746, "name": "4th Street & 13th Ave SE", "stands": 19, "status": "CLOSED", "address": "4th Street & 13th Ave SE", "update": "2015-11-04T12:04:16", "lat": 44.98102}, "geometry": {"type": "Point", "coordinates": [-93.23746, 44.98102]}, "type": "Feature"}, {"properties": {"bikes": 0, "lon": -93.28305, "name": "Hennepin & Laurel Ave", "stands": 15, "status": "CLOSED", "address": "Hennepin & Laurel Ave", "update": "2015-11-02T20:06:54", "lat": 44.97391}, "geometry": {"type": "Point", "coordinates": [-93.28305, 44.97391]}, "type": "Feature"}, {"properties": {"bikes": 0, "lon": -93.272459, "name": "North 2nd Street & 4th Ave N", "stands": 19, "status": "CLOSED", "address": "North 2nd Street & 4th Ave N", "update": "2015-11-03T16:25:14", "lat": 44.986087}, "geometry": {"type": "Point", "coordinates": [-93.272459, 44.986087]}, "type": "Feature"}, {"properties": {"bikes": 0, "lon": -93.275861, "name": "Mpls Convention Center", "stands": 19, "status": "CLOSED", "address": "Mpls Convention Center", "update": "2015-11-03T12:02:31", "lat": 44.970041}, "geometry": {"type": "Point", "coordinates": [-93.275861, 44.970041]}, "type": "Feature"}, {"properties": {"bikes": 0, "lon": -93.288227319717, "name": "Lyndale Ave S & W 29th Street", "stands": 19, "status": "CLOSED", "address": "Lyndale Ave S & W 29th Street", "update": "2015-11-03T12:00:33", "lat": 44.949484653766}, "geometry": {"type": "Point", "coordinates": [-93.288227319717, 44.949484653766]}, "type": "Feature"}, {"properties": {"bikes": 0, "lon": -93.241042, "name": "22nd Ave S & Franklin Ave", "stands": 15, "status": "CLOSED", "address": "22nd Ave S & Franklin Ave", "update": "2015-11-02T17:04:42", "lat": 44.96293}, "geometry": {"type": "Point", "coordinates": [-93.241042, 44.96293]}, "type": "Feature"}, {"properties": {"bikes": 0, "lon": -93.24748, "name": "Washington & Cedar", "stands": 20, "status": "CLOSED", "address": "Washington & Cedar", "update": "2015-11-02T12:03:06", "lat": 44.97344}, "geometry": {"type": "Point", "coordinates": [-93.24748, 44.97344]}, "type": "Feature"}, {"properties": {"bikes": 0, "lon": -93.28848, "name": "Walker Art Center", "stands": 17, "status": "CLOSED", "address": "Walker Art Center", "update": "2015-11-04T18:12:24", "lat": 44.96746}, "geometry": {"type": "Point", "coordinates": [-93.28848, 44.96746]}, "type": "Feature"}, {"properties": {"bikes": 0, "lon": -93.28815, "name": "Lyndale Ave S & 22nd Street ", "stands": 19, "status": "CLOSED", "address": "Lyndale Ave S & 22nd Street ", "update": "2015-11-02T18:36:19", "lat": 44.960744}, "geometry": {"type": "Point", "coordinates": [-93.28815, 44.960744]}, "type": "Feature"}, {"properties": {"bikes": 0, "lon": -93.274981, "name": "MCAD", "stands": 17, "status": "CLOSED", "address": "MCAD", "update": "2015-11-04T18:44:19", "lat": 44.957214}, "geometry": {"type": "Point", "coordinates": [-93.274981, 44.957214]}, "type": "Feature"}, {"properties": {"bikes": 0, "lon": -93.243754, "name": "Social Sciences", "stands": 28, "status": "CLOSED", "address": "Social Sciences", "update": "2015-11-04T12:01:02", "lat": 44.971359}, "geometry": {"type": "Point", "coordinates": [-93.243754, 44.971359]}, "type": "Feature"}, {"properties": {"bikes": 0, "lon": -93.29853, "name": "YWCA Uptown", "stands": 19, "status": "CLOSED", "address": "YWCA Uptown", "update": "2015-11-03T12:00:35", "lat": 44.95131}, "geometry": {"type": "Point", "coordinates": [-93.29853, 44.95131]}, "type": "Feature"}, {"properties": {"bikes": 0, "lon": -93.27099, "name": "Washington & 2nd Ave N", "stands": 19, "status": "CLOSED", "address": "Washington & 2nd Ave N", "update": "2015-11-03T17:01:37", "lat": 44.98383}, "geometry": {"type": "Point", "coordinates": [-93.27099, 44.98383]}, "type": "Feature"}, {"properties": {"bikes": 0, "lon": -93.28775, "name": "26th Street & Lyndale", "stands": 15, "status": "CLOSED", "address": "26th Street & Lyndale", "update": "2015-11-02T20:50:58", "lat": 44.95548}, "geometry": {"type": "Point", "coordinates": [-93.28775, 44.95548]}, "type": "Feature"}, {"properties": {"bikes": 0, "lon": -93.26259, "name": "Chicago & 27th Street", "stands": 15, "status": "CLOSED", "address": "Chicago & 27th Street", "update": "2015-11-02T16:57:05", "lat": 44.95355}, "geometry": {"type": "Point", "coordinates": [-93.26259, 44.95355]}, "type": "Feature"}, {"properties": {"bikes": 0, "lon": -93.234762, "name": "Coffman Union", "stands": 3, "status": "CLOSED", "address": "Coffman Union", "update": "2015-11-03T19:21:58", "lat": 44.973378}, "geometry": {"type": "Point", "coordinates": [-93.234762, 44.973378]}, "type": "Feature"}, {"properties": {"bikes": 0, "lon": -93.234911, "name": "Williamson Hall", "stands": 25, "status": "CLOSED", "address": "Williamson Hall", "update": "2015-11-04T12:01:44", "lat": 44.977406}, "geometry": {"type": "Point", "coordinates": [-93.234911, 44.977406]}, "type": "Feature"}, {"properties": {"bikes": 0, "lon": -93.23206, "name": "Mayo Memorial Building", "stands": 25, "status": "CLOSED", "address": "Mayo Memorial Building", "update": "2015-11-04T12:02:17", "lat": 44.97209}, "geometry": {"type": "Point", "coordinates": [-93.23206, 44.97209]}, "type": "Feature"}, {"properties": {"bikes": 0, "lon": -93.24519, "name": "4th Street S & 19th Ave", "stands": 19, "status": "CLOSED", "address": "4th Street S & 19th Ave", "update": "2015-11-02T12:02:53", "lat": 44.97003}, "geometry": {"type": "Point", "coordinates": [-93.24519, 44.97003]}, "type": "Feature"}, {"properties": {"bikes": 0, "lon": -93.266925215721, "name": "Washington & Marquette", "stands": 19, "status": "CLOSED", "address": "Washington & Marquette", "update": "2015-11-03T15:58:52", "lat": 44.980873610847}, "geometry": {"type": "Point", "coordinates": [-93.266925215721, 44.980873610847]}, "type": "Feature"}, {"properties": {"bikes": 0, "lon": -93.266701, "name": "Hennepin County Government Center", "stands": 27, "status": "CLOSED", "address": "Hennepin County Government Center", "update": "2015-11-02T12:01:15", "lat": 44.976602}, "geometry": {"type": "Point", "coordinates": [-93.266701, 44.976602]}, "type": "Feature"}, {"properties": {"bikes": 0, "lon": -93.2583, "name": "Franklin & 11th Ave", "stands": 15, "status": "CLOSED", "address": "Franklin & 11th Ave", "update": "2015-11-02T17:18:16", "lat": 44.96251}, "geometry": {"type": "Point", "coordinates": [-93.2583, 44.96251]}, "type": "Feature"}, {"properties": {"bikes": 0, "lon": -93.22697, "name": "Oak Street Ramp", "stands": 23, "status": "CLOSED", "address": "Oak Street Ramp", "update": "2015-11-04T12:03:19", "lat": 44.97202}, "geometry": {"type": "Point", "coordinates": [-93.22697, 44.97202]}, "type": "Feature"}, {"properties": {"bikes": 0, "lon": -93.263454437256, "name": "South 2nd Street & 3rd Ave S", "stands": 27, "status": "CLOSED", "address": "South 2nd Street & 3rd Ave S", "update": "2015-11-03T16:03:17", "lat": 44.980926733576}, "geometry": {"type": "Point", "coordinates": [-93.263454437256, 44.980926733576]}, "type": "Feature"}, {"properties": {"bikes": 0, "lon": -93.221639, "name": "23rd Ave SE & 6th Street SE", "stands": 18, "status": "CLOSED", "address": "23rd Ave SE & 6th Street SE", "update": "2015-11-03T12:00:54", "lat": 44.977028}, "geometry": {"type": "Point", "coordinates": [-93.221639, 44.977028]}, "type": "Feature"}, {"properties": {"bikes": 0, "lon": -93.23189, "name": "4th Street & 17th Ave SE", "stands": 15, "status": "CLOSED", "address": "4th Street & 17th Ave SE", "update": "2015-11-03T17:25:28", "lat": 44.97913}, "geometry": {"type": "Point", "coordinates": [-93.23189, 44.97913]}, "type": "Feature"}, {"properties": {"bikes": 0, "lon": -93.284927, "name": "Loring Park", "stands": 15, "status": "CLOSED", "address": "Loring Park", "update": "2015-11-02T20:02:54", "lat": 44.9715}, "geometry": {"type": "Point", "coordinates": [-93.284927, 44.9715]}, "type": "Feature"}, {"properties": {"bikes": 0, "lon": -93.269217, "name": "Downtown Library", "stands": 31, "status": "CLOSED", "address": "Downtown Library", "update": "2015-11-03T19:45:55", "lat": 44.980199}, "geometry": {"type": "Point", "coordinates": [-93.269217, 44.980199]}, "type": "Feature"}, {"properties": {"bikes": 0, "lon": -93.251136, "name": "Currie Park", "stands": 15, "status": "CLOSED", "address": "Currie Park", "update": "2015-11-02T17:57:24", "lat": 44.969225}, "geometry": {"type": "Point", "coordinates": [-93.251136, 44.969225]}, "type": "Feature"}, {"properties": {"bikes": 0, "lon": -93.252269, "name": "E Franklin Ave & Bloomington Ave S", "stands": 15, "status": "CLOSED", "address": "E Franklin Ave & Bloomington Ave S", "update": "2015-11-02T17:05:18", "lat": 44.96285}, "geometry": {"type": "Point", "coordinates": [-93.252269, 44.96285]}, "type": "Feature"}, {"properties": {"bikes": 0, "lon": -93.274544, "name": "10th Street & Nicollet Mall", "stands": 0, "status": "CLOSED", "address": "10th Street & Nicollet Mall", "update": "1970-01-01T01:00:00", "lat": 44.973839}, "geometry": {"type": "Point", "coordinates": [-93.274544, 44.973839]}, "type": "Feature"}, {"properties": {"bikes": 0, "lon": -93.27405, "name": "11th Street & Marquette", "stands": 19, "status": "CLOSED", "address": "11th Street & Marquette", "update": "2015-11-05T12:03:12", "lat": 44.97265}, "geometry": {"type": "Point", "coordinates": [-93.27405, 44.97265]}, "type": "Feature"}, {"properties": {"bikes": 0, "lon": -93.267526, "name": "Franklin & Portland", "stands": 15, "status": "CLOSED", "address": "Franklin & Portland", "update": "2015-11-02T17:40:32", "lat": 44.962846}, "geometry": {"type": "Point", "coordinates": [-93.267526, 44.962846]}, "type": "Feature"}, {"properties": {"bikes": 0, "lon": -93.272185, "name": "IDS Center", "stands": 23, "status": "CLOSED", "address": "IDS Center", "update": "2015-11-02T20:53:36", "lat": 44.975641}, "geometry": {"type": "Point", "coordinates": [-93.272185, 44.975641]}, "type": "Feature"}, {"properties": {"bikes": 0, "lon": -93.30077, "name": "Lake Street & Humboldt", "stands": 19, "status": "CLOSED", "address": "Lake Street & Humboldt", "update": "2015-11-02T21:04:39", "lat": 44.94865}, "geometry": {"type": "Point", "coordinates": [-93.30077, 44.94865]}, "type": "Feature"}, {"properties": {"bikes": 0, "lon": -93.29714298, "name": "26th Street & Hennepin", "stands": 15, "status": "CLOSED", "address": "26th Street & Hennepin", "update": "2015-11-02T18:20:24", "lat": 44.9554734}, "geometry": {"type": "Point", "coordinates": [-93.29714298, 44.9554734]}, "type": "Feature"}, {"properties": {"bikes": 0, "lon": -93.230893, "name": "Franklin & 28th Ave", "stands": 19, "status": "CLOSED", "address": "Franklin & 28th Ave", "update": "2015-11-02T17:38:37", "lat": 44.962701}, "geometry": {"type": "Point", "coordinates": [-93.230893, 44.962701]}, "type": "Feature"}, {"properties": {"bikes": 0, "lon": -93.25576, "name": "University & Bank Street SE", "stands": 19, "status": "CLOSED", "address": "University & Bank Street SE", "update": "2015-11-03T12:03:42", "lat": 44.98717}, "geometry": {"type": "Point", "coordinates": [-93.25576, 44.98717]}, "type": "Feature"}, {"properties": {"bikes": 0, "lon": -93.29303, "name": "Dupont Ave & 22nd Street", "stands": 15, "status": "CLOSED", "address": "Dupont Ave & 22nd Street", "update": "2015-11-02T18:28:18", "lat": 44.96146}, "geometry": {"type": "Point", "coordinates": [-93.29303, 44.96146]}, "type": "Feature"}, {"properties": {"bikes": 0, "lon": -93.26599, "name": "3rd Street S & 2nd Ave S", "stands": 27, "status": "CLOSED", "address": "3rd Street S & 2nd Ave S", "update": "2015-11-03T18:51:46", "lat": 44.97974}, "geometry": {"type": "Point", "coordinates": [-93.26599, 44.97974]}, "type": "Feature"}, {"properties": {"bikes": 0, "lon": -93.275626, "name": "2nd Ave N & N 6th Street", "stands": 23, "status": "CLOSED", "address": "2nd Ave N & N 6th Street", "update": "2015-11-03T12:03:18", "lat": 44.980536}, "geometry": {"type": "Point", "coordinates": [-93.275626, 44.980536]}, "type": "Feature"}, {"properties": {"bikes": 0, "lon": -93.25535, "name": "Washington Ave S & 10th Ave S", "stands": 19, "status": "CLOSED", "address": "Washington Ave S & 10th Ave S", "update": "2015-11-02T16:16:45", "lat": 44.97654}, "geometry": {"type": "Point", "coordinates": [-93.25535, 44.97654]}, "type": "Feature"}, {"properties": {"bikes": 0, "lon": -93.27796, "name": "Nicollet Ave & W 26th Street", "stands": 15, "status": "CLOSED", "address": "Nicollet Ave & W 26th Street", "update": "2015-11-02T17:50:41", "lat": 44.95618}, "geometry": {"type": "Point", "coordinates": [-93.27796, 44.95618]}, "type": "Feature"}, {"properties": {"bikes": 0, "lon": -93.266684, "name": "7th Street & 4th Ave. S", "stands": 15, "status": "CLOSED", "address": "7th Street & 4th Ave. S", "update": "2015-11-02T17:27:25", "lat": 44.97497}, "geometry": {"type": "Point", "coordinates": [-93.266684, 44.97497]}, "type": "Feature"}, {"properties": {"bikes": 0, "lon": -93.279038071632, "name": "Target Field Station", "stands": 23, "status": "CLOSED", "address": "Target Field Station", "update": "2015-11-05T12:02:24", "lat": 44.984125390044}, "geometry": {"type": "Point", "coordinates": [-93.279038071632, 44.984125390044]}, "type": "Feature"}, {"properties": {"bikes": 0, "lon": -93.269278, "name": "Midtown Greenway & 5th Ave S", "stands": 15, "status": "CLOSED", "address": "Midtown Greenway & 5th Ave S", "update": "2015-11-04T17:23:01", "lat": 44.950371}, "geometry": {"type": "Point", "coordinates": [-93.269278, 44.950371]}, "type": "Feature"}, {"properties": {"bikes": 0, "lon": -93.211264014244, "name": "Malcolm Ave SE & 5th Street SE", "stands": 23, "status": "CLOSED", "address": "Malcolm Ave SE & 5th Street SE", "update": "2015-11-05T12:01:45", "lat": 44.973371428374}, "geometry": {"type": "Point", "coordinates": [-93.211264014244, 44.973371428374]}, "type": "Feature"}, {"properties": {"bikes": 0, "lon": -93.22854, "name": "McNamara Center", "stands": 19, "status": "CLOSED", "address": "McNamara Center", "update": "2015-11-04T12:00:53", "lat": 44.9743}, "geometry": {"type": "Point", "coordinates": [-93.22854, 44.9743]}, "type": "Feature"}, {"properties": {"bikes": 0, "lon": -93.23818, "name": "Elliot Hall", "stands": 14, "status": "CLOSED", "address": "Elliot Hall", "update": "2015-11-03T16:36:45", "lat": 44.97685}, "geometry": {"type": "Point", "coordinates": [-93.23818, 44.97685]}, "type": "Feature"}, {"properties": {"bikes": 0, "lon": -93.26079, "name": "Elliot Park", "stands": 15, "status": "CLOSED", "address": "Elliot Park", "update": "2015-11-02T17:48:39", "lat": 44.970553}, "geometry": {"type": "Point", "coordinates": [-93.26079, 44.970553]}, "type": "Feature"}, {"properties": {"bikes": 0, "lon": -93.29736, "name": "W 31st Street & Hennepin Ave S", "stands": 19, "status": "CLOSED", "address": "W 31st Street & Hennepin Ave S", "update": "2015-11-02T19:23:51", "lat": 44.946687}, "geometry": {"type": "Point", "coordinates": [-93.29736, 44.946687]}, "type": "Feature"}, {"properties": {"bikes": 0, "lon": -93.277939, "name": "Nicollet & Franklin", "stands": 23, "status": "CLOSED", "address": "Nicollet & Franklin", "update": "2015-11-02T17:46:41", "lat": 44.96342}, "geometry": {"type": "Point", "coordinates": [-93.277939, 44.96342]}, "type": "Feature"}, {"properties": {"bikes": 0, "lon": -93.27831, "name": "28th Street & Nicollet Ave. S", "stands": 15, "status": "CLOSED", "address": "28th Street & Nicollet Ave. S", "update": "2015-11-02T17:55:02", "lat": 44.9519}, "geometry": {"type": "Point", "coordinates": [-93.27831, 44.9519]}, "type": "Feature"}, {"properties": {"bikes": 0, "lon": -93.304427, "name": "Glenwood Ave & N Morgan Ave.", "stands": 14, "status": "CLOSED", "address": "Glenwood Ave & N Morgan Ave.", "update": "2015-11-03T12:01:17", "lat": 44.981147}, "geometry": {"type": "Point", "coordinates": [-93.304427, 44.981147]}, "type": "Feature"}, {"properties": {"bikes": 0, "lon": -93.28542, "name": "Minneapolis Farmers Market", "stands": 15, "status": "CLOSED", "address": "Minneapolis Farmers Market", "update": "2015-11-03T12:03:36", "lat": 44.98052}, "geometry": {"type": "Point", "coordinates": [-93.28542, 44.98052]}, "type": "Feature"}, {"properties": {"bikes": 0, "lon": -93.279783725739, "name": "Washington Ave N & 9th Ave N", "stands": 15, "status": "CLOSED", "address": "Washington Ave N & 9th Ave N", "update": "2015-11-03T15:59:36", "lat": 44.989879107463}, "geometry": {"type": "Point", "coordinates": [-93.279783725739, 44.989879107463]}, "type": "Feature"}, {"properties": {"bikes": 0, "lon": -93.322066, "name": "Wirth Beach", "stands": 15, "status": "CLOSED", "address": "Wirth Beach", "update": "2015-11-06T12:02:56", "lat": 44.9798}, "geometry": {"type": "Point", "coordinates": [-93.322066, 44.9798]}, "type": "Feature"}, {"properties": {"bikes": 0, "lon": -93.290941, "name": "Bryant Ave N & West Broadway", "stands": 10, "status": "CLOSED", "address": "Bryant Ave N & West Broadway", "update": "2015-11-03T16:15:20", "lat": 44.999341}, "geometry": {"type": "Point", "coordinates": [-93.290941, 44.999341]}, "type": "Feature"}, {"properties": {"bikes": 0, "lon": -93.297071, "name": "Girard Ave N & W Broadway Ave", "stands": 15, "status": "CLOSED", "address": "Girard Ave N & W Broadway Ave", "update": "2015-11-03T15:48:24", "lat": 44.99957}, "geometry": {"type": "Point", "coordinates": [-93.297071, 44.99957]}, "type": "Feature"}, {"properties": {"bikes": 0, "lon": -93.287559, "name": "Farview Park", "stands": 15, "status": "CLOSED", "address": "Farview Park", "update": "2015-11-03T12:03:54", "lat": 45.005994}, "geometry": {"type": "Point", "coordinates": [-93.287559, 45.005994]}, "type": "Feature"}, {"properties": {"bikes": 0, "lon": -93.305857, "name": "West Broadway & Logan Ave N", "stands": 15, "status": "CLOSED", "address": "West Broadway & Logan Ave N", "update": "2015-11-03T15:42:46", "lat": 45.002448}, "geometry": {"type": "Point", "coordinates": [-93.305857, 45.002448]}, "type": "Feature"}, {"properties": {"bikes": 0, "lon": -93.307798, "name": "Lowry Ave N & Penn Ave", "stands": 15, "status": "CLOSED", "address": "Lowry Ave N & Penn Ave", "update": "2015-11-03T12:01:37", "lat": 45.013318}, "geometry": {"type": "Point", "coordinates": [-93.307798, 45.013318]}, "type": "Feature"}, {"properties": {"bikes": 0, "lon": -93.298634, "name": "West 34th Street  & Hennepin Ave S", "stands": 19, "status": "CLOSED", "address": "West 34th Street  & Hennepin Ave S", "update": "2015-11-02T18:50:10", "lat": 44.941388}, "geometry": {"type": "Point", "coordinates": [-93.298634, 44.941388]}, "type": "Feature"}, {"properties": {"bikes": 0, "lon": -93.218919, "name": "27th Ave SE & University Ave.", "stands": 15, "status": "CLOSED", "address": "27th Ave SE & University Ave.", "update": "2015-11-03T12:01:32", "lat": 44.97259}, "geometry": {"type": "Point", "coordinates": [-93.218919, 44.97259]}, "type": "Feature"}, {"properties": {"bikes": 0, "lon": -93.20525, "name": "Curfew Street & Ellis Ave.", "stands": 15, "status": "CLOSED", "address": "Curfew Street & Ellis Ave.", "update": "2015-11-03T12:03:26", "lat": 44.96616}, "geometry": {"type": "Point", "coordinates": [-93.20525, 44.96616]}, "type": "Feature"}, {"properties": {"bikes": 0, "lon": -93.195906, "name": "Carleton Street & University Ave ", "stands": 14, "status": "CLOSED", "address": "Carleton Street & University Ave ", "update": "2015-11-03T16:21:07", "lat": 44.963549}, "geometry": {"type": "Point", "coordinates": [-93.195906, 44.963549]}, "type": "Feature"}, {"properties": {"bikes": 0, "lon": -93.17706, "name": "Fairview Ave. & University Ave.", "stands": 15, "status": "CLOSED", "address": "Fairview Ave. & University Ave.", "update": "2015-11-04T12:04:18", "lat": 44.95665}, "geometry": {"type": "Point", "coordinates": [-93.17706, 44.95665]}, "type": "Feature"}, {"properties": {"bikes": 0, "lon": -93.165868, "name": "Hamline University", "stands": 15, "status": "CLOSED", "address": "Hamline University", "update": "2015-11-04T12:03:44", "lat": 44.964172}, "geometry": {"type": "Point", "coordinates": [-93.165868, 44.964172]}, "type": "Feature"}, {"properties": {"bikes": 0, "lon": -93.16734, "name": "Sherburne Ave & Snelling Ave N", "stands": 15, "status": "CLOSED", "address": "Sherburne Ave & Snelling Ave N", "update": "2015-11-04T12:01:44", "lat": 44.956624}, "geometry": {"type": "Point", "coordinates": [-93.16734, 44.956624]}, "type": "Feature"}, {"properties": {"bikes": 0, "lon": -93.24054, "name": "Midtown YWCA", "stands": 15, "status": "CLOSED", "address": "Midtown YWCA", "update": "2015-11-04T12:01:34", "lat": 44.94823}, "geometry": {"type": "Point", "coordinates": [-93.24054, 44.94823]}, "type": "Feature"}, {"properties": {"bikes": 0, "lon": -93.22106, "name": "East Lake Street & 36th Ave S", "stands": 15, "status": "CLOSED", "address": "East Lake Street & 36th Ave S", "update": "2015-11-02T16:20:50", "lat": 44.94826}, "geometry": {"type": "Point", "coordinates": [-93.22106, 44.94826]}, "type": "Feature"}, {"properties": {"bikes": 0, "lon": -93.136556, "name": "N Victoria Street & University Ave ", "stands": 15, "status": "CLOSED", "address": "N Victoria Street & University Ave ", "update": "2015-11-04T12:02:17", "lat": 44.956052}, "geometry": {"type": "Point", "coordinates": [-93.136556, 44.956052]}, "type": "Feature"}, {"properties": {"bikes": 0, "lon": -93.185819, "name": "Wilder Street & Marshall Ave", "stands": 15, "status": "CLOSED", "address": "Wilder Street & Marshall Ave", "update": "2015-11-02T15:41:52", "lat": 44.948147}, "geometry": {"type": "Point", "coordinates": [-93.185819, 44.948147]}, "type": "Feature"}, {"properties": {"bikes": 0, "lon": -93.177093, "name": "Grand Ave & Fairview Ave", "stands": 15, "status": "CLOSED", "address": "Grand Ave & Fairview Ave", "update": "2015-11-02T12:02:44", "lat": 44.940513}, "geometry": {"type": "Point", "coordinates": [-93.177093, 44.940513]}, "type": "Feature"}, {"properties": {"bikes": 0, "lon": -93.17022, "name": "Macalester College", "stands": 15, "status": "CLOSED", "address": "Macalester College", "update": "2015-11-02T15:55:41", "lat": 44.940218}, "geometry": {"type": "Point", "coordinates": [-93.17022, 44.940218]}, "type": "Feature"}, {"properties": {"bikes": 0, "lon": -93.2669, "name": "Grant Street & Portland Ave", "stands": 15, "status": "CLOSED", "address": "Grant Street & Portland Ave", "update": "2015-11-02T17:44:02", "lat": 44.96954}, "geometry": {"type": "Point", "coordinates": [-93.2669, 44.96954]}, "type": "Feature"}, {"properties": {"bikes": 0, "lon": -93.24812, "name": "6th Ave. SE & University Ave.", "stands": 23, "status": "CLOSED", "address": "6th Ave. SE & University Ave.", "update": "2015-11-06T12:01:22", "lat": 44.983281}, "geometry": {"type": "Point", "coordinates": [-93.24812, 44.983281]}, "type": "Feature"}, {"properties": {"bikes": 0, "lon": -93.317294418812, "name": "Lake Calhoun Center", "stands": 27, "status": "CLOSED", "address": "Lake Calhoun Center", "update": "2015-11-02T19:37:02", "lat": 44.948467166877}, "geometry": {"type": "Point", "coordinates": [-93.317294418812, 44.948467166877]}, "type": "Feature"}, {"properties": {"bikes": 0, "lon": -93.26023, "name": "Portland Ave. & Washington Ave.", "stands": 19, "status": "CLOSED", "address": "Portland Ave. & Washington Ave.", "update": "2015-11-02T16:53:04", "lat": 44.978068}, "geometry": {"type": "Point", "coordinates": [-93.26023, 44.978068]}, "type": "Feature"}, {"properties": {"bikes": 0, "lon": -93.2675139, "name": "Gateway Park", "stands": 15, "status": "CLOSED", "address": "Gateway Park", "update": "2015-11-03T17:18:46", "lat": 44.9825943}, "geometry": {"type": "Point", "coordinates": [-93.2675139, 44.9825943]}, "type": "Feature"}, {"properties": {"bikes": 0, "lon": -93.266854, "name": "Marshall Street NE & 8th Ave. NE", "stands": 15, "status": "CLOSED", "address": "Marshall Street NE & 8th Ave. NE", "update": "2015-11-03T12:03:08", "lat": 44.995348}, "geometry": {"type": "Point", "coordinates": [-93.266854, 44.995348]}, "type": "Feature"}, {"properties": {"bikes": 0, "lon": -93.27651, "name": "2nd Street N & 8th Ave. N", "stands": 19, "status": "CLOSED", "address": "2nd Street N & 8th Ave. N", "update": "2015-11-03T20:46:37", "lat": 44.989166}, "geometry": {"type": "Point", "coordinates": [-93.27651, 44.989166]}, "type": "Feature"}, {"properties": {"bikes": 0, "lon": -93.26296, "name": "University Ave. NE & 12th Ave. NE", "stands": 15, "status": "CLOSED", "address": "University Ave. NE & 12th Ave. NE", "update": "2015-11-03T15:32:37", "lat": 44.999894}, "geometry": {"type": "Point", "coordinates": [-93.26296, 44.999894]}, "type": "Feature"}, {"properties": {"bikes": 0, "lon": -93.283163, "name": "Pleasant Ave S &  Lake Street", "stands": 15, "status": "CLOSED", "address": "Pleasant Ave S &  Lake Street", "update": "2015-11-03T12:03:10", "lat": 44.948556}, "geometry": {"type": "Point", "coordinates": [-93.283163, 44.948556]}, "type": "Feature"}, {"properties": {"bikes": 0, "lon": -93.29038, "name": "West 32nd Street & Bryant Ave S", "stands": 15, "status": "CLOSED", "address": "West 32nd Street & Bryant Ave S", "update": "2015-11-02T18:36:48", "lat": 44.94478}, "geometry": {"type": "Point", "coordinates": [-93.29038, 44.94478]}, "type": "Feature"}, {"properties": {"bikes": 0, "lon": -93.2912, "name": "West 36th Street & Bryant Ave S", "stands": 15, "status": "CLOSED", "address": "West 36th Street & Bryant Ave S", "update": "2015-11-02T18:43:35", "lat": 44.93775}, "geometry": {"type": "Point", "coordinates": [-93.2912, 44.93775]}, "type": "Feature"}, {"properties": {"bikes": 0, "lon": -93.281991, "name": "West 15th Street & Willow", "stands": 19, "status": "CLOSED", "address": "West 15th Street & Willow", "update": "2015-11-02T19:21:53", "lat": 44.968237}, "geometry": {"type": "Point", "coordinates": [-93.281991, 44.968237]}, "type": "Feature"}, {"properties": {"bikes": 0, "lon": -93.192758, "name": "Grand Ave & Cretin Ave", "stands": 15, "status": "CLOSED", "address": "Grand Ave & Cretin Ave", "update": "2015-11-04T12:01:54", "lat": 44.939936}, "geometry": {"type": "Point", "coordinates": [-93.192758, 44.939936]}, "type": "Feature"}, {"properties": {"bikes": 0, "lon": -93.1529, "name": "Kowalski's Market", "stands": 15, "status": "CLOSED", "address": "Kowalski's Market", "update": "2015-11-03T20:24:25", "lat": 44.94016}, "geometry": {"type": "Point", "coordinates": [-93.1529, 44.94016]}, "type": "Feature"}, {"properties": {"bikes": 0, "lon": -93.138832, "name": "N Milton Street & Summit Ave", "stands": 15, "status": "CLOSED", "address": "N Milton Street & Summit Ave", "update": "2015-11-05T12:04:33", "lat": 44.941599}, "geometry": {"type": "Point", "coordinates": [-93.138832, 44.941599]}, "type": "Feature"}, {"properties": {"bikes": 0, "lon": -93.1517, "name": "Como Park Conservatory", "stands": 19, "status": "CLOSED", "address": "Como Park Conservatory", "update": "2015-11-06T12:04:33", "lat": 44.98115}, "geometry": {"type": "Point", "coordinates": [-93.1517, 44.98115]}, "type": "Feature"}, {"properties": {"bikes": 0, "lon": -93.12661, "name": "Hague Ave & Dale Street", "stands": 15, "status": "CLOSED", "address": "Hague Ave & Dale Street", "update": "2015-11-03T18:23:22", "lat": 44.945736}, "geometry": {"type": "Point", "coordinates": [-93.12661, 44.945736]}, "type": "Feature"}, {"properties": {"bikes": 0, "lon": -93.25276, "name": "Logan Park", "stands": 15, "status": "CLOSED", "address": "Logan Park", "update": "2015-11-03T15:38:39", "lat": 44.99882}, "geometry": {"type": "Point", "coordinates": [-93.25276, 44.99882]}, "type": "Feature"}, {"properties": {"bikes": 0, "lon": -93.146379, "name": "Lexington Pkwy & University Ave", "stands": 15, "status": "CLOSED", "address": "Lexington Pkwy & University Ave", "update": "2015-11-04T12:02:43", "lat": 44.955363}, "geometry": {"type": "Point", "coordinates": [-93.146379, 44.955363]}, "type": "Feature"}, {"properties": {"bikes": 0, "lon": -93.126088, "name": "Dale Street N & University Ave", "stands": 15, "status": "CLOSED", "address": "Dale Street N & University Ave", "update": "2015-11-04T12:04:35", "lat": 44.956066}, "geometry": {"type": "Point", "coordinates": [-93.126088, 44.956066]}, "type": "Feature"}, {"properties": {"bikes": 0, "lon": -93.214864, "name": "University Ave SE & 29th Ave SE", "stands": 15, "status": "CLOSED", "address": "University Ave SE & 29th Ave SE", "update": "2015-11-03T12:04:29", "lat": 44.971012}, "geometry": {"type": "Point", "coordinates": [-93.214864, 44.971012]}, "type": "Feature"}, {"properties": {"bikes": 0, "lon": -93.212892, "name": "Como Ave. SE & 29th Ave. SE", "stands": 14, "status": "CLOSED", "address": "Como Ave. SE & 29th Ave. SE", "update": "2015-11-04T12:02:02", "lat": 44.987934}, "geometry": {"type": "Point", "coordinates": [-93.212892, 44.987934]}, "type": "Feature"}, {"properties": {"bikes": 0, "lon": -93.230469, "name": "15th Ave. SE & Como Ave. SE", "stands": 15, "status": "CLOSED", "address": "15th Ave. SE & Como Ave. SE", "update": "2015-11-04T12:03:43", "lat": 44.987517}, "geometry": {"type": "Point", "coordinates": [-93.230469, 44.987517]}, "type": "Feature"}, {"properties": {"bikes": 0, "lon": -93.143383, "name": "Lake Como Pavilion", "stands": 23, "status": "CLOSED", "address": "Lake Como Pavilion", "update": "2015-11-06T12:03:30", "lat": 44.981914}, "geometry": {"type": "Point", "coordinates": [-93.143383, 44.981914]}, "type": "Feature"}, {"properties": {"bikes": 0, "lon": -93.126261, "name": "Dale Street & Grand Ave.", "stands": 14, "status": "CLOSED", "address": "Dale Street & Grand Ave.", "update": "2015-11-03T20:18:08", "lat": 44.939779}, "geometry": {"type": "Point", "coordinates": [-93.126261, 44.939779]}, "type": "Feature"}, {"properties": {"bikes": 0, "lon": -93.156984, "name": "St. Paul Police Western District", "stands": 14, "status": "CLOSED", "address": "St. Paul Police Western District", "update": "2015-11-04T12:01:33", "lat": 44.953527}, "geometry": {"type": "Point", "coordinates": [-93.156984, 44.953527]}, "type": "Feature"}, {"properties": {"bikes": 0, "lon": -93.247114, "name": "Central Ave. NE & 22nd Ave NE", "stands": 15, "status": "CLOSED", "address": "Central Ave. NE & 22nd Ave NE", "update": "2015-11-02T22:12:16", "lat": 45.00994}, "geometry": {"type": "Point", "coordinates": [-93.247114, 45.00994]}, "type": "Feature"}, {"properties": {"bikes": 0, "lon": -93.185029, "name": "U of M St. Paul Student Center", "stands": 15, "status": "CLOSED", "address": "U of M St. Paul Student Center", "update": "2015-11-04T12:03:09", "lat": 44.984527}, "geometry": {"type": "Point", "coordinates": [-93.185029, 44.984527]}, "type": "Feature"}, {"properties": {"bikes": 0, "lon": -93.1873, "name": "Cleveland Ave N & Laurel Ave", "stands": 15, "status": "CLOSED", "address": "Cleveland Ave N & Laurel Ave", "update": "2015-11-02T12:00:26", "lat": 44.945367}, "geometry": {"type": "Point", "coordinates": [-93.1873, 44.945367]}, "type": "Feature"}, {"properties": {"bikes": 0, "lon": -93.2321, "name": "Washington Ave SE & Union Street SE", "stands": 27, "status": "CLOSED", "address": "Washington Ave SE & Union Street SE", "update": "2015-11-04T12:04:39", "lat": 44.97394}, "geometry": {"type": "Point", "coordinates": [-93.2321, 44.97394]}, "type": "Feature"}, {"properties": {"bikes": 0, "lon": -93.10673, "name": "Minnesota History Center", "stands": 15, "status": "CLOSED", "address": "Minnesota History Center", "update": "2015-11-04T12:03:00", "lat": 44.949053}, "geometry": {"type": "Point", "coordinates": [-93.10673, 44.949053]}, "type": "Feature"}, {"properties": {"bikes": 0, "lon": -93.09759, "name": "10th Street E & Cedar Street", "stands": 15, "status": "CLOSED", "address": "10th Street E & Cedar Street", "update": "2015-11-04T12:05:03", "lat": 44.950189}, "geometry": {"type": "Point", "coordinates": [-93.09759, 44.950189]}, "type": "Feature"}, {"properties": {"bikes": 0, "lon": -93.091207, "name": "7th Place & Jackson Street", "stands": 14, "status": "CLOSED", "address": "7th Place & Jackson Street", "update": "2015-11-04T12:01:19", "lat": 44.949433}, "geometry": {"type": "Point", "coordinates": [-93.091207, 44.949433]}, "type": "Feature"}, {"properties": {"bikes": 0, "lon": -93.086584, "name": "Union Depot", "stands": 23, "status": "CLOSED", "address": "Union Depot", "update": "2015-11-04T12:03:51", "lat": 44.948399}, "geometry": {"type": "Point", "coordinates": [-93.086584, 44.948399]}, "type": "Feature"}, {"properties": {"bikes": 0, "lon": -93.088802, "name": "Kellogg Blvd E & Jackson Street", "stands": 19, "status": "CLOSED", "address": "Kellogg Blvd E & Jackson Street", "update": "2015-11-04T12:00:48", "lat": 44.946191}, "geometry": {"type": "Point", "coordinates": [-93.088802, 44.946191]}, "type": "Feature"}, {"properties": {"bikes": 0, "lon": -93.089245, "name": "7th Street E & Wacouta Street", "stands": 15, "status": "CLOSED", "address": "7th Street E & Wacouta Street", "update": "2015-11-04T12:02:09", "lat": 44.950766}, "geometry": {"type": "Point", "coordinates": [-93.089245, 44.950766]}, "type": "Feature"}, {"properties": {"bikes": 0, "lon": -93.0845, "name": "Broadway Street N & 4th Street E", "stands": 19, "status": "CLOSED", "address": "Broadway Street N & 4th Street E", "update": "2015-11-04T12:03:15", "lat": 44.94965}, "geometry": {"type": "Point", "coordinates": [-93.0845, 44.94965]}, "type": "Feature"}, {"properties": {"bikes": 0, "lon": -93.10445, "name": "Minnesota Dept. of Transportation", "stands": 15, "status": "CLOSED", "address": "Minnesota Dept. of Transportation", "update": "2015-11-04T12:04:25", "lat": 44.95385}, "geometry": {"type": "Point", "coordinates": [-93.10445, 44.95385]}, "type": "Feature"}, {"properties": {"bikes": 0, "lon": -93.103863, "name": "Kellogg Blvd W & Smith Ave", "stands": 15, "status": "CLOSED", "address": "Kellogg Blvd W & Smith Ave", "update": "2015-11-04T12:02:06", "lat": 44.945173}, "geometry": {"type": "Point", "coordinates": [-93.103863, 44.945173]}, "type": "Feature"}, {"properties": {"bikes": 0, "lon": -93.08465, "name": "Lafayette Road & Grove Street", "stands": 18, "status": "CLOSED", "address": "Lafayette Road & Grove Street", "update": "2015-11-04T12:04:28", "lat": 44.956028}, "geometry": {"type": "Point", "coordinates": [-93.08465, 44.956028]}, "type": "Feature"}, {"properties": {"bikes": 0, "lon": -93.09231, "name": "5th Street E & Minnesota Street N", "stands": 19, "status": "CLOSED", "address": "5th Street E & Minnesota Street N", "update": "2015-11-04T12:02:56", "lat": 44.94683}, "geometry": {"type": "Point", "coordinates": [-93.09231, 44.94683]}, "type": "Feature"}, {"properties": {"bikes": 0, "lon": -93.096114, "name": "Landmark Plaza", "stands": 19, "status": "CLOSED", "address": "Landmark Plaza", "update": "2015-11-04T12:01:10", "lat": 44.945267}, "geometry": {"type": "Point", "coordinates": [-93.096114, 44.945267]}, "type": "Feature"}, {"properties": {"bikes": 0, "lon": -93.09663, "name": "Wells Fargo Place", "stands": 19, "status": "CLOSED", "address": "Wells Fargo Place", "update": "2015-11-04T12:02:05", "lat": 44.94813}, "geometry": {"type": "Point", "coordinates": [-93.09663, 44.94813]}, "type": "Feature"}, {"properties": {"bikes": 0, "lon": -93.0779, "name": "State Street & Cesar Chavez Street", "stands": 15, "status": "CLOSED", "address": "State Street & Cesar Chavez Street", "update": "2015-11-04T12:04:24", "lat": 44.93002}, "geometry": {"type": "Point", "coordinates": [-93.0779, 44.93002]}, "type": "Feature"}, {"properties": {"bikes": 0, "lon": -93.089031, "name": "Wabasha Street S & E Fillmore Ave", "stands": 15, "status": "CLOSED", "address": "Wabasha Street S & E Fillmore Ave", "update": "2015-11-04T12:01:14", "lat": 44.939047}, "geometry": {"type": "Point", "coordinates": [-93.089031, 44.939047]}, "type": "Feature"}, {"properties": {"bikes": 0, "lon": -93.094532, "name": "Harriet Island", "stands": 19, "status": "CLOSED", "address": "Harriet Island", "update": "2015-11-05T12:04:17", "lat": 44.93768}, "geometry": {"type": "Point", "coordinates": [-93.094532, 44.93768]}, "type": "Feature"}, {"properties": {"bikes": 0, "lon": -93.09227, "name": "Kellogg Blvd & Wabasha Street", "stands": 19, "status": "CLOSED", "address": "Kellogg Blvd & Wabasha Street", "update": "2015-11-04T12:03:37", "lat": 44.943846}, "geometry": {"type": "Point", "coordinates": [-93.09227, 44.943846]}, "type": "Feature"}, {"properties": {"bikes": 0, "lon": -93.084497, "name": "Wabasha Street S & Cesar Chavez Street", "stands": 15, "status": "CLOSED", "address": "Wabasha Street S & Cesar Chavez Street", "update": "2015-11-04T12:04:05", "lat": 44.934503}, "geometry": {"type": "Point", "coordinates": [-93.084497, 44.934503]}, "type": "Feature"}, {"properties": {"bikes": 0, "lon": -93.098712, "name": "Upper Landing", "stands": 19, "status": "CLOSED", "address": "Upper Landing", "update": "2015-11-05T12:03:25", "lat": 44.940902}, "geometry": {"type": "Point", "coordinates": [-93.098712, 44.940902]}, "type": "Feature"}, {"properties": {"bikes": 0, "lon": -93.10624, "name": "7th Street W & Grand Ave", "stands": 19, "status": "CLOSED", "address": "7th Street W & Grand Ave", "update": "2015-11-04T12:03:01", "lat": 44.94144}, "geometry": {"type": "Point", "coordinates": [-93.10624, 44.94144]}, "type": "Feature"}, {"properties": {"bikes": 0, "lon": -93.097836, "name": "Science Museum of Minnesota", "stands": 19, "status": "CLOSED", "address": "Science Museum of Minnesota", "update": "2015-11-04T12:01:57", "lat": 44.942846}, "geometry": {"type": "Point", "coordinates": [-93.097836, 44.942846]}, "type": "Feature"}, {"properties": {"bikes": 0, "lon": -93.1151, "name": "Selby Ave & Virginia Street", "stands": 19, "status": "CLOSED", "address": "Selby Ave & Virginia Street", "update": "2015-11-03T18:15:40", "lat": 44.9467}, "geometry": {"type": "Point", "coordinates": [-93.1151, 44.9467]}, "type": "Feature"}, {"properties": {"bikes": 0, "lon": -93.11665, "name": "University Ave & Western Ave", "stands": 15, "status": "CLOSED", "address": "University Ave & Western Ave", "update": "2015-11-04T12:02:32", "lat": 44.95562}, "geometry": {"type": "Point", "coordinates": [-93.11665, 44.95562]}, "type": "Feature"}, {"properties": {"bikes": 0, "lon": -93.097817, "name": "E 14th Street & N Robert Street ", "stands": 17, "status": "CLOSED", "address": "E 14th Street & N Robert Street ", "update": "2015-11-04T12:02:31", "lat": 44.954697}, "geometry": {"type": "Point", "coordinates": [-93.097817, 44.954697]}, "type": "Feature"}, {"properties": {"bikes": 0, "lon": -93.10955, "name": "N Marion Street & University Ave W", "stands": 15, "status": "CLOSED", "address": "N Marion Street & University Ave W", "update": "2015-11-04T12:02:24", "lat": 44.95476}, "geometry": {"type": "Point", "coordinates": [-93.10955, 44.95476]}, "type": "Feature"}, {"properties": {"bikes": 0, "lon": -93.094545, "name": "N Robert Street & E 10th Street", "stands": 19, "status": "CLOSED", "address": "N Robert Street & E 10th Street", "update": "2015-11-04T12:04:03", "lat": 44.951132}, "geometry": {"type": "Point", "coordinates": [-93.094545, 44.951132]}, "type": "Feature"}, {"properties": {"bikes": 0, "lon": -93.277505, "name": "9th Street N & Hawthorne Ave", "stands": 25, "status": "CLOSED", "address": "9th Street N & Hawthorne Ave", "update": "2015-11-02T12:01:01", "lat": 44.977128}, "geometry": {"type": "Point", "coordinates": [-93.277505, 44.977128]}, "type": "Feature"}, {"properties": {"bikes": 0, "lon": -93.256736, "name": "Chicago Ave & Washington Ave S", "stands": 19, "status": "CLOSED", "address": "Chicago Ave & Washington Ave S", "update": "2015-11-02T16:37:18", "lat": 44.977521}, "geometry": {"type": "Point", "coordinates": [-93.256736, 44.977521]}, "type": "Feature"}, {"properties": {"bikes": 0, "lon": -93.269087, "name": "N 4th Ave & W River Parkway", "stands": 15, "status": "CLOSED", "address": "N 4th Ave & W River Parkway", "update": "2015-11-03T16:29:31", "lat": 44.988461}, "geometry": {"type": "Point", "coordinates": [-93.269087, 44.988461]}, "type": "Feature"}, {"properties": {"bikes": 0, "lon": -93.277037, "name": "Minneapolis Park & Recreation Board", "stands": 15, "status": "CLOSED", "address": "Minneapolis Park & Recreation Board", "update": "2015-11-03T12:03:13", "lat": 45.00095}, "geometry": {"type": "Point", "coordinates": [-93.277037, 45.00095]}, "type": "Feature"}, {"properties": {"bikes": 0, "lon": -93.29065, "name": "Webber Park", "stands": 15, "status": "CLOSED", "address": "Webber Park", "update": "2015-11-06T12:02:49", "lat": 45.033069}, "geometry": {"type": "Point", "coordinates": [-93.29065, 45.033069]}, "type": "Feature"}, {"properties": {"bikes": 0, "lon": -93.187381, "name": "Fort Snelling Visitor Center", "stands": 19, "status": "CLOSED", "address": "Fort Snelling Visitor Center", "update": "2015-11-05T12:04:20", "lat": 44.894044}, "geometry": {"type": "Point", "coordinates": [-93.187381, 44.894044]}, "type": "Feature"}, {"properties": {"bikes": 0, "lon": -93.213587, "name": "Minnehaha Park", "stands": 27, "status": "CLOSED", "address": "Minnehaha Park", "update": "2015-11-02T16:12:46", "lat": 44.916906}, "geometry": {"type": "Point", "coordinates": [-93.213587, 44.916906]}, "type": "Feature"}, {"properties": {"bikes": 0, "lon": -93.30713, "name": "Lake Harriet Bandshell", "stands": 25, "status": "CLOSED", "address": "Lake Harriet Bandshell", "update": "2015-11-05T12:03:34", "lat": 44.92936}, "geometry": {"type": "Point", "coordinates": [-93.30713, 44.92936]}, "type": "Feature"}, {"properties": {"bikes": 0, "lon": -93.242761, "name": "Lake Nokomis", "stands": 23, "status": "CLOSED", "address": "Lake Nokomis", "update": "2015-11-06T12:03:51", "lat": 44.915957}, "geometry": {"type": "Point", "coordinates": [-93.242761, 44.915957]}, "type": "Feature"}, {"properties": {"bikes": 0, "lon": -93.2125, "name": "E 38th Street & 42nd Ave S", "stands": 15, "status": "CLOSED", "address": "E 38th Street & 42nd Ave S", "update": "2015-11-02T15:40:24", "lat": 44.9342}, "geometry": {"type": "Point", "coordinates": [-93.2125, 44.9342]}, "type": "Feature"}, {"properties": {"bikes": 0, "lon": -93.320212, "name": "W 36th Street & W Calhoun Parkway", "stands": 19, "status": "CLOSED", "address": "W 36th Street & W Calhoun Parkway", "update": "2015-11-05T12:00:59", "lat": 44.937817}, "geometry": {"type": "Point", "coordinates": [-93.320212, 44.937817]}, "type": "Feature"}, {"properties": {"bikes": 0, "lon": -93.206201, "name": "Lake Street & West River Parkway", "stands": 15, "status": "CLOSED", "address": "Lake Street & West River Parkway", "update": "2015-11-02T15:48:18", "lat": 44.948452}, "geometry": {"type": "Point", "coordinates": [-93.206201, 44.948452]}, "type": "Feature"}, {"properties": {"bikes": 0, "lon": -93.293129, "name": "Dupont Ave S & W 29th Street", "stands": 15, "status": "CLOSED", "address": "Dupont Ave S & W 29th Street", "update": "2015-11-02T18:14:58", "lat": 44.949699}, "geometry": {"type": "Point", "coordinates": [-93.293129, 44.949699]}, "type": "Feature"}, {"properties": {"bikes": 0, "lon": -93.314597, "name": "Upton Ave S & Sheridan Ave S", "stands": 19, "status": "CLOSED", "address": "Upton Ave S & Sheridan Ave S", "update": "2015-11-05T12:05:16", "lat": 44.92515}, "geometry": {"type": "Point", "coordinates": [-93.314597, 44.92515]}, "type": "Feature"}, {"properties": {"bikes": 0, "lon": -93.233092, "name": "27th Ave S & Minnehaha Ave", "stands": 15, "status": "CLOSED", "address": "27th Ave S & Minnehaha Ave", "update": "2015-11-02T16:50:22", "lat": 44.947329}, "geometry": {"type": "Point", "coordinates": [-93.233092, 44.947329]}, "type": "Feature"}, {"properties": {"bikes": 0, "lon": -93.198283, "name": "Coldwater Spring", "stands": 15, "status": "CLOSED", "address": "Coldwater Spring", "update": "2015-11-05T12:05:02", "lat": 44.905043}, "geometry": {"type": "Point", "coordinates": [-93.198283, 44.905043]}, "type": "Feature"}, {"properties": {"bikes": 0, "lon": -93.21953, "name": "46th Street Light Rail Station", "stands": 19, "status": "CLOSED", "address": "46th Street Light Rail Station", "update": "2015-11-02T16:19:56", "lat": 44.920466}, "geometry": {"type": "Point", "coordinates": [-93.21953, 44.920466]}, "type": "Feature"}, {"properties": {"bikes": 0, "lon": -93.229338, "name": "38th Street Light Rail Station", "stands": 15, "status": "CLOSED", "address": "38th Street Light Rail Station", "update": "2015-11-02T15:27:48", "lat": 44.93434}, "geometry": {"type": "Point", "coordinates": [-93.229338, 44.93434]}, "type": "Feature"}, {"properties": {"bikes": 0, "lon": -93.187264, "name": "Cleveland Ave S & Highland Parkway", "stands": 15, "status": "CLOSED", "address": "Cleveland Ave S & Highland Parkway", "update": "2015-11-02T16:05:44", "lat": 44.919593}, "geometry": {"type": "Point", "coordinates": [-93.187264, 44.919593]}, "type": "Feature"}, {"properties": {"bikes": 0, "lon": -93.252189, "name": "11th Ave S & S 2nd Street", "stands": 3, "status": "CLOSED", "address": "11th Ave S & S 2nd Street", "update": "2015-11-02T16:04:48", "lat": 44.97673}, "geometry": {"type": "Point", "coordinates": [-93.252189, 44.97673]}, "type": "Feature"}, {"properties": {"bikes": 0, "lon": -93.268633, "name": "Broadway & Marshall Street NE", "stands": 15, "status": "CLOSED", "address": "Broadway & Marshall Street NE", "update": "2015-11-03T15:28:19", "lat": 44.998613}, "geometry": {"type": "Point", "coordinates": [-93.268633, 44.998613]}, "type": "Feature"}, {"properties": {"bikes": 0, "lon": -93.271571, "name": "Marshall Street NE & 18th Ave NE", "stands": 15, "status": "CLOSED", "address": "Marshall Street NE & 18th Ave NE", "update": "2015-11-03T12:03:59", "lat": 45.006229}, "geometry": {"type": "Point", "coordinates": [-93.271571, 45.006229]}, "type": "Feature"}, {"properties": {"bikes": 0, "lon": -93.270256, "name": "Boom Island Park", "stands": 15, "status": "CLOSED", "address": "Boom Island Park", "update": "2015-11-03T12:01:31", "lat": 44.99254}, "geometry": {"type": "Point", "coordinates": [-93.270256, 44.99254]}, "type": "Feature"}, {"properties": {"bikes": 0, "lon": -93.197997, "name": "Mississippi River Blvd & Summit Ave", "stands": 15, "status": "CLOSED", "address": "Mississippi River Blvd & Summit Ave", "update": "2015-11-03T20:34:25", "lat": 44.940288}, "geometry": {"type": "Point", "coordinates": [-93.197997, 44.940288]}, "type": "Feature"}, {"properties": {"bikes": 0, "lon": -93.191837, "name": "University of St. Thomas", "stands": 19, "status": "CLOSED", "address": "University of St. Thomas", "update": "2015-11-02T15:47:39", "lat": 44.943017}, "geometry": {"type": "Point", "coordinates": [-93.191837, 44.943017]}, "type": "Feature"}, {"properties": {"bikes": 0, "lon": -93.18237, "name": "Fort Snelling State Park", "stands": 19, "status": "CLOSED", "address": "Fort Snelling State Park", "update": "2015-11-05T12:01:43", "lat": 44.890527}, "geometry": {"type": "Point", "coordinates": [-93.18237, 44.890527]}, "type": "Feature"}, {"properties": {"bikes": 0, "lon": -93.27166, "name": "Marshall Street NE & Lowry Ave", "stands": 15, "status": "CLOSED", "address": "Marshall Street NE & Lowry Ave", "update": "2015-11-03T12:02:07", "lat": 45.01312}, "geometry": {"type": "Point", "coordinates": [-93.27166, 45.01312]}, "type": "Feature"}, {"properties": {"bikes": 0, "lon": -93.278133, "name": "Nicollet Mall & Grant Street", "stands": 15, "status": "CLOSED", "address": "Nicollet Mall & Grant Street", "update": "2015-11-05T12:03:50", "lat": 44.96995}, "geometry": {"type": "Point", "coordinates": [-93.278133, 44.96995]}, "type": "Feature"}, {"properties": {"bikes": 0, "lon": -93.305209, "name": "Lake Street & Knox Ave S", "stands": 33, "status": "CLOSED", "address": "Lake Street & Knox Ave S", "update": "2015-11-02T20:20:28", "lat": 44.9485}, "geometry": {"type": "Point", "coordinates": [-93.305209, 44.9485]}, "type": "Feature"}, {"properties": {"bikes": 0, "lon": -93.26145, "name": "Nicollet Island", "stands": 15, "status": "CLOSED", "address": "Nicollet Island", "update": "2015-11-03T12:02:55", "lat": 44.985388}, "geometry": {"type": "Point", "coordinates": [-93.26145, 44.985388]}, "type": "Feature"}, {"properties": {"bikes": 0, "lon": -93.270503282547, "name": "5th Street & Nicollet Mall", "stands": 19, "status": "CLOSED", "address": "5th Street & Nicollet Mall", "update": "2015-11-03T18:09:34", "lat": 44.978665179559}, "geometry": {"type": "Point", "coordinates": [-93.270503282547, 44.978665179559]}, "type": "Feature"}, {"properties": {"bikes": 0, "lon": -93.270649, "name": "8th Street & 2nd Ave S", "stands": 19, "status": "CLOSED", "address": "8th Street & 2nd Ave S", "update": "2015-11-03T12:03:29", "lat": 44.974795}, "geometry": {"type": "Point", "coordinates": [-93.270649, 44.974795]}, "type": "Feature"}, {"properties": {"bikes": 0, "lon": -93.252102, "name": "SE 3rd Ave & University Ave SE", "stands": 15, "status": "CLOSED", "address": "SE 3rd Ave & University Ave SE", "update": "2015-11-03T12:04:08", "lat": 44.985465}, "geometry": {"type": "Point", "coordinates": [-93.252102, 44.985465]}, "type": "Feature"}, {"properties": {"bikes": 0, "lon": -93.249653, "name": "2nd Street SE & 5th Ave SE", "stands": 15, "status": "CLOSED", "address": "2nd Street SE & 5th Ave SE", "update": "2015-11-03T12:03:05", "lat": 44.983321}, "geometry": {"type": "Point", "coordinates": [-93.249653, 44.983321]}, "type": "Feature"}, {"properties": {"bikes": 0, "lon": -93.240282, "name": "Sanford Hall", "stands": 23, "status": "CLOSED", "address": "Sanford Hall", "update": "2015-11-04T12:03:03", "lat": 44.980831}, "geometry": {"type": "Point", "coordinates": [-93.240282, 44.980831]}, "type": "Feature"}, {"properties": {"bikes": 0, "lon": -93.221021, "name": "Delaware St SE & 26th Ave SE", "stands": 19, "status": "CLOSED", "address": "Delaware St SE & 26th Ave SE", "update": "2015-11-05T12:02:07", "lat": 44.972128}, "geometry": {"type": "Point", "coordinates": [-93.221021, 44.972128]}, "type": "Feature"}, {"properties": {"bikes": 0, "lon": -93.237254, "name": "Weisman Art Museum", "stands": 18, "status": "CLOSED", "address": "Weisman Art Museum", "update": "2015-11-05T12:04:15", "lat": 44.973607}, "geometry": {"type": "Point", "coordinates": [-93.237254, 44.973607]}, "type": "Feature"}, {"properties": {"bikes": 0, "lon": -93.268604, "name": "1st Ave N & 2nd Street N", "stands": 19, "status": "CLOSED", "address": "1st Ave N & 2nd Street N", "update": "2015-11-03T18:43:18", "lat": 44.983902}, "geometry": {"type": "Point", "coordinates": [-93.268604, 44.983902]}, "type": "Feature"}, {"properties": {"bikes": 0, "lon": -93.279854, "name": "3rd Street N & 8th Ave N", "stands": 19, "status": "CLOSED", "address": "3rd Street N & 8th Ave N", "update": "2015-11-03T15:53:41", "lat": 44.987996}, "geometry": {"type": "Point", "coordinates": [-93.279854, 44.987996]}, "type": "Feature"}, {"properties": {"bikes": 0, "lon": -93.277234, "name": "5th Ave N & 4th Street N", "stands": 19, "status": "CLOSED", "address": "5th Ave N & 4th Street N", "update": "2015-11-03T15:39:25", "lat": 44.98446}, "geometry": {"type": "Point", "coordinates": [-93.277234, 44.98446]}, "type": "Feature"}, {"properties": {"bikes": 0, "lon": -93.274031, "name": "Washington Ave N & Cedar Lake Trail", "stands": 19, "status": "CLOSED", "address": "Washington Ave N & Cedar Lake Trail", "update": "2015-11-03T15:42:20", "lat": 44.985406}, "geometry": {"type": "Point", "coordinates": [-93.274031, 44.985406]}, "type": "Feature"}, {"properties": {"bikes": 0, "lon": -93.269195, "name": "Hennepin Ave & S Washington Ave", "stands": 23, "status": "OPEN", "address": "Hennepin Ave & S Washington Ave", "update": "2015-10-28T15:26:35", "lat": 44.981895}, "geometry": {"type": "Point", "coordinates": [-93.269195, 44.981895]}, "type": "Feature"}, {"properties": {"bikes": 0, "lon": -93.286294, "name": "Groveland Ave & Clifton Place", "stands": 18, "status": "CLOSED", "address": "Groveland Ave & Clifton Place", "update": "2015-11-02T19:09:19", "lat": 44.966145}, "geometry": {"type": "Point", "coordinates": [-93.286294, 44.966145]}, "type": "Feature"}, {"properties": {"bikes": 0, "lon": -93.254295, "name": "5th Street NE & 1st Ave NE", "stands": 15, "status": "CLOSED", "address": "5th Street NE & 1st Ave NE", "update": "2015-11-03T17:08:39", "lat": 44.990328}, "geometry": {"type": "Point", "coordinates": [-93.254295, 44.990328]}, "type": "Feature"}, {"properties": {"bikes": 0, "lon": -93.255558, "name": "5th Street NE & 3rd Ave NE", "stands": 14, "status": "CLOSED", "address": "5th Street NE & 3rd Ave NE", "update": "2015-11-02T23:27:35", "lat": 44.991821}, "geometry": {"type": "Point", "coordinates": [-93.255558, 44.991821]}, "type": "Feature"}, {"properties": {"bikes": 0, "lon": -93.264573, "name": "3rd Street NE & Lowry Ave NE", "stands": 15, "status": "CLOSED", "address": "3rd Street NE & Lowry Ave NE", "update": "2015-11-03T12:00:49", "lat": 45.01304}, "geometry": {"type": "Point", "coordinates": [-93.264573, 45.01304]}, "type": "Feature"}, {"properties": {"bikes": 0, "lon": -93.268598, "name": "22nd Ave NE & California Street NE", "stands": 15, "status": "CLOSED", "address": "22nd Ave NE & California Street NE", "update": "2015-11-03T12:01:01", "lat": 45.010119}, "geometry": {"type": "Point", "coordinates": [-93.268598, 45.010119]}, "type": "Feature"}, {"properties": {"bikes": 0, "lon": -93.19782, "name": "Fort Snelling LRT Station", "stands": 15, "status": "CLOSED", "address": "Fort Snelling LRT Station", "update": "2015-11-06T16:04:11", "lat": 44.892483}, "geometry": {"type": "Point", "coordinates": [-93.19782, 44.892483]}, "type": "Feature"}, {"properties": {"bikes": 0, "lon": -93.266553, "name": "18th Ave Trail & 2nd Street NE", "stands": 15, "status": "CLOSED", "address": "18th Ave Trail & 2nd Street NE", "update": "2015-11-03T12:05:17", "lat": 45.006321}, "geometry": {"type": "Point", "coordinates": [-93.266553, 45.006321]}, "type": "Feature"}, {"properties": {"bikes": 0, "lon": -93.220066, "name": "Nice Ride World Headquarters", "stands": 3, "status": "CLOSED", "address": "Nice Ride World Headquarters", "update": "2015-11-04T00:00:56", "lat": 44.953566}, "geometry": {"type": "Point", "coordinates": [-93.220066, 44.953566]}, "type": "Feature"}], "type": "FeatureCollection"}