<<<<<<< HEAD
{"features": [{"geometry": {"coordinates": [-93.256551, 44.984892], "type": "Point"}, "properties": {"stands": 27, "lat": 44.984892, "update": "2015-11-04T12:04:04", "status": "CLOSED", "bikes": 0, "address": "100 Main Street SE", "name": "100 Main Street SE", "lon": -93.256551}, "type": "Feature"}, {"geometry": {"coordinates": [-93.223374, 44.957341], "type": "Point"}, "properties": {"stands": 15, "lat": 44.957341, "update": "2015-11-02T15:35:25", "status": "CLOSED", "bikes": 0, "address": "25th Street & 33rd Ave S", "name": "25th Street & 33rd Ave S", "lon": -93.223374}, "type": "Feature"}, {"geometry": {"coordinates": [-93.240149, 44.967115], "type": "Point"}, "properties": {"stands": 15, "lat": 44.967115, "update": "2015-11-02T17:49:24", "status": "CLOSED", "bikes": 0, "address": "Riverside Ave & 23rd Ave S", "name": "Riverside Ave & 23rd Ave S", "lon": -93.240149}, "type": "Feature"}, {"geometry": {"coordinates": [-93.306269, 44.991412], "type": "Point"}, "properties": {"stands": 15, "lat": 44.991412, "update": "2015-11-03T12:02:28", "status": "CLOSED", "bikes": 0, "address": "Plymouth Ave N &  N Oliver Ave", "name": "Plymouth Ave N &  N Oliver Ave", "lon": -93.306269}, "type": "Feature"}, {"geometry": {"coordinates": [-93.27869, 44.97534], "type": "Point"}, "properties": {"stands": 23, "lat": 44.97534, "update": "2015-11-02T20:11:46", "status": "CLOSED", "bikes": 0, "address": "11th Street & Hennepin", "name": "11th Street & Hennepin", "lon": -93.27869}, "type": "Feature"}, {"geometry": {"coordinates": [-93.25392, 44.98889], "type": "Point"}, "properties": {"stands": 15, "lat": 44.98889, "update": "2015-11-03T12:02:59", "status": "CLOSED", "bikes": 0, "address": "Hennepin & Central Avenue NE", "name": "Hennepin & Central Avenue NE", "lon": -93.25392}, "type": "Feature"}, {"geometry": {"coordinates": [-93.276435, 44.972217], "type": "Point"}, "properties": {"stands": 23, "lat": 44.972217, "update": "2015-11-05T12:03:53", "status": "CLOSED", "bikes": 0, "address": "YWCA Downtown", "name": "YWCA Downtown", "lon": -93.276435}, "type": "Feature"}, {"geometry": {"coordinates": [-93.26872, 44.97265], "type": "Point"}, "properties": {"stands": 19, "lat": 44.97265, "update": "2015-11-02T17:36:26", "status": "CLOSED", "bikes": 0, "address": "9th Street & 4th Ave", "name": "9th Street & 4th Ave", "lon": -93.26872}, "type": "Feature"}, {"geometry": {"coordinates": [-93.2602, 44.94859], "type": "Point"}, "properties": {"stands": 19, "lat": 44.94859, "update": "2015-11-02T16:50:41", "status": "CLOSED", "bikes": 0, "address": "Midtown Exchange", "name": "Midtown Exchange", "lon": -93.2602}, "type": "Feature"}, {"geometry": {"coordinates": [-93.23746, 44.98102], "type": "Point"}, "properties": {"stands": 19, "lat": 44.98102, "update": "2015-11-04T12:04:16", "status": "CLOSED", "bikes": 0, "address": "4th Street & 13th Ave SE", "name": "4th Street & 13th Ave SE", "lon": -93.23746}, "type": "Feature"}, {"geometry": {"coordinates": [-93.28305, 44.97391], "type": "Point"}, "properties": {"stands": 15, "lat": 44.97391, "update": "2015-11-02T20:06:54", "status": "CLOSED", "bikes": 0, "address": "Hennepin & Laurel Ave", "name": "Hennepin & Laurel Ave", "lon": -93.28305}, "type": "Feature"}, {"geometry": {"coordinates": [-93.272459, 44.986087], "type": "Point"}, "properties": {"stands": 19, "lat": 44.986087, "update": "2015-11-03T16:25:14", "status": "CLOSED", "bikes": 0, "address": "North 2nd Street & 4th Ave N", "name": "North 2nd Street & 4th Ave N", "lon": -93.272459}, "type": "Feature"}, {"geometry": {"coordinates": [-93.275861, 44.970041], "type": "Point"}, "properties": {"stands": 19, "lat": 44.970041, "update": "2015-11-03T12:02:31", "status": "CLOSED", "bikes": 0, "address": "Mpls Convention Center", "name": "Mpls Convention Center", "lon": -93.275861}, "type": "Feature"}, {"geometry": {"coordinates": [-93.288227319717, 44.949484653766], "type": "Point"}, "properties": {"stands": 19, "lat": 44.949484653766, "update": "2015-11-03T12:00:33", "status": "CLOSED", "bikes": 0, "address": "Lyndale Ave S & W 29th Street", "name": "Lyndale Ave S & W 29th Street", "lon": -93.288227319717}, "type": "Feature"}, {"geometry": {"coordinates": [-93.241042, 44.96293], "type": "Point"}, "properties": {"stands": 15, "lat": 44.96293, "update": "2015-11-02T17:04:42", "status": "CLOSED", "bikes": 0, "address": "22nd Ave S & Franklin Ave", "name": "22nd Ave S & Franklin Ave", "lon": -93.241042}, "type": "Feature"}, {"geometry": {"coordinates": [-93.24748, 44.97344], "type": "Point"}, "properties": {"stands": 20, "lat": 44.97344, "update": "2015-11-02T12:03:06", "status": "CLOSED", "bikes": 0, "address": "Washington & Cedar", "name": "Washington & Cedar", "lon": -93.24748}, "type": "Feature"}, {"geometry": {"coordinates": [-93.28848, 44.96746], "type": "Point"}, "properties": {"stands": 17, "lat": 44.96746, "update": "2015-11-04T18:12:24", "status": "CLOSED", "bikes": 0, "address": "Walker Art Center", "name": "Walker Art Center", "lon": -93.28848}, "type": "Feature"}, {"geometry": {"coordinates": [-93.28815, 44.960744], "type": "Point"}, "properties": {"stands": 19, "lat": 44.960744, "update": "2015-11-02T18:36:19", "status": "CLOSED", "bikes": 0, "address": "Lyndale Ave S & 22nd Street ", "name": "Lyndale Ave S & 22nd Street ", "lon": -93.28815}, "type": "Feature"}, {"geometry": {"coordinates": [-93.274981, 44.957214], "type": "Point"}, "properties": {"stands": 17, "lat": 44.957214, "update": "2015-11-04T18:44:19", "status": "CLOSED", "bikes": 0, "address": "MCAD", "name": "MCAD", "lon": -93.274981}, "type": "Feature"}, {"geometry": {"coordinates": [-93.243754, 44.971359], "type": "Point"}, "properties": {"stands": 28, "lat": 44.971359, "update": "2015-11-04T12:01:02", "status": "CLOSED", "bikes": 0, "address": "Social Sciences", "name": "Social Sciences", "lon": -93.243754}, "type": "Feature"}, {"geometry": {"coordinates": [-93.29853, 44.95131], "type": "Point"}, "properties": {"stands": 19, "lat": 44.95131, "update": "2015-11-03T12:00:35", "status": "CLOSED", "bikes": 0, "address": "YWCA Uptown", "name": "YWCA Uptown", "lon": -93.29853}, "type": "Feature"}, {"geometry": {"coordinates": [-93.27099, 44.98383], "type": "Point"}, "properties": {"stands": 19, "lat": 44.98383, "update": "2015-11-03T17:01:37", "status": "CLOSED", "bikes": 0, "address": "Washington & 2nd Ave N", "name": "Washington & 2nd Ave N", "lon": -93.27099}, "type": "Feature"}, {"geometry": {"coordinates": [-93.28775, 44.95548], "type": "Point"}, "properties": {"stands": 15, "lat": 44.95548, "update": "2015-11-02T20:50:58", "status": "CLOSED", "bikes": 0, "address": "26th Street & Lyndale", "name": "26th Street & Lyndale", "lon": -93.28775}, "type": "Feature"}, {"geometry": {"coordinates": [-93.26259, 44.95355], "type": "Point"}, "properties": {"stands": 15, "lat": 44.95355, "update": "2015-11-02T16:57:05", "status": "CLOSED", "bikes": 0, "address": "Chicago & 27th Street", "name": "Chicago & 27th Street", "lon": -93.26259}, "type": "Feature"}, {"geometry": {"coordinates": [-93.234762, 44.973378], "type": "Point"}, "properties": {"stands": 3, "lat": 44.973378, "update": "2015-11-03T19:21:58", "status": "CLOSED", "bikes": 0, "address": "Coffman Union", "name": "Coffman Union", "lon": -93.234762}, "type": "Feature"}, {"geometry": {"coordinates": [-93.234911, 44.977406], "type": "Point"}, "properties": {"stands": 25, "lat": 44.977406, "update": "2015-11-04T12:01:44", "status": "CLOSED", "bikes": 0, "address": "Williamson Hall", "name": "Williamson Hall", "lon": -93.234911}, "type": "Feature"}, {"geometry": {"coordinates": [-93.23206, 44.97209], "type": "Point"}, "properties": {"stands": 25, "lat": 44.97209, "update": "2015-11-04T12:02:17", "status": "CLOSED", "bikes": 0, "address": "Mayo Memorial Building", "name": "Mayo Memorial Building", "lon": -93.23206}, "type": "Feature"}, {"geometry": {"coordinates": [-93.24519, 44.97003], "type": "Point"}, "properties": {"stands": 19, "lat": 44.97003, "update": "2015-11-02T12:02:53", "status": "CLOSED", "bikes": 0, "address": "4th Street S & 19th Ave", "name": "4th Street S & 19th Ave", "lon": -93.24519}, "type": "Feature"}, {"geometry": {"coordinates": [-93.266925215721, 44.980873610847], "type": "Point"}, "properties": {"stands": 19, "lat": 44.980873610847, "update": "2015-11-03T15:58:52", "status": "CLOSED", "bikes": 0, "address": "Washington & Marquette", "name": "Washington & Marquette", "lon": -93.266925215721}, "type": "Feature"}, {"geometry": {"coordinates": [-93.266701, 44.976602], "type": "Point"}, "properties": {"stands": 27, "lat": 44.976602, "update": "2015-11-02T12:01:15", "status": "CLOSED", "bikes": 0, "address": "Hennepin County Government Center", "name": "Hennepin County Government Center", "lon": -93.266701}, "type": "Feature"}, {"geometry": {"coordinates": [-93.2583, 44.96251], "type": "Point"}, "properties": {"stands": 15, "lat": 44.96251, "update": "2015-11-02T17:18:16", "status": "CLOSED", "bikes": 0, "address": "Franklin & 11th Ave", "name": "Franklin & 11th Ave", "lon": -93.2583}, "type": "Feature"}, {"geometry": {"coordinates": [-93.22697, 44.97202], "type": "Point"}, "properties": {"stands": 23, "lat": 44.97202, "update": "2015-11-04T12:03:19", "status": "CLOSED", "bikes": 0, "address": "Oak Street Ramp", "name": "Oak Street Ramp", "lon": -93.22697}, "type": "Feature"}, {"geometry": {"coordinates": [-93.263454437256, 44.980926733576], "type": "Point"}, "properties": {"stands": 27, "lat": 44.980926733576, "update": "2015-11-03T16:03:17", "status": "CLOSED", "bikes": 0, "address": "South 2nd Street & 3rd Ave S", "name": "South 2nd Street & 3rd Ave S", "lon": -93.263454437256}, "type": "Feature"}, {"geometry": {"coordinates": [-93.221639, 44.977028], "type": "Point"}, "properties": {"stands": 18, "lat": 44.977028, "update": "2015-11-03T12:00:54", "status": "CLOSED", "bikes": 0, "address": "23rd Ave SE & 6th Street SE", "name": "23rd Ave SE & 6th Street SE", "lon": -93.221639}, "type": "Feature"}, {"geometry": {"coordinates": [-93.23189, 44.97913], "type": "Point"}, "properties": {"stands": 15, "lat": 44.97913, "update": "2015-11-03T17:25:28", "status": "CLOSED", "bikes": 0, "address": "4th Street & 17th Ave SE", "name": "4th Street & 17th Ave SE", "lon": -93.23189}, "type": "Feature"}, {"geometry": {"coordinates": [-93.284927, 44.9715], "type": "Point"}, "properties": {"stands": 15, "lat": 44.9715, "update": "2015-11-02T20:02:54", "status": "CLOSED", "bikes": 0, "address": "Loring Park", "name": "Loring Park", "lon": -93.284927}, "type": "Feature"}, {"geometry": {"coordinates": [-93.269217, 44.980199], "type": "Point"}, "properties": {"stands": 31, "lat": 44.980199, "update": "2015-11-03T19:45:55", "status": "CLOSED", "bikes": 0, "address": "Downtown Library", "name": "Downtown Library", "lon": -93.269217}, "type": "Feature"}, {"geometry": {"coordinates": [-93.251136, 44.969225], "type": "Point"}, "properties": {"stands": 15, "lat": 44.969225, "update": "2015-11-02T17:57:24", "status": "CLOSED", "bikes": 0, "address": "Currie Park", "name": "Currie Park", "lon": -93.251136}, "type": "Feature"}, {"geometry": {"coordinates": [-93.252269, 44.96285], "type": "Point"}, "properties": {"stands": 15, "lat": 44.96285, "update": "2015-11-02T17:05:18", "status": "CLOSED", "bikes": 0, "address": "E Franklin Ave & Bloomington Ave S", "name": "E Franklin Ave & Bloomington Ave S", "lon": -93.252269}, "type": "Feature"}, {"geometry": {"coordinates": [-93.274544, 44.973839], "type": "Point"}, "properties": {"stands": 0, "lat": 44.973839, "update": "1970-01-01T01:00:00", "status": "CLOSED", "bikes": 0, "address": "10th Street & Nicollet Mall", "name": "10th Street & Nicollet Mall", "lon": -93.274544}, "type": "Feature"}, {"geometry": {"coordinates": [-93.27405, 44.97265], "type": "Point"}, "properties": {"stands": 19, "lat": 44.97265, "update": "2015-11-05T12:03:12", "status": "CLOSED", "bikes": 0, "address": "11th Street & Marquette", "name": "11th Street & Marquette", "lon": -93.27405}, "type": "Feature"}, {"geometry": {"coordinates": [-93.267526, 44.962846], "type": "Point"}, "properties": {"stands": 15, "lat": 44.962846, "update": "2015-11-02T17:40:32", "status": "CLOSED", "bikes": 0, "address": "Franklin & Portland", "name": "Franklin & Portland", "lon": -93.267526}, "type": "Feature"}, {"geometry": {"coordinates": [-93.272185, 44.975641], "type": "Point"}, "properties": {"stands": 23, "lat": 44.975641, "update": "2015-11-02T20:53:36", "status": "CLOSED", "bikes": 0, "address": "IDS Center", "name": "IDS Center", "lon": -93.272185}, "type": "Feature"}, {"geometry": {"coordinates": [-93.30077, 44.94865], "type": "Point"}, "properties": {"stands": 19, "lat": 44.94865, "update": "2015-11-02T21:04:39", "status": "CLOSED", "bikes": 0, "address": "Lake Street & Humboldt", "name": "Lake Street & Humboldt", "lon": -93.30077}, "type": "Feature"}, {"geometry": {"coordinates": [-93.29714298, 44.9554734], "type": "Point"}, "properties": {"stands": 15, "lat": 44.9554734, "update": "2015-11-02T18:20:24", "status": "CLOSED", "bikes": 0, "address": "26th Street & Hennepin", "name": "26th Street & Hennepin", "lon": -93.29714298}, "type": "Feature"}, {"geometry": {"coordinates": [-93.230893, 44.962701], "type": "Point"}, "properties": {"stands": 19, "lat": 44.962701, "update": "2015-11-02T17:38:37", "status": "CLOSED", "bikes": 0, "address": "Franklin & 28th Ave", "name": "Franklin & 28th Ave", "lon": -93.230893}, "type": "Feature"}, {"geometry": {"coordinates": [-93.25576, 44.98717], "type": "Point"}, "properties": {"stands": 19, "lat": 44.98717, "update": "2015-11-03T12:03:42", "status": "CLOSED", "bikes": 0, "address": "University & Bank Street SE", "name": "University & Bank Street SE", "lon": -93.25576}, "type": "Feature"}, {"geometry": {"coordinates": [-93.29303, 44.96146], "type": "Point"}, "properties": {"stands": 15, "lat": 44.96146, "update": "2015-11-02T18:28:18", "status": "CLOSED", "bikes": 0, "address": "Dupont Ave & 22nd Street", "name": "Dupont Ave & 22nd Street", "lon": -93.29303}, "type": "Feature"}, {"geometry": {"coordinates": [-93.26599, 44.97974], "type": "Point"}, "properties": {"stands": 27, "lat": 44.97974, "update": "2015-11-03T18:51:46", "status": "CLOSED", "bikes": 0, "address": "3rd Street S & 2nd Ave S", "name": "3rd Street S & 2nd Ave S", "lon": -93.26599}, "type": "Feature"}, {"geometry": {"coordinates": [-93.275626, 44.980536], "type": "Point"}, "properties": {"stands": 23, "lat": 44.980536, "update": "2015-11-03T12:03:18", "status": "CLOSED", "bikes": 0, "address": "2nd Ave N & N 6th Street", "name": "2nd Ave N & N 6th Street", "lon": -93.275626}, "type": "Feature"}, {"geometry": {"coordinates": [-93.25535, 44.97654], "type": "Point"}, "properties": {"stands": 19, "lat": 44.97654, "update": "2015-11-02T16:16:45", "status": "CLOSED", "bikes": 0, "address": "Washington Ave S & 10th Ave S", "name": "Washington Ave S & 10th Ave S", "lon": -93.25535}, "type": "Feature"}, {"geometry": {"coordinates": [-93.27796, 44.95618], "type": "Point"}, "properties": {"stands": 15, "lat": 44.95618, "update": "2015-11-02T17:50:41", "status": "CLOSED", "bikes": 0, "address": "Nicollet Ave & W 26th Street", "name": "Nicollet Ave & W 26th Street", "lon": -93.27796}, "type": "Feature"}, {"geometry": {"coordinates": [-93.266684, 44.97497], "type": "Point"}, "properties": {"stands": 15, "lat": 44.97497, "update": "2015-11-02T17:27:25", "status": "CLOSED", "bikes": 0, "address": "7th Street & 4th Ave. S", "name": "7th Street & 4th Ave. S", "lon": -93.266684}, "type": "Feature"}, {"geometry": {"coordinates": [-93.279038071632, 44.984125390044], "type": "Point"}, "properties": {"stands": 23, "lat": 44.984125390044, "update": "2015-11-05T12:02:24", "status": "CLOSED", "bikes": 0, "address": "Target Field Station", "name": "Target Field Station", "lon": -93.279038071632}, "type": "Feature"}, {"geometry": {"coordinates": [-93.269278, 44.950371], "type": "Point"}, "properties": {"stands": 15, "lat": 44.950371, "update": "2015-11-04T17:23:01", "status": "CLOSED", "bikes": 0, "address": "Midtown Greenway & 5th Ave S", "name": "Midtown Greenway & 5th Ave S", "lon": -93.269278}, "type": "Feature"}, {"geometry": {"coordinates": [-93.211264014244, 44.973371428374], "type": "Point"}, "properties": {"stands": 23, "lat": 44.973371428374, "update": "2015-11-05T12:01:45", "status": "CLOSED", "bikes": 0, "address": "Malcolm Ave SE & 5th Street SE", "name": "Malcolm Ave SE & 5th Street SE", "lon": -93.211264014244}, "type": "Feature"}, {"geometry": {"coordinates": [-93.22854, 44.9743], "type": "Point"}, "properties": {"stands": 19, "lat": 44.9743, "update": "2015-11-04T12:00:53", "status": "CLOSED", "bikes": 0, "address": "McNamara Center", "name": "McNamara Center", "lon": -93.22854}, "type": "Feature"}, {"geometry": {"coordinates": [-93.23818, 44.97685], "type": "Point"}, "properties": {"stands": 14, "lat": 44.97685, "update": "2015-11-03T16:36:45", "status": "CLOSED", "bikes": 0, "address": "Elliot Hall", "name": "Elliot Hall", "lon": -93.23818}, "type": "Feature"}, {"geometry": {"coordinates": [-93.26079, 44.970553], "type": "Point"}, "properties": {"stands": 15, "lat": 44.970553, "update": "2015-11-02T17:48:39", "status": "CLOSED", "bikes": 0, "address": "Elliot Park", "name": "Elliot Park", "lon": -93.26079}, "type": "Feature"}, {"geometry": {"coordinates": [-93.29736, 44.946687], "type": "Point"}, "properties": {"stands": 19, "lat": 44.946687, "update": "2015-11-02T19:23:51", "status": "CLOSED", "bikes": 0, "address": "W 31st Street & Hennepin Ave S", "name": "W 31st Street & Hennepin Ave S", "lon": -93.29736}, "type": "Feature"}, {"geometry": {"coordinates": [-93.277939, 44.96342], "type": "Point"}, "properties": {"stands": 23, "lat": 44.96342, "update": "2015-11-02T17:46:41", "status": "CLOSED", "bikes": 0, "address": "Nicollet & Franklin", "name": "Nicollet & Franklin", "lon": -93.277939}, "type": "Feature"}, {"geometry": {"coordinates": [-93.27831, 44.9519], "type": "Point"}, "properties": {"stands": 15, "lat": 44.9519, "update": "2015-11-02T17:55:02", "status": "CLOSED", "bikes": 0, "address": "28th Street & Nicollet Ave. S", "name": "28th Street & Nicollet Ave. S", "lon": -93.27831}, "type": "Feature"}, {"geometry": {"coordinates": [-93.304427, 44.981147], "type": "Point"}, "properties": {"stands": 14, "lat": 44.981147, "update": "2015-11-03T12:01:17", "status": "CLOSED", "bikes": 0, "address": "Glenwood Ave & N Morgan Ave.", "name": "Glenwood Ave & N Morgan Ave.", "lon": -93.304427}, "type": "Feature"}, {"geometry": {"coordinates": [-93.28542, 44.98052], "type": "Point"}, "properties": {"stands": 15, "lat": 44.98052, "update": "2015-11-03T12:03:36", "status": "CLOSED", "bikes": 0, "address": "Minneapolis Farmers Market", "name": "Minneapolis Farmers Market", "lon": -93.28542}, "type": "Feature"}, {"geometry": {"coordinates": [-93.279783725739, 44.989879107463], "type": "Point"}, "properties": {"stands": 15, "lat": 44.989879107463, "update": "2015-11-03T15:59:36", "status": "CLOSED", "bikes": 0, "address": "Washington Ave N & 9th Ave N", "name": "Washington Ave N & 9th Ave N", "lon": -93.279783725739}, "type": "Feature"}, {"geometry": {"coordinates": [-93.322066, 44.9798], "type": "Point"}, "properties": {"stands": 15, "lat": 44.9798, "update": "2015-11-06T12:02:56", "status": "CLOSED", "bikes": 0, "address": "Wirth Beach", "name": "Wirth Beach", "lon": -93.322066}, "type": "Feature"}, {"geometry": {"coordinates": [-93.290941, 44.999341], "type": "Point"}, "properties": {"stands": 10, "lat": 44.999341, "update": "2015-11-03T16:15:20", "status": "CLOSED", "bikes": 0, "address": "Bryant Ave N & West Broadway", "name": "Bryant Ave N & West Broadway", "lon": -93.290941}, "type": "Feature"}, {"geometry": {"coordinates": [-93.297071, 44.99957], "type": "Point"}, "properties": {"stands": 15, "lat": 44.99957, "update": "2015-11-03T15:48:24", "status": "CLOSED", "bikes": 0, "address": "Girard Ave N & W Broadway Ave", "name": "Girard Ave N & W Broadway Ave", "lon": -93.297071}, "type": "Feature"}, {"geometry": {"coordinates": [-93.287559, 45.005994], "type": "Point"}, "properties": {"stands": 15, "lat": 45.005994, "update": "2015-11-03T12:03:54", "status": "CLOSED", "bikes": 0, "address": "Farview Park", "name": "Farview Park", "lon": -93.287559}, "type": "Feature"}, {"geometry": {"coordinates": [-93.305857, 45.002448], "type": "Point"}, "properties": {"stands": 15, "lat": 45.002448, "update": "2015-11-03T15:42:46", "status": "CLOSED", "bikes": 0, "address": "West Broadway & Logan Ave N", "name": "West Broadway & Logan Ave N", "lon": -93.305857}, "type": "Feature"}, {"geometry": {"coordinates": [-93.307798, 45.013318], "type": "Point"}, "properties": {"stands": 15, "lat": 45.013318, "update": "2015-11-03T12:01:37", "status": "CLOSED", "bikes": 0, "address": "Lowry Ave N & Penn Ave", "name": "Lowry Ave N & Penn Ave", "lon": -93.307798}, "type": "Feature"}, {"geometry": {"coordinates": [-93.298634, 44.941388], "type": "Point"}, "properties": {"stands": 19, "lat": 44.941388, "update": "2015-11-02T18:50:10", "status": "CLOSED", "bikes": 0, "address": "West 34th Street  & Hennepin Ave S", "name": "West 34th Street  & Hennepin Ave S", "lon": -93.298634}, "type": "Feature"}, {"geometry": {"coordinates": [-93.218919, 44.97259], "type": "Point"}, "properties": {"stands": 15, "lat": 44.97259, "update": "2015-11-03T12:01:32", "status": "CLOSED", "bikes": 0, "address": "27th Ave SE & University Ave.", "name": "27th Ave SE & University Ave.", "lon": -93.218919}, "type": "Feature"}, {"geometry": {"coordinates": [-93.20525, 44.96616], "type": "Point"}, "properties": {"stands": 15, "lat": 44.96616, "update": "2015-11-03T12:03:26", "status": "CLOSED", "bikes": 0, "address": "Curfew Street & Ellis Ave.", "name": "Curfew Street & Ellis Ave.", "lon": -93.20525}, "type": "Feature"}, {"geometry": {"coordinates": [-93.195906, 44.963549], "type": "Point"}, "properties": {"stands": 14, "lat": 44.963549, "update": "2015-11-03T16:21:07", "status": "CLOSED", "bikes": 0, "address": "Carleton Street & University Ave ", "name": "Carleton Street & University Ave ", "lon": -93.195906}, "type": "Feature"}, {"geometry": {"coordinates": [-93.17706, 44.95665], "type": "Point"}, "properties": {"stands": 15, "lat": 44.95665, "update": "2015-11-04T12:04:18", "status": "CLOSED", "bikes": 0, "address": "Fairview Ave. & University Ave.", "name": "Fairview Ave. & University Ave.", "lon": -93.17706}, "type": "Feature"}, {"geometry": {"coordinates": [-93.165868, 44.964172], "type": "Point"}, "properties": {"stands": 15, "lat": 44.964172, "update": "2015-11-04T12:03:44", "status": "CLOSED", "bikes": 0, "address": "Hamline University", "name": "Hamline University", "lon": -93.165868}, "type": "Feature"}, {"geometry": {"coordinates": [-93.16734, 44.956624], "type": "Point"}, "properties": {"stands": 15, "lat": 44.956624, "update": "2015-11-04T12:01:44", "status": "CLOSED", "bikes": 0, "address": "Sherburne Ave & Snelling Ave N", "name": "Sherburne Ave & Snelling Ave N", "lon": -93.16734}, "type": "Feature"}, {"geometry": {"coordinates": [-93.24054, 44.94823], "type": "Point"}, "properties": {"stands": 15, "lat": 44.94823, "update": "2015-11-04T12:01:34", "status": "CLOSED", "bikes": 0, "address": "Midtown YWCA", "name": "Midtown YWCA", "lon": -93.24054}, "type": "Feature"}, {"geometry": {"coordinates": [-93.22106, 44.94826], "type": "Point"}, "properties": {"stands": 15, "lat": 44.94826, "update": "2015-11-02T16:20:50", "status": "CLOSED", "bikes": 0, "address": "East Lake Street & 36th Ave S", "name": "East Lake Street & 36th Ave S", "lon": -93.22106}, "type": "Feature"}, {"geometry": {"coordinates": [-93.136556, 44.956052], "type": "Point"}, "properties": {"stands": 15, "lat": 44.956052, "update": "2015-11-04T12:02:17", "status": "CLOSED", "bikes": 0, "address": "N Victoria Street & University Ave ", "name": "N Victoria Street & University Ave ", "lon": -93.136556}, "type": "Feature"}, {"geometry": {"coordinates": [-93.185819, 44.948147], "type": "Point"}, "properties": {"stands": 15, "lat": 44.948147, "update": "2015-11-02T15:41:52", "status": "CLOSED", "bikes": 0, "address": "Wilder Street & Marshall Ave", "name": "Wilder Street & Marshall Ave", "lon": -93.185819}, "type": "Feature"}, {"geometry": {"coordinates": [-93.177093, 44.940513], "type": "Point"}, "properties": {"stands": 15, "lat": 44.940513, "update": "2015-11-02T12:02:44", "status": "CLOSED", "bikes": 0, "address": "Grand Ave & Fairview Ave", "name": "Grand Ave & Fairview Ave", "lon": -93.177093}, "type": "Feature"}, {"geometry": {"coordinates": [-93.17022, 44.940218], "type": "Point"}, "properties": {"stands": 15, "lat": 44.940218, "update": "2015-11-02T15:55:41", "status": "CLOSED", "bikes": 0, "address": "Macalester College", "name": "Macalester College", "lon": -93.17022}, "type": "Feature"}, {"geometry": {"coordinates": [-93.2669, 44.96954], "type": "Point"}, "properties": {"stands": 15, "lat": 44.96954, "update": "2015-11-02T17:44:02", "status": "CLOSED", "bikes": 0, "address": "Grant Street & Portland Ave", "name": "Grant Street & Portland Ave", "lon": -93.2669}, "type": "Feature"}, {"geometry": {"coordinates": [-93.24812, 44.983281], "type": "Point"}, "properties": {"stands": 23, "lat": 44.983281, "update": "2015-11-06T12:01:22", "status": "CLOSED", "bikes": 0, "address": "6th Ave. SE & University Ave.", "name": "6th Ave. SE & University Ave.", "lon": -93.24812}, "type": "Feature"}, {"geometry": {"coordinates": [-93.317294418812, 44.948467166877], "type": "Point"}, "properties": {"stands": 27, "lat": 44.948467166877, "update": "2015-11-02T19:37:02", "status": "CLOSED", "bikes": 0, "address": "Lake Calhoun Center", "name": "Lake Calhoun Center", "lon": -93.317294418812}, "type": "Feature"}, {"geometry": {"coordinates": [-93.26023, 44.978068], "type": "Point"}, "properties": {"stands": 19, "lat": 44.978068, "update": "2015-11-02T16:53:04", "status": "CLOSED", "bikes": 0, "address": "Portland Ave. & Washington Ave.", "name": "Portland Ave. & Washington Ave.", "lon": -93.26023}, "type": "Feature"}, {"geometry": {"coordinates": [-93.2675139, 44.9825943], "type": "Point"}, "properties": {"stands": 15, "lat": 44.9825943, "update": "2015-11-03T17:18:46", "status": "CLOSED", "bikes": 0, "address": "Gateway Park", "name": "Gateway Park", "lon": -93.2675139}, "type": "Feature"}, {"geometry": {"coordinates": [-93.266854, 44.995348], "type": "Point"}, "properties": {"stands": 15, "lat": 44.995348, "update": "2015-11-03T12:03:08", "status": "CLOSED", "bikes": 0, "address": "Marshall Street NE & 8th Ave. NE", "name": "Marshall Street NE & 8th Ave. NE", "lon": -93.266854}, "type": "Feature"}, {"geometry": {"coordinates": [-93.27651, 44.989166], "type": "Point"}, "properties": {"stands": 19, "lat": 44.989166, "update": "2015-11-03T20:46:37", "status": "CLOSED", "bikes": 0, "address": "2nd Street N & 8th Ave. N", "name": "2nd Street N & 8th Ave. N", "lon": -93.27651}, "type": "Feature"}, {"geometry": {"coordinates": [-93.26296, 44.999894], "type": "Point"}, "properties": {"stands": 15, "lat": 44.999894, "update": "2015-11-03T15:32:37", "status": "CLOSED", "bikes": 0, "address": "University Ave. NE & 12th Ave. NE", "name": "University Ave. NE & 12th Ave. NE", "lon": -93.26296}, "type": "Feature"}, {"geometry": {"coordinates": [-93.283163, 44.948556], "type": "Point"}, "properties": {"stands": 15, "lat": 44.948556, "update": "2015-11-03T12:03:10", "status": "CLOSED", "bikes": 0, "address": "Pleasant Ave S &  Lake Street", "name": "Pleasant Ave S &  Lake Street", "lon": -93.283163}, "type": "Feature"}, {"geometry": {"coordinates": [-93.29038, 44.94478], "type": "Point"}, "properties": {"stands": 15, "lat": 44.94478, "update": "2015-11-02T18:36:48", "status": "CLOSED", "bikes": 0, "address": "West 32nd Street & Bryant Ave S", "name": "West 32nd Street & Bryant Ave S", "lon": -93.29038}, "type": "Feature"}, {"geometry": {"coordinates": [-93.2912, 44.93775], "type": "Point"}, "properties": {"stands": 15, "lat": 44.93775, "update": "2015-11-02T18:43:35", "status": "CLOSED", "bikes": 0, "address": "West 36th Street & Bryant Ave S", "name": "West 36th Street & Bryant Ave S", "lon": -93.2912}, "type": "Feature"}, {"geometry": {"coordinates": [-93.281991, 44.968237], "type": "Point"}, "properties": {"stands": 19, "lat": 44.968237, "update": "2015-11-02T19:21:53", "status": "CLOSED", "bikes": 0, "address": "West 15th Street & Willow", "name": "West 15th Street & Willow", "lon": -93.281991}, "type": "Feature"}, {"geometry": {"coordinates": [-93.192758, 44.939936], "type": "Point"}, "properties": {"stands": 15, "lat": 44.939936, "update": "2015-11-04T12:01:54", "status": "CLOSED", "bikes": 0, "address": "Grand Ave & Cretin Ave", "name": "Grand Ave & Cretin Ave", "lon": -93.192758}, "type": "Feature"}, {"geometry": {"coordinates": [-93.1529, 44.94016], "type": "Point"}, "properties": {"stands": 15, "lat": 44.94016, "update": "2015-11-03T20:24:25", "status": "CLOSED", "bikes": 0, "address": "Kowalski's Market", "name": "Kowalski's Market", "lon": -93.1529}, "type": "Feature"}, {"geometry": {"coordinates": [-93.138832, 44.941599], "type": "Point"}, "properties": {"stands": 15, "lat": 44.941599, "update": "2015-11-05T12:04:33", "status": "CLOSED", "bikes": 0, "address": "N Milton Street & Summit Ave", "name": "N Milton Street & Summit Ave", "lon": -93.138832}, "type": "Feature"}, {"geometry": {"coordinates": [-93.1517, 44.98115], "type": "Point"}, "properties": {"stands": 19, "lat": 44.98115, "update": "2015-11-06T12:04:33", "status": "CLOSED", "bikes": 0, "address": "Como Park Conservatory", "name": "Como Park Conservatory", "lon": -93.1517}, "type": "Feature"}, {"geometry": {"coordinates": [-93.12661, 44.945736], "type": "Point"}, "properties": {"stands": 15, "lat": 44.945736, "update": "2015-11-03T18:23:22", "status": "CLOSED", "bikes": 0, "address": "Hague Ave & Dale Street", "name": "Hague Ave & Dale Street", "lon": -93.12661}, "type": "Feature"}, {"geometry": {"coordinates": [-93.25276, 44.99882], "type": "Point"}, "properties": {"stands": 15, "lat": 44.99882, "update": "2015-11-03T15:38:39", "status": "CLOSED", "bikes": 0, "address": "Logan Park", "name": "Logan Park", "lon": -93.25276}, "type": "Feature"}, {"geometry": {"coordinates": [-93.146379, 44.955363], "type": "Point"}, "properties": {"stands": 15, "lat": 44.955363, "update": "2015-11-04T12:02:43", "status": "CLOSED", "bikes": 0, "address": "Lexington Pkwy & University Ave", "name": "Lexington Pkwy & University Ave", "lon": -93.146379}, "type": "Feature"}, {"geometry": {"coordinates": [-93.126088, 44.956066], "type": "Point"}, "properties": {"stands": 15, "lat": 44.956066, "update": "2015-11-04T12:04:35", "status": "CLOSED", "bikes": 0, "address": "Dale Street N & University Ave", "name": "Dale Street N & University Ave", "lon": -93.126088}, "type": "Feature"}, {"geometry": {"coordinates": [-93.214864, 44.971012], "type": "Point"}, "properties": {"stands": 15, "lat": 44.971012, "update": "2015-11-03T12:04:29", "status": "CLOSED", "bikes": 0, "address": "University Ave SE & 29th Ave SE", "name": "University Ave SE & 29th Ave SE", "lon": -93.214864}, "type": "Feature"}, {"geometry": {"coordinates": [-93.212892, 44.987934], "type": "Point"}, "properties": {"stands": 14, "lat": 44.987934, "update": "2015-11-04T12:02:02", "status": "CLOSED", "bikes": 0, "address": "Como Ave. SE & 29th Ave. SE", "name": "Como Ave. SE & 29th Ave. SE", "lon": -93.212892}, "type": "Feature"}, {"geometry": {"coordinates": [-93.230469, 44.987517], "type": "Point"}, "properties": {"stands": 15, "lat": 44.987517, "update": "2015-11-04T12:03:43", "status": "CLOSED", "bikes": 0, "address": "15th Ave. SE & Como Ave. SE", "name": "15th Ave. SE & Como Ave. SE", "lon": -93.230469}, "type": "Feature"}, {"geometry": {"coordinates": [-93.143383, 44.981914], "type": "Point"}, "properties": {"stands": 23, "lat": 44.981914, "update": "2015-11-06T12:03:30", "status": "CLOSED", "bikes": 0, "address": "Lake Como Pavilion", "name": "Lake Como Pavilion", "lon": -93.143383}, "type": "Feature"}, {"geometry": {"coordinates": [-93.126261, 44.939779], "type": "Point"}, "properties": {"stands": 14, "lat": 44.939779, "update": "2015-11-03T20:18:08", "status": "CLOSED", "bikes": 0, "address": "Dale Street & Grand Ave.", "name": "Dale Street & Grand Ave.", "lon": -93.126261}, "type": "Feature"}, {"geometry": {"coordinates": [-93.156984, 44.953527], "type": "Point"}, "properties": {"stands": 14, "lat": 44.953527, "update": "2015-11-04T12:01:33", "status": "CLOSED", "bikes": 0, "address": "St. Paul Police Western District", "name": "St. Paul Police Western District", "lon": -93.156984}, "type": "Feature"}, {"geometry": {"coordinates": [-93.247114, 45.00994], "type": "Point"}, "properties": {"stands": 15, "lat": 45.00994, "update": "2015-11-02T22:12:16", "status": "CLOSED", "bikes": 0, "address": "Central Ave. NE & 22nd Ave NE", "name": "Central Ave. NE & 22nd Ave NE", "lon": -93.247114}, "type": "Feature"}, {"geometry": {"coordinates": [-93.185029, 44.984527], "type": "Point"}, "properties": {"stands": 15, "lat": 44.984527, "update": "2015-11-04T12:03:09", "status": "CLOSED", "bikes": 0, "address": "U of M St. Paul Student Center", "name": "U of M St. Paul Student Center", "lon": -93.185029}, "type": "Feature"}, {"geometry": {"coordinates": [-93.1873, 44.945367], "type": "Point"}, "properties": {"stands": 15, "lat": 44.945367, "update": "2015-11-02T12:00:26", "status": "CLOSED", "bikes": 0, "address": "Cleveland Ave N & Laurel Ave", "name": "Cleveland Ave N & Laurel Ave", "lon": -93.1873}, "type": "Feature"}, {"geometry": {"coordinates": [-93.2321, 44.97394], "type": "Point"}, "properties": {"stands": 27, "lat": 44.97394, "update": "2015-11-04T12:04:39", "status": "CLOSED", "bikes": 0, "address": "Washington Ave SE & Union Street SE", "name": "Washington Ave SE & Union Street SE", "lon": -93.2321}, "type": "Feature"}, {"geometry": {"coordinates": [-93.10673, 44.949053], "type": "Point"}, "properties": {"stands": 15, "lat": 44.949053, "update": "2015-11-04T12:03:00", "status": "CLOSED", "bikes": 0, "address": "Minnesota History Center", "name": "Minnesota History Center", "lon": -93.10673}, "type": "Feature"}, {"geometry": {"coordinates": [-93.09759, 44.950189], "type": "Point"}, "properties": {"stands": 15, "lat": 44.950189, "update": "2015-11-04T12:05:03", "status": "CLOSED", "bikes": 0, "address": "10th Street E & Cedar Street", "name": "10th Street E & Cedar Street", "lon": -93.09759}, "type": "Feature"}, {"geometry": {"coordinates": [-93.091207, 44.949433], "type": "Point"}, "properties": {"stands": 14, "lat": 44.949433, "update": "2015-11-04T12:01:19", "status": "CLOSED", "bikes": 0, "address": "7th Place & Jackson Street", "name": "7th Place & Jackson Street", "lon": -93.091207}, "type": "Feature"}, {"geometry": {"coordinates": [-93.086584, 44.948399], "type": "Point"}, "properties": {"stands": 23, "lat": 44.948399, "update": "2015-11-04T12:03:51", "status": "CLOSED", "bikes": 0, "address": "Union Depot", "name": "Union Depot", "lon": -93.086584}, "type": "Feature"}, {"geometry": {"coordinates": [-93.088802, 44.946191], "type": "Point"}, "properties": {"stands": 19, "lat": 44.946191, "update": "2015-11-04T12:00:48", "status": "CLOSED", "bikes": 0, "address": "Kellogg Blvd E & Jackson Street", "name": "Kellogg Blvd E & Jackson Street", "lon": -93.088802}, "type": "Feature"}, {"geometry": {"coordinates": [-93.089245, 44.950766], "type": "Point"}, "properties": {"stands": 15, "lat": 44.950766, "update": "2015-11-04T12:02:09", "status": "CLOSED", "bikes": 0, "address": "7th Street E & Wacouta Street", "name": "7th Street E & Wacouta Street", "lon": -93.089245}, "type": "Feature"}, {"geometry": {"coordinates": [-93.0845, 44.94965], "type": "Point"}, "properties": {"stands": 19, "lat": 44.94965, "update": "2015-11-04T12:03:15", "status": "CLOSED", "bikes": 0, "address": "Broadway Street N & 4th Street E", "name": "Broadway Street N & 4th Street E", "lon": -93.0845}, "type": "Feature"}, {"geometry": {"coordinates": [-93.10445, 44.95385], "type": "Point"}, "properties": {"stands": 15, "lat": 44.95385, "update": "2015-11-04T12:04:25", "status": "CLOSED", "bikes": 0, "address": "Minnesota Dept. of Transportation", "name": "Minnesota Dept. of Transportation", "lon": -93.10445}, "type": "Feature"}, {"geometry": {"coordinates": [-93.103863, 44.945173], "type": "Point"}, "properties": {"stands": 15, "lat": 44.945173, "update": "2015-11-04T12:02:06", "status": "CLOSED", "bikes": 0, "address": "Kellogg Blvd W & Smith Ave", "name": "Kellogg Blvd W & Smith Ave", "lon": -93.103863}, "type": "Feature"}, {"geometry": {"coordinates": [-93.08465, 44.956028], "type": "Point"}, "properties": {"stands": 18, "lat": 44.956028, "update": "2015-11-04T12:04:28", "status": "CLOSED", "bikes": 0, "address": "Lafayette Road & Grove Street", "name": "Lafayette Road & Grove Street", "lon": -93.08465}, "type": "Feature"}, {"geometry": {"coordinates": [-93.09231, 44.94683], "type": "Point"}, "properties": {"stands": 19, "lat": 44.94683, "update": "2015-11-04T12:02:56", "status": "CLOSED", "bikes": 0, "address": "5th Street E & Minnesota Street N", "name": "5th Street E & Minnesota Street N", "lon": -93.09231}, "type": "Feature"}, {"geometry": {"coordinates": [-93.096114, 44.945267], "type": "Point"}, "properties": {"stands": 19, "lat": 44.945267, "update": "2015-11-04T12:01:10", "status": "CLOSED", "bikes": 0, "address": "Landmark Plaza", "name": "Landmark Plaza", "lon": -93.096114}, "type": "Feature"}, {"geometry": {"coordinates": [-93.09663, 44.94813], "type": "Point"}, "properties": {"stands": 19, "lat": 44.94813, "update": "2015-11-04T12:02:05", "status": "CLOSED", "bikes": 0, "address": "Wells Fargo Place", "name": "Wells Fargo Place", "lon": -93.09663}, "type": "Feature"}, {"geometry": {"coordinates": [-93.0779, 44.93002], "type": "Point"}, "properties": {"stands": 15, "lat": 44.93002, "update": "2015-11-04T12:04:24", "status": "CLOSED", "bikes": 0, "address": "State Street & Cesar Chavez Street", "name": "State Street & Cesar Chavez Street", "lon": -93.0779}, "type": "Feature"}, {"geometry": {"coordinates": [-93.089031, 44.939047], "type": "Point"}, "properties": {"stands": 15, "lat": 44.939047, "update": "2015-11-04T12:01:14", "status": "CLOSED", "bikes": 0, "address": "Wabasha Street S & E Fillmore Ave", "name": "Wabasha Street S & E Fillmore Ave", "lon": -93.089031}, "type": "Feature"}, {"geometry": {"coordinates": [-93.094532, 44.93768], "type": "Point"}, "properties": {"stands": 19, "lat": 44.93768, "update": "2015-11-05T12:04:17", "status": "CLOSED", "bikes": 0, "address": "Harriet Island", "name": "Harriet Island", "lon": -93.094532}, "type": "Feature"}, {"geometry": {"coordinates": [-93.09227, 44.943846], "type": "Point"}, "properties": {"stands": 19, "lat": 44.943846, "update": "2015-11-04T12:03:37", "status": "CLOSED", "bikes": 0, "address": "Kellogg Blvd & Wabasha Street", "name": "Kellogg Blvd & Wabasha Street", "lon": -93.09227}, "type": "Feature"}, {"geometry": {"coordinates": [-93.084497, 44.934503], "type": "Point"}, "properties": {"stands": 15, "lat": 44.934503, "update": "2015-11-04T12:04:05", "status": "CLOSED", "bikes": 0, "address": "Wabasha Street S & Cesar Chavez Street", "name": "Wabasha Street S & Cesar Chavez Street", "lon": -93.084497}, "type": "Feature"}, {"geometry": {"coordinates": [-93.098712, 44.940902], "type": "Point"}, "properties": {"stands": 19, "lat": 44.940902, "update": "2015-11-05T12:03:25", "status": "CLOSED", "bikes": 0, "address": "Upper Landing", "name": "Upper Landing", "lon": -93.098712}, "type": "Feature"}, {"geometry": {"coordinates": [-93.10624, 44.94144], "type": "Point"}, "properties": {"stands": 19, "lat": 44.94144, "update": "2015-11-04T12:03:01", "status": "CLOSED", "bikes": 0, "address": "7th Street W & Grand Ave", "name": "7th Street W & Grand Ave", "lon": -93.10624}, "type": "Feature"}, {"geometry": {"coordinates": [-93.097836, 44.942846], "type": "Point"}, "properties": {"stands": 19, "lat": 44.942846, "update": "2015-11-04T12:01:57", "status": "CLOSED", "bikes": 0, "address": "Science Museum of Minnesota", "name": "Science Museum of Minnesota", "lon": -93.097836}, "type": "Feature"}, {"geometry": {"coordinates": [-93.1151, 44.9467], "type": "Point"}, "properties": {"stands": 19, "lat": 44.9467, "update": "2015-11-03T18:15:40", "status": "CLOSED", "bikes": 0, "address": "Selby Ave & Virginia Street", "name": "Selby Ave & Virginia Street", "lon": -93.1151}, "type": "Feature"}, {"geometry": {"coordinates": [-93.11665, 44.95562], "type": "Point"}, "properties": {"stands": 15, "lat": 44.95562, "update": "2015-11-04T12:02:32", "status": "CLOSED", "bikes": 0, "address": "University Ave & Western Ave", "name": "University Ave & Western Ave", "lon": -93.11665}, "type": "Feature"}, {"geometry": {"coordinates": [-93.097817, 44.954697], "type": "Point"}, "properties": {"stands": 17, "lat": 44.954697, "update": "2015-11-04T12:02:31", "status": "CLOSED", "bikes": 0, "address": "E 14th Street & N Robert Street ", "name": "E 14th Street & N Robert Street ", "lon": -93.097817}, "type": "Feature"}, {"geometry": {"coordinates": [-93.10955, 44.95476], "type": "Point"}, "properties": {"stands": 15, "lat": 44.95476, "update": "2015-11-04T12:02:24", "status": "CLOSED", "bikes": 0, "address": "N Marion Street & University Ave W", "name": "N Marion Street & University Ave W", "lon": -93.10955}, "type": "Feature"}, {"geometry": {"coordinates": [-93.094545, 44.951132], "type": "Point"}, "properties": {"stands": 19, "lat": 44.951132, "update": "2015-11-04T12:04:03", "status": "CLOSED", "bikes": 0, "address": "N Robert Street & E 10th Street", "name": "N Robert Street & E 10th Street", "lon": -93.094545}, "type": "Feature"}, {"geometry": {"coordinates": [-93.277505, 44.977128], "type": "Point"}, "properties": {"stands": 25, "lat": 44.977128, "update": "2015-11-02T12:01:01", "status": "CLOSED", "bikes": 0, "address": "9th Street N & Hawthorne Ave", "name": "9th Street N & Hawthorne Ave", "lon": -93.277505}, "type": "Feature"}, {"geometry": {"coordinates": [-93.256736, 44.977521], "type": "Point"}, "properties": {"stands": 19, "lat": 44.977521, "update": "2015-11-02T16:37:18", "status": "CLOSED", "bikes": 0, "address": "Chicago Ave & Washington Ave S", "name": "Chicago Ave & Washington Ave S", "lon": -93.256736}, "type": "Feature"}, {"geometry": {"coordinates": [-93.269087, 44.988461], "type": "Point"}, "properties": {"stands": 15, "lat": 44.988461, "update": "2015-11-03T16:29:31", "status": "CLOSED", "bikes": 0, "address": "N 4th Ave & W River Parkway", "name": "N 4th Ave & W River Parkway", "lon": -93.269087}, "type": "Feature"}, {"geometry": {"coordinates": [-93.277037, 45.00095], "type": "Point"}, "properties": {"stands": 15, "lat": 45.00095, "update": "2015-11-03T12:03:13", "status": "CLOSED", "bikes": 0, "address": "Minneapolis Park & Recreation Board", "name": "Minneapolis Park & Recreation Board", "lon": -93.277037}, "type": "Feature"}, {"geometry": {"coordinates": [-93.29065, 45.033069], "type": "Point"}, "properties": {"stands": 15, "lat": 45.033069, "update": "2015-11-06T12:02:49", "status": "CLOSED", "bikes": 0, "address": "Webber Park", "name": "Webber Park", "lon": -93.29065}, "type": "Feature"}, {"geometry": {"coordinates": [-93.187381, 44.894044], "type": "Point"}, "properties": {"stands": 19, "lat": 44.894044, "update": "2015-11-05T12:04:20", "status": "CLOSED", "bikes": 0, "address": "Fort Snelling Visitor Center", "name": "Fort Snelling Visitor Center", "lon": -93.187381}, "type": "Feature"}, {"geometry": {"coordinates": [-93.213587, 44.916906], "type": "Point"}, "properties": {"stands": 27, "lat": 44.916906, "update": "2015-11-02T16:12:46", "status": "CLOSED", "bikes": 0, "address": "Minnehaha Park", "name": "Minnehaha Park", "lon": -93.213587}, "type": "Feature"}, {"geometry": {"coordinates": [-93.30713, 44.92936], "type": "Point"}, "properties": {"stands": 25, "lat": 44.92936, "update": "2015-11-05T12:03:34", "status": "CLOSED", "bikes": 0, "address": "Lake Harriet Bandshell", "name": "Lake Harriet Bandshell", "lon": -93.30713}, "type": "Feature"}, {"geometry": {"coordinates": [-93.242761, 44.915957], "type": "Point"}, "properties": {"stands": 23, "lat": 44.915957, "update": "2015-11-06T12:03:51", "status": "CLOSED", "bikes": 0, "address": "Lake Nokomis", "name": "Lake Nokomis", "lon": -93.242761}, "type": "Feature"}, {"geometry": {"coordinates": [-93.2125, 44.9342], "type": "Point"}, "properties": {"stands": 15, "lat": 44.9342, "update": "2015-11-02T15:40:24", "status": "CLOSED", "bikes": 0, "address": "E 38th Street & 42nd Ave S", "name": "E 38th Street & 42nd Ave S", "lon": -93.2125}, "type": "Feature"}, {"geometry": {"coordinates": [-93.320212, 44.937817], "type": "Point"}, "properties": {"stands": 19, "lat": 44.937817, "update": "2015-11-05T12:00:59", "status": "CLOSED", "bikes": 0, "address": "W 36th Street & W Calhoun Parkway", "name": "W 36th Street & W Calhoun Parkway", "lon": -93.320212}, "type": "Feature"}, {"geometry": {"coordinates": [-93.206201, 44.948452], "type": "Point"}, "properties": {"stands": 15, "lat": 44.948452, "update": "2015-11-02T15:48:18", "status": "CLOSED", "bikes": 0, "address": "Lake Street & West River Parkway", "name": "Lake Street & West River Parkway", "lon": -93.206201}, "type": "Feature"}, {"geometry": {"coordinates": [-93.293129, 44.949699], "type": "Point"}, "properties": {"stands": 15, "lat": 44.949699, "update": "2015-11-02T18:14:58", "status": "CLOSED", "bikes": 0, "address": "Dupont Ave S & W 29th Street", "name": "Dupont Ave S & W 29th Street", "lon": -93.293129}, "type": "Feature"}, {"geometry": {"coordinates": [-93.314597, 44.92515], "type": "Point"}, "properties": {"stands": 19, "lat": 44.92515, "update": "2015-11-05T12:05:16", "status": "CLOSED", "bikes": 0, "address": "Upton Ave S & Sheridan Ave S", "name": "Upton Ave S & Sheridan Ave S", "lon": -93.314597}, "type": "Feature"}, {"geometry": {"coordinates": [-93.233092, 44.947329], "type": "Point"}, "properties": {"stands": 15, "lat": 44.947329, "update": "2015-11-02T16:50:22", "status": "CLOSED", "bikes": 0, "address": "27th Ave S & Minnehaha Ave", "name": "27th Ave S & Minnehaha Ave", "lon": -93.233092}, "type": "Feature"}, {"geometry": {"coordinates": [-93.198283, 44.905043], "type": "Point"}, "properties": {"stands": 15, "lat": 44.905043, "update": "2015-11-05T12:05:02", "status": "CLOSED", "bikes": 0, "address": "Coldwater Spring", "name": "Coldwater Spring", "lon": -93.198283}, "type": "Feature"}, {"geometry": {"coordinates": [-93.21953, 44.920466], "type": "Point"}, "properties": {"stands": 19, "lat": 44.920466, "update": "2015-11-02T16:19:56", "status": "CLOSED", "bikes": 0, "address": "46th Street Light Rail Station", "name": "46th Street Light Rail Station", "lon": -93.21953}, "type": "Feature"}, {"geometry": {"coordinates": [-93.229338, 44.93434], "type": "Point"}, "properties": {"stands": 15, "lat": 44.93434, "update": "2015-11-02T15:27:48", "status": "CLOSED", "bikes": 0, "address": "38th Street Light Rail Station", "name": "38th Street Light Rail Station", "lon": -93.229338}, "type": "Feature"}, {"geometry": {"coordinates": [-93.187264, 44.919593], "type": "Point"}, "properties": {"stands": 15, "lat": 44.919593, "update": "2015-11-02T16:05:44", "status": "CLOSED", "bikes": 0, "address": "Cleveland Ave S & Highland Parkway", "name": "Cleveland Ave S & Highland Parkway", "lon": -93.187264}, "type": "Feature"}, {"geometry": {"coordinates": [-93.252189, 44.97673], "type": "Point"}, "properties": {"stands": 3, "lat": 44.97673, "update": "2015-11-02T16:04:48", "status": "CLOSED", "bikes": 0, "address": "11th Ave S & S 2nd Street", "name": "11th Ave S & S 2nd Street", "lon": -93.252189}, "type": "Feature"}, {"geometry": {"coordinates": [-93.268633, 44.998613], "type": "Point"}, "properties": {"stands": 15, "lat": 44.998613, "update": "2015-11-03T15:28:19", "status": "CLOSED", "bikes": 0, "address": "Broadway & Marshall Street NE", "name": "Broadway & Marshall Street NE", "lon": -93.268633}, "type": "Feature"}, {"geometry": {"coordinates": [-93.271571, 45.006229], "type": "Point"}, "properties": {"stands": 15, "lat": 45.006229, "update": "2015-11-03T12:03:59", "status": "CLOSED", "bikes": 0, "address": "Marshall Street NE & 18th Ave NE", "name": "Marshall Street NE & 18th Ave NE", "lon": -93.271571}, "type": "Feature"}, {"geometry": {"coordinates": [-93.270256, 44.99254], "type": "Point"}, "properties": {"stands": 15, "lat": 44.99254, "update": "2015-11-03T12:01:31", "status": "CLOSED", "bikes": 0, "address": "Boom Island Park", "name": "Boom Island Park", "lon": -93.270256}, "type": "Feature"}, {"geometry": {"coordinates": [-93.197997, 44.940288], "type": "Point"}, "properties": {"stands": 15, "lat": 44.940288, "update": "2015-11-03T20:34:25", "status": "CLOSED", "bikes": 0, "address": "Mississippi River Blvd & Summit Ave", "name": "Mississippi River Blvd & Summit Ave", "lon": -93.197997}, "type": "Feature"}, {"geometry": {"coordinates": [-93.191837, 44.943017], "type": "Point"}, "properties": {"stands": 19, "lat": 44.943017, "update": "2015-11-02T15:47:39", "status": "CLOSED", "bikes": 0, "address": "University of St. Thomas", "name": "University of St. Thomas", "lon": -93.191837}, "type": "Feature"}, {"geometry": {"coordinates": [-93.18237, 44.890527], "type": "Point"}, "properties": {"stands": 19, "lat": 44.890527, "update": "2015-11-05T12:01:43", "status": "CLOSED", "bikes": 0, "address": "Fort Snelling State Park", "name": "Fort Snelling State Park", "lon": -93.18237}, "type": "Feature"}, {"geometry": {"coordinates": [-93.27166, 45.01312], "type": "Point"}, "properties": {"stands": 15, "lat": 45.01312, "update": "2015-11-03T12:02:07", "status": "CLOSED", "bikes": 0, "address": "Marshall Street NE & Lowry Ave", "name": "Marshall Street NE & Lowry Ave", "lon": -93.27166}, "type": "Feature"}, {"geometry": {"coordinates": [-93.278133, 44.96995], "type": "Point"}, "properties": {"stands": 15, "lat": 44.96995, "update": "2015-11-05T12:03:50", "status": "CLOSED", "bikes": 0, "address": "Nicollet Mall & Grant Street", "name": "Nicollet Mall & Grant Street", "lon": -93.278133}, "type": "Feature"}, {"geometry": {"coordinates": [-93.305209, 44.9485], "type": "Point"}, "properties": {"stands": 33, "lat": 44.9485, "update": "2015-11-02T20:20:28", "status": "CLOSED", "bikes": 0, "address": "Lake Street & Knox Ave S", "name": "Lake Street & Knox Ave S", "lon": -93.305209}, "type": "Feature"}, {"geometry": {"coordinates": [-93.26145, 44.985388], "type": "Point"}, "properties": {"stands": 15, "lat": 44.985388, "update": "2015-11-03T12:02:55", "status": "CLOSED", "bikes": 0, "address": "Nicollet Island", "name": "Nicollet Island", "lon": -93.26145}, "type": "Feature"}, {"geometry": {"coordinates": [-93.270503282547, 44.978665179559], "type": "Point"}, "properties": {"stands": 19, "lat": 44.978665179559, "update": "2015-11-03T18:09:34", "status": "CLOSED", "bikes": 0, "address": "5th Street & Nicollet Mall", "name": "5th Street & Nicollet Mall", "lon": -93.270503282547}, "type": "Feature"}, {"geometry": {"coordinates": [-93.270649, 44.974795], "type": "Point"}, "properties": {"stands": 19, "lat": 44.974795, "update": "2015-11-03T12:03:29", "status": "CLOSED", "bikes": 0, "address": "8th Street & 2nd Ave S", "name": "8th Street & 2nd Ave S", "lon": -93.270649}, "type": "Feature"}, {"geometry": {"coordinates": [-93.252102, 44.985465], "type": "Point"}, "properties": {"stands": 15, "lat": 44.985465, "update": "2015-11-03T12:04:08", "status": "CLOSED", "bikes": 0, "address": "SE 3rd Ave & University Ave SE", "name": "SE 3rd Ave & University Ave SE", "lon": -93.252102}, "type": "Feature"}, {"geometry": {"coordinates": [-93.249653, 44.983321], "type": "Point"}, "properties": {"stands": 15, "lat": 44.983321, "update": "2015-11-03T12:03:05", "status": "CLOSED", "bikes": 0, "address": "2nd Street SE & 5th Ave SE", "name": "2nd Street SE & 5th Ave SE", "lon": -93.249653}, "type": "Feature"}, {"geometry": {"coordinates": [-93.240282, 44.980831], "type": "Point"}, "properties": {"stands": 23, "lat": 44.980831, "update": "2015-11-04T12:03:03", "status": "CLOSED", "bikes": 0, "address": "Sanford Hall", "name": "Sanford Hall", "lon": -93.240282}, "type": "Feature"}, {"geometry": {"coordinates": [-93.221021, 44.972128], "type": "Point"}, "properties": {"stands": 19, "lat": 44.972128, "update": "2015-11-05T12:02:07", "status": "CLOSED", "bikes": 0, "address": "Delaware St SE & 26th Ave SE", "name": "Delaware St SE & 26th Ave SE", "lon": -93.221021}, "type": "Feature"}, {"geometry": {"coordinates": [-93.237254, 44.973607], "type": "Point"}, "properties": {"stands": 18, "lat": 44.973607, "update": "2015-11-05T12:04:15", "status": "CLOSED", "bikes": 0, "address": "Weisman Art Museum", "name": "Weisman Art Museum", "lon": -93.237254}, "type": "Feature"}, {"geometry": {"coordinates": [-93.268604, 44.983902], "type": "Point"}, "properties": {"stands": 19, "lat": 44.983902, "update": "2015-11-03T18:43:18", "status": "CLOSED", "bikes": 0, "address": "1st Ave N & 2nd Street N", "name": "1st Ave N & 2nd Street N", "lon": -93.268604}, "type": "Feature"}, {"geometry": {"coordinates": [-93.279854, 44.987996], "type": "Point"}, "properties": {"stands": 19, "lat": 44.987996, "update": "2015-11-03T15:53:41", "status": "CLOSED", "bikes": 0, "address": "3rd Street N & 8th Ave N", "name": "3rd Street N & 8th Ave N", "lon": -93.279854}, "type": "Feature"}, {"geometry": {"coordinates": [-93.277234, 44.98446], "type": "Point"}, "properties": {"stands": 19, "lat": 44.98446, "update": "2015-11-03T15:39:25", "status": "CLOSED", "bikes": 0, "address": "5th Ave N & 4th Street N", "name": "5th Ave N & 4th Street N", "lon": -93.277234}, "type": "Feature"}, {"geometry": {"coordinates": [-93.274031, 44.985406], "type": "Point"}, "properties": {"stands": 19, "lat": 44.985406, "update": "2015-11-03T15:42:20", "status": "CLOSED", "bikes": 0, "address": "Washington Ave N & Cedar Lake Trail", "name": "Washington Ave N & Cedar Lake Trail", "lon": -93.274031}, "type": "Feature"}, {"geometry": {"coordinates": [-93.269195, 44.981895], "type": "Point"}, "properties": {"stands": 23, "lat": 44.981895, "update": "2015-10-28T15:26:35", "status": "OPEN", "bikes": 0, "address": "Hennepin Ave & S Washington Ave", "name": "Hennepin Ave & S Washington Ave", "lon": -93.269195}, "type": "Feature"}, {"geometry": {"coordinates": [-93.286294, 44.966145], "type": "Point"}, "properties": {"stands": 18, "lat": 44.966145, "update": "2015-11-02T19:09:19", "status": "CLOSED", "bikes": 0, "address": "Groveland Ave & Clifton Place", "name": "Groveland Ave & Clifton Place", "lon": -93.286294}, "type": "Feature"}, {"geometry": {"coordinates": [-93.254295, 44.990328], "type": "Point"}, "properties": {"stands": 15, "lat": 44.990328, "update": "2015-11-03T17:08:39", "status": "CLOSED", "bikes": 0, "address": "5th Street NE & 1st Ave NE", "name": "5th Street NE & 1st Ave NE", "lon": -93.254295}, "type": "Feature"}, {"geometry": {"coordinates": [-93.255558, 44.991821], "type": "Point"}, "properties": {"stands": 14, "lat": 44.991821, "update": "2015-11-02T23:27:35", "status": "CLOSED", "bikes": 0, "address": "5th Street NE & 3rd Ave NE", "name": "5th Street NE & 3rd Ave NE", "lon": -93.255558}, "type": "Feature"}, {"geometry": {"coordinates": [-93.264573, 45.01304], "type": "Point"}, "properties": {"stands": 15, "lat": 45.01304, "update": "2015-11-03T12:00:49", "status": "CLOSED", "bikes": 0, "address": "3rd Street NE & Lowry Ave NE", "name": "3rd Street NE & Lowry Ave NE", "lon": -93.264573}, "type": "Feature"}, {"geometry": {"coordinates": [-93.268598, 45.010119], "type": "Point"}, "properties": {"stands": 15, "lat": 45.010119, "update": "2015-11-03T12:01:01", "status": "CLOSED", "bikes": 0, "address": "22nd Ave NE & California Street NE", "name": "22nd Ave NE & California Street NE", "lon": -93.268598}, "type": "Feature"}, {"geometry": {"coordinates": [-93.19782, 44.892483], "type": "Point"}, "properties": {"stands": 15, "lat": 44.892483, "update": "2015-11-06T16:04:11", "status": "CLOSED", "bikes": 0, "address": "Fort Snelling LRT Station", "name": "Fort Snelling LRT Station", "lon": -93.19782}, "type": "Feature"}, {"geometry": {"coordinates": [-93.266553, 45.006321], "type": "Point"}, "properties": {"stands": 15, "lat": 45.006321, "update": "2015-11-03T12:05:17", "status": "CLOSED", "bikes": 0, "address": "18th Ave Trail & 2nd Street NE", "name": "18th Ave Trail & 2nd Street NE", "lon": -93.266553}, "type": "Feature"}, {"geometry": {"coordinates": [-93.220066, 44.953566], "type": "Point"}, "properties": {"stands": 3, "lat": 44.953566, "update": "2015-11-04T00:00:56", "status": "CLOSED", "bikes": 0, "address": "Nice Ride World Headquarters", "name": "Nice Ride World Headquarters", "lon": -93.220066}, "type": "Feature"}], "type": "FeatureCollection"}
=======
{"type": "FeatureCollection", "features": [{"type": "Feature", "properties": {"lon": -93.256551, "stands": 27, "update": "2015-11-04T12:04:04", "bikes": 0, "lat": 44.984892, "status": "CLOSED", "address": "100 Main Street SE", "name": "100 Main Street SE"}, "geometry": {"type": "Point", "coordinates": [-93.256551, 44.984892]}}, {"type": "Feature", "properties": {"lon": -93.223374, "stands": 15, "update": "2015-11-02T15:35:25", "bikes": 0, "lat": 44.957341, "status": "CLOSED", "address": "25th Street & 33rd Ave S", "name": "25th Street & 33rd Ave S"}, "geometry": {"type": "Point", "coordinates": [-93.223374, 44.957341]}}, {"type": "Feature", "properties": {"lon": -93.240149, "stands": 15, "update": "2015-11-02T17:49:24", "bikes": 0, "lat": 44.967115, "status": "CLOSED", "address": "Riverside Ave & 23rd Ave S", "name": "Riverside Ave & 23rd Ave S"}, "geometry": {"type": "Point", "coordinates": [-93.240149, 44.967115]}}, {"type": "Feature", "properties": {"lon": -93.306269, "stands": 15, "update": "2015-11-03T12:02:28", "bikes": 0, "lat": 44.991412, "status": "CLOSED", "address": "Plymouth Ave N &  N Oliver Ave", "name": "Plymouth Ave N &  N Oliver Ave"}, "geometry": {"type": "Point", "coordinates": [-93.306269, 44.991412]}}, {"type": "Feature", "properties": {"lon": -93.27869, "stands": 23, "update": "2015-11-02T20:11:46", "bikes": 0, "lat": 44.97534, "status": "CLOSED", "address": "11th Street & Hennepin", "name": "11th Street & Hennepin"}, "geometry": {"type": "Point", "coordinates": [-93.27869, 44.97534]}}, {"type": "Feature", "properties": {"lon": -93.25392, "stands": 15, "update": "2015-11-03T12:02:59", "bikes": 0, "lat": 44.98889, "status": "CLOSED", "address": "Hennepin & Central Avenue NE", "name": "Hennepin & Central Avenue NE"}, "geometry": {"type": "Point", "coordinates": [-93.25392, 44.98889]}}, {"type": "Feature", "properties": {"lon": -93.276435, "stands": 23, "update": "2015-11-05T12:03:53", "bikes": 0, "lat": 44.972217, "status": "CLOSED", "address": "YWCA Downtown", "name": "YWCA Downtown"}, "geometry": {"type": "Point", "coordinates": [-93.276435, 44.972217]}}, {"type": "Feature", "properties": {"lon": -93.26872, "stands": 19, "update": "2015-11-02T17:36:26", "bikes": 0, "lat": 44.97265, "status": "CLOSED", "address": "9th Street & 4th Ave", "name": "9th Street & 4th Ave"}, "geometry": {"type": "Point", "coordinates": [-93.26872, 44.97265]}}, {"type": "Feature", "properties": {"lon": -93.2602, "stands": 19, "update": "2015-11-02T16:50:41", "bikes": 0, "lat": 44.94859, "status": "CLOSED", "address": "Midtown Exchange", "name": "Midtown Exchange"}, "geometry": {"type": "Point", "coordinates": [-93.2602, 44.94859]}}, {"type": "Feature", "properties": {"lon": -93.23746, "stands": 19, "update": "2015-11-04T12:04:16", "bikes": 0, "lat": 44.98102, "status": "CLOSED", "address": "4th Street & 13th Ave SE", "name": "4th Street & 13th Ave SE"}, "geometry": {"type": "Point", "coordinates": [-93.23746, 44.98102]}}, {"type": "Feature", "properties": {"lon": -93.28305, "stands": 15, "update": "2015-11-02T20:06:54", "bikes": 0, "lat": 44.97391, "status": "CLOSED", "address": "Hennepin & Laurel Ave", "name": "Hennepin & Laurel Ave"}, "geometry": {"type": "Point", "coordinates": [-93.28305, 44.97391]}}, {"type": "Feature", "properties": {"lon": -93.272459, "stands": 19, "update": "2015-11-03T16:25:14", "bikes": 0, "lat": 44.986087, "status": "CLOSED", "address": "North 2nd Street & 4th Ave N", "name": "North 2nd Street & 4th Ave N"}, "geometry": {"type": "Point", "coordinates": [-93.272459, 44.986087]}}, {"type": "Feature", "properties": {"lon": -93.275861, "stands": 19, "update": "2015-11-03T12:02:31", "bikes": 0, "lat": 44.970041, "status": "CLOSED", "address": "Mpls Convention Center", "name": "Mpls Convention Center"}, "geometry": {"type": "Point", "coordinates": [-93.275861, 44.970041]}}, {"type": "Feature", "properties": {"lon": -93.288227319717, "stands": 19, "update": "2015-11-03T12:00:33", "bikes": 0, "lat": 44.949484653766, "status": "CLOSED", "address": "Lyndale Ave S & W 29th Street", "name": "Lyndale Ave S & W 29th Street"}, "geometry": {"type": "Point", "coordinates": [-93.288227319717, 44.949484653766]}}, {"type": "Feature", "properties": {"lon": -93.241042, "stands": 15, "update": "2015-11-02T17:04:42", "bikes": 0, "lat": 44.96293, "status": "CLOSED", "address": "22nd Ave S & Franklin Ave", "name": "22nd Ave S & Franklin Ave"}, "geometry": {"type": "Point", "coordinates": [-93.241042, 44.96293]}}, {"type": "Feature", "properties": {"lon": -93.24748, "stands": 20, "update": "2015-11-02T12:03:06", "bikes": 0, "lat": 44.97344, "status": "CLOSED", "address": "Washington & Cedar", "name": "Washington & Cedar"}, "geometry": {"type": "Point", "coordinates": [-93.24748, 44.97344]}}, {"type": "Feature", "properties": {"lon": -93.28848, "stands": 17, "update": "2015-11-04T18:12:24", "bikes": 0, "lat": 44.96746, "status": "CLOSED", "address": "Walker Art Center", "name": "Walker Art Center"}, "geometry": {"type": "Point", "coordinates": [-93.28848, 44.96746]}}, {"type": "Feature", "properties": {"lon": -93.28815, "stands": 19, "update": "2015-11-02T18:36:19", "bikes": 0, "lat": 44.960744, "status": "CLOSED", "address": "Lyndale Ave S & 22nd Street ", "name": "Lyndale Ave S & 22nd Street "}, "geometry": {"type": "Point", "coordinates": [-93.28815, 44.960744]}}, {"type": "Feature", "properties": {"lon": -93.274981, "stands": 17, "update": "2015-11-04T18:44:19", "bikes": 0, "lat": 44.957214, "status": "CLOSED", "address": "MCAD", "name": "MCAD"}, "geometry": {"type": "Point", "coordinates": [-93.274981, 44.957214]}}, {"type": "Feature", "properties": {"lon": -93.243754, "stands": 28, "update": "2015-11-04T12:01:02", "bikes": 0, "lat": 44.971359, "status": "CLOSED", "address": "Social Sciences", "name": "Social Sciences"}, "geometry": {"type": "Point", "coordinates": [-93.243754, 44.971359]}}, {"type": "Feature", "properties": {"lon": -93.29853, "stands": 19, "update": "2015-11-03T12:00:35", "bikes": 0, "lat": 44.95131, "status": "CLOSED", "address": "YWCA Uptown", "name": "YWCA Uptown"}, "geometry": {"type": "Point", "coordinates": [-93.29853, 44.95131]}}, {"type": "Feature", "properties": {"lon": -93.27099, "stands": 19, "update": "2015-11-03T17:01:37", "bikes": 0, "lat": 44.98383, "status": "CLOSED", "address": "Washington & 2nd Ave N", "name": "Washington & 2nd Ave N"}, "geometry": {"type": "Point", "coordinates": [-93.27099, 44.98383]}}, {"type": "Feature", "properties": {"lon": -93.28775, "stands": 15, "update": "2015-11-02T20:50:58", "bikes": 0, "lat": 44.95548, "status": "CLOSED", "address": "26th Street & Lyndale", "name": "26th Street & Lyndale"}, "geometry": {"type": "Point", "coordinates": [-93.28775, 44.95548]}}, {"type": "Feature", "properties": {"lon": -93.26259, "stands": 15, "update": "2015-11-02T16:57:05", "bikes": 0, "lat": 44.95355, "status": "CLOSED", "address": "Chicago & 27th Street", "name": "Chicago & 27th Street"}, "geometry": {"type": "Point", "coordinates": [-93.26259, 44.95355]}}, {"type": "Feature", "properties": {"lon": -93.234762, "stands": 3, "update": "2015-11-03T19:21:58", "bikes": 0, "lat": 44.973378, "status": "CLOSED", "address": "Coffman Union", "name": "Coffman Union"}, "geometry": {"type": "Point", "coordinates": [-93.234762, 44.973378]}}, {"type": "Feature", "properties": {"lon": -93.234911, "stands": 25, "update": "2015-11-04T12:01:44", "bikes": 0, "lat": 44.977406, "status": "CLOSED", "address": "Williamson Hall", "name": "Williamson Hall"}, "geometry": {"type": "Point", "coordinates": [-93.234911, 44.977406]}}, {"type": "Feature", "properties": {"lon": -93.23206, "stands": 25, "update": "2015-11-04T12:02:17", "bikes": 0, "lat": 44.97209, "status": "CLOSED", "address": "Mayo Memorial Building", "name": "Mayo Memorial Building"}, "geometry": {"type": "Point", "coordinates": [-93.23206, 44.97209]}}, {"type": "Feature", "properties": {"lon": -93.24519, "stands": 19, "update": "2015-11-02T12:02:53", "bikes": 0, "lat": 44.97003, "status": "CLOSED", "address": "4th Street S & 19th Ave", "name": "4th Street S & 19th Ave"}, "geometry": {"type": "Point", "coordinates": [-93.24519, 44.97003]}}, {"type": "Feature", "properties": {"lon": -93.266925215721, "stands": 19, "update": "2015-11-03T15:58:52", "bikes": 0, "lat": 44.980873610847, "status": "CLOSED", "address": "Washington & Marquette", "name": "Washington & Marquette"}, "geometry": {"type": "Point", "coordinates": [-93.266925215721, 44.980873610847]}}, {"type": "Feature", "properties": {"lon": -93.266701, "stands": 27, "update": "2015-11-02T12:01:15", "bikes": 0, "lat": 44.976602, "status": "CLOSED", "address": "Hennepin County Government Center", "name": "Hennepin County Government Center"}, "geometry": {"type": "Point", "coordinates": [-93.266701, 44.976602]}}, {"type": "Feature", "properties": {"lon": -93.2583, "stands": 15, "update": "2015-11-02T17:18:16", "bikes": 0, "lat": 44.96251, "status": "CLOSED", "address": "Franklin & 11th Ave", "name": "Franklin & 11th Ave"}, "geometry": {"type": "Point", "coordinates": [-93.2583, 44.96251]}}, {"type": "Feature", "properties": {"lon": -93.22697, "stands": 23, "update": "2015-11-04T12:03:19", "bikes": 0, "lat": 44.97202, "status": "CLOSED", "address": "Oak Street Ramp", "name": "Oak Street Ramp"}, "geometry": {"type": "Point", "coordinates": [-93.22697, 44.97202]}}, {"type": "Feature", "properties": {"lon": -93.263454437256, "stands": 27, "update": "2015-11-03T16:03:17", "bikes": 0, "lat": 44.980926733576, "status": "CLOSED", "address": "South 2nd Street & 3rd Ave S", "name": "South 2nd Street & 3rd Ave S"}, "geometry": {"type": "Point", "coordinates": [-93.263454437256, 44.980926733576]}}, {"type": "Feature", "properties": {"lon": -93.221639, "stands": 18, "update": "2015-11-03T12:00:54", "bikes": 0, "lat": 44.977028, "status": "CLOSED", "address": "23rd Ave SE & 6th Street SE", "name": "23rd Ave SE & 6th Street SE"}, "geometry": {"type": "Point", "coordinates": [-93.221639, 44.977028]}}, {"type": "Feature", "properties": {"lon": -93.23189, "stands": 15, "update": "2015-11-03T17:25:28", "bikes": 0, "lat": 44.97913, "status": "CLOSED", "address": "4th Street & 17th Ave SE", "name": "4th Street & 17th Ave SE"}, "geometry": {"type": "Point", "coordinates": [-93.23189, 44.97913]}}, {"type": "Feature", "properties": {"lon": -93.284927, "stands": 15, "update": "2015-11-02T20:02:54", "bikes": 0, "lat": 44.9715, "status": "CLOSED", "address": "Loring Park", "name": "Loring Park"}, "geometry": {"type": "Point", "coordinates": [-93.284927, 44.9715]}}, {"type": "Feature", "properties": {"lon": -93.269217, "stands": 31, "update": "2015-11-03T19:45:55", "bikes": 0, "lat": 44.980199, "status": "CLOSED", "address": "Downtown Library", "name": "Downtown Library"}, "geometry": {"type": "Point", "coordinates": [-93.269217, 44.980199]}}, {"type": "Feature", "properties": {"lon": -93.251136, "stands": 15, "update": "2015-11-02T17:57:24", "bikes": 0, "lat": 44.969225, "status": "CLOSED", "address": "Currie Park", "name": "Currie Park"}, "geometry": {"type": "Point", "coordinates": [-93.251136, 44.969225]}}, {"type": "Feature", "properties": {"lon": -93.252269, "stands": 15, "update": "2015-11-02T17:05:18", "bikes": 0, "lat": 44.96285, "status": "CLOSED", "address": "E Franklin Ave & Bloomington Ave S", "name": "E Franklin Ave & Bloomington Ave S"}, "geometry": {"type": "Point", "coordinates": [-93.252269, 44.96285]}}, {"type": "Feature", "properties": {"lon": -93.274544, "stands": 0, "update": "1970-01-01T01:00:00", "bikes": 0, "lat": 44.973839, "status": "CLOSED", "address": "10th Street & Nicollet Mall", "name": "10th Street & Nicollet Mall"}, "geometry": {"type": "Point", "coordinates": [-93.274544, 44.973839]}}, {"type": "Feature", "properties": {"lon": -93.27405, "stands": 19, "update": "2015-11-05T12:03:12", "bikes": 0, "lat": 44.97265, "status": "CLOSED", "address": "11th Street & Marquette", "name": "11th Street & Marquette"}, "geometry": {"type": "Point", "coordinates": [-93.27405, 44.97265]}}, {"type": "Feature", "properties": {"lon": -93.267526, "stands": 15, "update": "2015-11-02T17:40:32", "bikes": 0, "lat": 44.962846, "status": "CLOSED", "address": "Franklin & Portland", "name": "Franklin & Portland"}, "geometry": {"type": "Point", "coordinates": [-93.267526, 44.962846]}}, {"type": "Feature", "properties": {"lon": -93.272185, "stands": 23, "update": "2015-11-02T20:53:36", "bikes": 0, "lat": 44.975641, "status": "CLOSED", "address": "IDS Center", "name": "IDS Center"}, "geometry": {"type": "Point", "coordinates": [-93.272185, 44.975641]}}, {"type": "Feature", "properties": {"lon": -93.30077, "stands": 19, "update": "2015-11-02T21:04:39", "bikes": 0, "lat": 44.94865, "status": "CLOSED", "address": "Lake Street & Humboldt", "name": "Lake Street & Humboldt"}, "geometry": {"type": "Point", "coordinates": [-93.30077, 44.94865]}}, {"type": "Feature", "properties": {"lon": -93.29714298, "stands": 15, "update": "2015-11-02T18:20:24", "bikes": 0, "lat": 44.9554734, "status": "CLOSED", "address": "26th Street & Hennepin", "name": "26th Street & Hennepin"}, "geometry": {"type": "Point", "coordinates": [-93.29714298, 44.9554734]}}, {"type": "Feature", "properties": {"lon": -93.230893, "stands": 19, "update": "2015-11-02T17:38:37", "bikes": 0, "lat": 44.962701, "status": "CLOSED", "address": "Franklin & 28th Ave", "name": "Franklin & 28th Ave"}, "geometry": {"type": "Point", "coordinates": [-93.230893, 44.962701]}}, {"type": "Feature", "properties": {"lon": -93.25576, "stands": 19, "update": "2015-11-03T12:03:42", "bikes": 0, "lat": 44.98717, "status": "CLOSED", "address": "University & Bank Street SE", "name": "University & Bank Street SE"}, "geometry": {"type": "Point", "coordinates": [-93.25576, 44.98717]}}, {"type": "Feature", "properties": {"lon": -93.29303, "stands": 15, "update": "2015-11-02T18:28:18", "bikes": 0, "lat": 44.96146, "status": "CLOSED", "address": "Dupont Ave & 22nd Street", "name": "Dupont Ave & 22nd Street"}, "geometry": {"type": "Point", "coordinates": [-93.29303, 44.96146]}}, {"type": "Feature", "properties": {"lon": -93.26599, "stands": 27, "update": "2015-11-03T18:51:46", "bikes": 0, "lat": 44.97974, "status": "CLOSED", "address": "3rd Street S & 2nd Ave S", "name": "3rd Street S & 2nd Ave S"}, "geometry": {"type": "Point", "coordinates": [-93.26599, 44.97974]}}, {"type": "Feature", "properties": {"lon": -93.275626, "stands": 23, "update": "2015-11-03T12:03:18", "bikes": 0, "lat": 44.980536, "status": "CLOSED", "address": "2nd Ave N & N 6th Street", "name": "2nd Ave N & N 6th Street"}, "geometry": {"type": "Point", "coordinates": [-93.275626, 44.980536]}}, {"type": "Feature", "properties": {"lon": -93.25535, "stands": 19, "update": "2015-11-02T16:16:45", "bikes": 0, "lat": 44.97654, "status": "CLOSED", "address": "Washington Ave S & 10th Ave S", "name": "Washington Ave S & 10th Ave S"}, "geometry": {"type": "Point", "coordinates": [-93.25535, 44.97654]}}, {"type": "Feature", "properties": {"lon": -93.27796, "stands": 15, "update": "2015-11-02T17:50:41", "bikes": 0, "lat": 44.95618, "status": "CLOSED", "address": "Nicollet Ave & W 26th Street", "name": "Nicollet Ave & W 26th Street"}, "geometry": {"type": "Point", "coordinates": [-93.27796, 44.95618]}}, {"type": "Feature", "properties": {"lon": -93.266684, "stands": 15, "update": "2015-11-02T17:27:25", "bikes": 0, "lat": 44.97497, "status": "CLOSED", "address": "7th Street & 4th Ave. S", "name": "7th Street & 4th Ave. S"}, "geometry": {"type": "Point", "coordinates": [-93.266684, 44.97497]}}, {"type": "Feature", "properties": {"lon": -93.279038071632, "stands": 23, "update": "2015-11-05T12:02:24", "bikes": 0, "lat": 44.984125390044, "status": "CLOSED", "address": "Target Field Station", "name": "Target Field Station"}, "geometry": {"type": "Point", "coordinates": [-93.279038071632, 44.984125390044]}}, {"type": "Feature", "properties": {"lon": -93.269278, "stands": 15, "update": "2015-11-04T17:23:01", "bikes": 0, "lat": 44.950371, "status": "CLOSED", "address": "Midtown Greenway & 5th Ave S", "name": "Midtown Greenway & 5th Ave S"}, "geometry": {"type": "Point", "coordinates": [-93.269278, 44.950371]}}, {"type": "Feature", "properties": {"lon": -93.211264014244, "stands": 23, "update": "2015-11-05T12:01:45", "bikes": 0, "lat": 44.973371428374, "status": "CLOSED", "address": "Malcolm Ave SE & 5th Street SE", "name": "Malcolm Ave SE & 5th Street SE"}, "geometry": {"type": "Point", "coordinates": [-93.211264014244, 44.973371428374]}}, {"type": "Feature", "properties": {"lon": -93.22854, "stands": 19, "update": "2015-11-04T12:00:53", "bikes": 0, "lat": 44.9743, "status": "CLOSED", "address": "McNamara Center", "name": "McNamara Center"}, "geometry": {"type": "Point", "coordinates": [-93.22854, 44.9743]}}, {"type": "Feature", "properties": {"lon": -93.23818, "stands": 14, "update": "2015-11-03T16:36:45", "bikes": 0, "lat": 44.97685, "status": "CLOSED", "address": "Elliot Hall", "name": "Elliot Hall"}, "geometry": {"type": "Point", "coordinates": [-93.23818, 44.97685]}}, {"type": "Feature", "properties": {"lon": -93.26079, "stands": 15, "update": "2015-11-02T17:48:39", "bikes": 0, "lat": 44.970553, "status": "CLOSED", "address": "Elliot Park", "name": "Elliot Park"}, "geometry": {"type": "Point", "coordinates": [-93.26079, 44.970553]}}, {"type": "Feature", "properties": {"lon": -93.29736, "stands": 19, "update": "2015-11-02T19:23:51", "bikes": 0, "lat": 44.946687, "status": "CLOSED", "address": "W 31st Street & Hennepin Ave S", "name": "W 31st Street & Hennepin Ave S"}, "geometry": {"type": "Point", "coordinates": [-93.29736, 44.946687]}}, {"type": "Feature", "properties": {"lon": -93.277939, "stands": 23, "update": "2015-11-02T17:46:41", "bikes": 0, "lat": 44.96342, "status": "CLOSED", "address": "Nicollet & Franklin", "name": "Nicollet & Franklin"}, "geometry": {"type": "Point", "coordinates": [-93.277939, 44.96342]}}, {"type": "Feature", "properties": {"lon": -93.27831, "stands": 15, "update": "2015-11-02T17:55:02", "bikes": 0, "lat": 44.9519, "status": "CLOSED", "address": "28th Street & Nicollet Ave. S", "name": "28th Street & Nicollet Ave. S"}, "geometry": {"type": "Point", "coordinates": [-93.27831, 44.9519]}}, {"type": "Feature", "properties": {"lon": -93.304427, "stands": 14, "update": "2015-11-03T12:01:17", "bikes": 0, "lat": 44.981147, "status": "CLOSED", "address": "Glenwood Ave & N Morgan Ave.", "name": "Glenwood Ave & N Morgan Ave."}, "geometry": {"type": "Point", "coordinates": [-93.304427, 44.981147]}}, {"type": "Feature", "properties": {"lon": -93.28542, "stands": 15, "update": "2015-11-03T12:03:36", "bikes": 0, "lat": 44.98052, "status": "CLOSED", "address": "Minneapolis Farmers Market", "name": "Minneapolis Farmers Market"}, "geometry": {"type": "Point", "coordinates": [-93.28542, 44.98052]}}, {"type": "Feature", "properties": {"lon": -93.279783725739, "stands": 15, "update": "2015-11-03T15:59:36", "bikes": 0, "lat": 44.989879107463, "status": "CLOSED", "address": "Washington Ave N & 9th Ave N", "name": "Washington Ave N & 9th Ave N"}, "geometry": {"type": "Point", "coordinates": [-93.279783725739, 44.989879107463]}}, {"type": "Feature", "properties": {"lon": -93.322066, "stands": 15, "update": "2015-11-06T12:02:56", "bikes": 0, "lat": 44.9798, "status": "CLOSED", "address": "Wirth Beach", "name": "Wirth Beach"}, "geometry": {"type": "Point", "coordinates": [-93.322066, 44.9798]}}, {"type": "Feature", "properties": {"lon": -93.290941, "stands": 10, "update": "2015-11-03T16:15:20", "bikes": 0, "lat": 44.999341, "status": "CLOSED", "address": "Bryant Ave N & West Broadway", "name": "Bryant Ave N & West Broadway"}, "geometry": {"type": "Point", "coordinates": [-93.290941, 44.999341]}}, {"type": "Feature", "properties": {"lon": -93.297071, "stands": 15, "update": "2015-11-03T15:48:24", "bikes": 0, "lat": 44.99957, "status": "CLOSED", "address": "Girard Ave N & W Broadway Ave", "name": "Girard Ave N & W Broadway Ave"}, "geometry": {"type": "Point", "coordinates": [-93.297071, 44.99957]}}, {"type": "Feature", "properties": {"lon": -93.287559, "stands": 15, "update": "2015-11-03T12:03:54", "bikes": 0, "lat": 45.005994, "status": "CLOSED", "address": "Farview Park", "name": "Farview Park"}, "geometry": {"type": "Point", "coordinates": [-93.287559, 45.005994]}}, {"type": "Feature", "properties": {"lon": -93.305857, "stands": 15, "update": "2015-11-03T15:42:46", "bikes": 0, "lat": 45.002448, "status": "CLOSED", "address": "West Broadway & Logan Ave N", "name": "West Broadway & Logan Ave N"}, "geometry": {"type": "Point", "coordinates": [-93.305857, 45.002448]}}, {"type": "Feature", "properties": {"lon": -93.307798, "stands": 15, "update": "2015-11-03T12:01:37", "bikes": 0, "lat": 45.013318, "status": "CLOSED", "address": "Lowry Ave N & Penn Ave", "name": "Lowry Ave N & Penn Ave"}, "geometry": {"type": "Point", "coordinates": [-93.307798, 45.013318]}}, {"type": "Feature", "properties": {"lon": -93.298634, "stands": 19, "update": "2015-11-02T18:50:10", "bikes": 0, "lat": 44.941388, "status": "CLOSED", "address": "West 34th Street  & Hennepin Ave S", "name": "West 34th Street  & Hennepin Ave S"}, "geometry": {"type": "Point", "coordinates": [-93.298634, 44.941388]}}, {"type": "Feature", "properties": {"lon": -93.218919, "stands": 15, "update": "2015-11-03T12:01:32", "bikes": 0, "lat": 44.97259, "status": "CLOSED", "address": "27th Ave SE & University Ave.", "name": "27th Ave SE & University Ave."}, "geometry": {"type": "Point", "coordinates": [-93.218919, 44.97259]}}, {"type": "Feature", "properties": {"lon": -93.20525, "stands": 15, "update": "2015-11-03T12:03:26", "bikes": 0, "lat": 44.96616, "status": "CLOSED", "address": "Curfew Street & Ellis Ave.", "name": "Curfew Street & Ellis Ave."}, "geometry": {"type": "Point", "coordinates": [-93.20525, 44.96616]}}, {"type": "Feature", "properties": {"lon": -93.195906, "stands": 14, "update": "2015-11-03T16:21:07", "bikes": 0, "lat": 44.963549, "status": "CLOSED", "address": "Carleton Street & University Ave ", "name": "Carleton Street & University Ave "}, "geometry": {"type": "Point", "coordinates": [-93.195906, 44.963549]}}, {"type": "Feature", "properties": {"lon": -93.17706, "stands": 15, "update": "2015-11-04T12:04:18", "bikes": 0, "lat": 44.95665, "status": "CLOSED", "address": "Fairview Ave. & University Ave.", "name": "Fairview Ave. & University Ave."}, "geometry": {"type": "Point", "coordinates": [-93.17706, 44.95665]}}, {"type": "Feature", "properties": {"lon": -93.165868, "stands": 15, "update": "2015-11-04T12:03:44", "bikes": 0, "lat": 44.964172, "status": "CLOSED", "address": "Hamline University", "name": "Hamline University"}, "geometry": {"type": "Point", "coordinates": [-93.165868, 44.964172]}}, {"type": "Feature", "properties": {"lon": -93.16734, "stands": 15, "update": "2015-11-04T12:01:44", "bikes": 0, "lat": 44.956624, "status": "CLOSED", "address": "Sherburne Ave & Snelling Ave N", "name": "Sherburne Ave & Snelling Ave N"}, "geometry": {"type": "Point", "coordinates": [-93.16734, 44.956624]}}, {"type": "Feature", "properties": {"lon": -93.24054, "stands": 15, "update": "2015-11-04T12:01:34", "bikes": 0, "lat": 44.94823, "status": "CLOSED", "address": "Midtown YWCA", "name": "Midtown YWCA"}, "geometry": {"type": "Point", "coordinates": [-93.24054, 44.94823]}}, {"type": "Feature", "properties": {"lon": -93.22106, "stands": 15, "update": "2015-11-02T16:20:50", "bikes": 0, "lat": 44.94826, "status": "CLOSED", "address": "East Lake Street & 36th Ave S", "name": "East Lake Street & 36th Ave S"}, "geometry": {"type": "Point", "coordinates": [-93.22106, 44.94826]}}, {"type": "Feature", "properties": {"lon": -93.136556, "stands": 15, "update": "2015-11-04T12:02:17", "bikes": 0, "lat": 44.956052, "status": "CLOSED", "address": "N Victoria Street & University Ave ", "name": "N Victoria Street & University Ave "}, "geometry": {"type": "Point", "coordinates": [-93.136556, 44.956052]}}, {"type": "Feature", "properties": {"lon": -93.185819, "stands": 15, "update": "2015-11-02T15:41:52", "bikes": 0, "lat": 44.948147, "status": "CLOSED", "address": "Wilder Street & Marshall Ave", "name": "Wilder Street & Marshall Ave"}, "geometry": {"type": "Point", "coordinates": [-93.185819, 44.948147]}}, {"type": "Feature", "properties": {"lon": -93.177093, "stands": 15, "update": "2015-11-02T12:02:44", "bikes": 0, "lat": 44.940513, "status": "CLOSED", "address": "Grand Ave & Fairview Ave", "name": "Grand Ave & Fairview Ave"}, "geometry": {"type": "Point", "coordinates": [-93.177093, 44.940513]}}, {"type": "Feature", "properties": {"lon": -93.17022, "stands": 15, "update": "2015-11-02T15:55:41", "bikes": 0, "lat": 44.940218, "status": "CLOSED", "address": "Macalester College", "name": "Macalester College"}, "geometry": {"type": "Point", "coordinates": [-93.17022, 44.940218]}}, {"type": "Feature", "properties": {"lon": -93.2669, "stands": 15, "update": "2015-11-02T17:44:02", "bikes": 0, "lat": 44.96954, "status": "CLOSED", "address": "Grant Street & Portland Ave", "name": "Grant Street & Portland Ave"}, "geometry": {"type": "Point", "coordinates": [-93.2669, 44.96954]}}, {"type": "Feature", "properties": {"lon": -93.24812, "stands": 23, "update": "2015-11-06T12:01:22", "bikes": 0, "lat": 44.983281, "status": "CLOSED", "address": "6th Ave. SE & University Ave.", "name": "6th Ave. SE & University Ave."}, "geometry": {"type": "Point", "coordinates": [-93.24812, 44.983281]}}, {"type": "Feature", "properties": {"lon": -93.317294418812, "stands": 27, "update": "2015-11-02T19:37:02", "bikes": 0, "lat": 44.948467166877, "status": "CLOSED", "address": "Lake Calhoun Center", "name": "Lake Calhoun Center"}, "geometry": {"type": "Point", "coordinates": [-93.317294418812, 44.948467166877]}}, {"type": "Feature", "properties": {"lon": -93.26023, "stands": 19, "update": "2015-11-02T16:53:04", "bikes": 0, "lat": 44.978068, "status": "CLOSED", "address": "Portland Ave. & Washington Ave.", "name": "Portland Ave. & Washington Ave."}, "geometry": {"type": "Point", "coordinates": [-93.26023, 44.978068]}}, {"type": "Feature", "properties": {"lon": -93.2675139, "stands": 15, "update": "2015-11-03T17:18:46", "bikes": 0, "lat": 44.9825943, "status": "CLOSED", "address": "Gateway Park", "name": "Gateway Park"}, "geometry": {"type": "Point", "coordinates": [-93.2675139, 44.9825943]}}, {"type": "Feature", "properties": {"lon": -93.266854, "stands": 15, "update": "2015-11-03T12:03:08", "bikes": 0, "lat": 44.995348, "status": "CLOSED", "address": "Marshall Street NE & 8th Ave. NE", "name": "Marshall Street NE & 8th Ave. NE"}, "geometry": {"type": "Point", "coordinates": [-93.266854, 44.995348]}}, {"type": "Feature", "properties": {"lon": -93.27651, "stands": 19, "update": "2015-11-03T20:46:37", "bikes": 0, "lat": 44.989166, "status": "CLOSED", "address": "2nd Street N & 8th Ave. N", "name": "2nd Street N & 8th Ave. N"}, "geometry": {"type": "Point", "coordinates": [-93.27651, 44.989166]}}, {"type": "Feature", "properties": {"lon": -93.26296, "stands": 15, "update": "2015-11-03T15:32:37", "bikes": 0, "lat": 44.999894, "status": "CLOSED", "address": "University Ave. NE & 12th Ave. NE", "name": "University Ave. NE & 12th Ave. NE"}, "geometry": {"type": "Point", "coordinates": [-93.26296, 44.999894]}}, {"type": "Feature", "properties": {"lon": -93.283163, "stands": 15, "update": "2015-11-03T12:03:10", "bikes": 0, "lat": 44.948556, "status": "CLOSED", "address": "Pleasant Ave S &  Lake Street", "name": "Pleasant Ave S &  Lake Street"}, "geometry": {"type": "Point", "coordinates": [-93.283163, 44.948556]}}, {"type": "Feature", "properties": {"lon": -93.29038, "stands": 15, "update": "2015-11-02T18:36:48", "bikes": 0, "lat": 44.94478, "status": "CLOSED", "address": "West 32nd Street & Bryant Ave S", "name": "West 32nd Street & Bryant Ave S"}, "geometry": {"type": "Point", "coordinates": [-93.29038, 44.94478]}}, {"type": "Feature", "properties": {"lon": -93.2912, "stands": 15, "update": "2015-11-02T18:43:35", "bikes": 0, "lat": 44.93775, "status": "CLOSED", "address": "West 36th Street & Bryant Ave S", "name": "West 36th Street & Bryant Ave S"}, "geometry": {"type": "Point", "coordinates": [-93.2912, 44.93775]}}, {"type": "Feature", "properties": {"lon": -93.281991, "stands": 19, "update": "2015-11-02T19:21:53", "bikes": 0, "lat": 44.968237, "status": "CLOSED", "address": "West 15th Street & Willow", "name": "West 15th Street & Willow"}, "geometry": {"type": "Point", "coordinates": [-93.281991, 44.968237]}}, {"type": "Feature", "properties": {"lon": -93.192758, "stands": 15, "update": "2015-11-04T12:01:54", "bikes": 0, "lat": 44.939936, "status": "CLOSED", "address": "Grand Ave & Cretin Ave", "name": "Grand Ave & Cretin Ave"}, "geometry": {"type": "Point", "coordinates": [-93.192758, 44.939936]}}, {"type": "Feature", "properties": {"lon": -93.1529, "stands": 15, "update": "2015-11-03T20:24:25", "bikes": 0, "lat": 44.94016, "status": "CLOSED", "address": "Kowalski's Market", "name": "Kowalski's Market"}, "geometry": {"type": "Point", "coordinates": [-93.1529, 44.94016]}}, {"type": "Feature", "properties": {"lon": -93.138832, "stands": 15, "update": "2015-11-05T12:04:33", "bikes": 0, "lat": 44.941599, "status": "CLOSED", "address": "N Milton Street & Summit Ave", "name": "N Milton Street & Summit Ave"}, "geometry": {"type": "Point", "coordinates": [-93.138832, 44.941599]}}, {"type": "Feature", "properties": {"lon": -93.1517, "stands": 19, "update": "2015-11-06T12:04:33", "bikes": 0, "lat": 44.98115, "status": "CLOSED", "address": "Como Park Conservatory", "name": "Como Park Conservatory"}, "geometry": {"type": "Point", "coordinates": [-93.1517, 44.98115]}}, {"type": "Feature", "properties": {"lon": -93.12661, "stands": 15, "update": "2015-11-03T18:23:22", "bikes": 0, "lat": 44.945736, "status": "CLOSED", "address": "Hague Ave & Dale Street", "name": "Hague Ave & Dale Street"}, "geometry": {"type": "Point", "coordinates": [-93.12661, 44.945736]}}, {"type": "Feature", "properties": {"lon": -93.25276, "stands": 15, "update": "2015-11-03T15:38:39", "bikes": 0, "lat": 44.99882, "status": "CLOSED", "address": "Logan Park", "name": "Logan Park"}, "geometry": {"type": "Point", "coordinates": [-93.25276, 44.99882]}}, {"type": "Feature", "properties": {"lon": -93.146379, "stands": 15, "update": "2015-11-04T12:02:43", "bikes": 0, "lat": 44.955363, "status": "CLOSED", "address": "Lexington Pkwy & University Ave", "name": "Lexington Pkwy & University Ave"}, "geometry": {"type": "Point", "coordinates": [-93.146379, 44.955363]}}, {"type": "Feature", "properties": {"lon": -93.126088, "stands": 15, "update": "2015-11-04T12:04:35", "bikes": 0, "lat": 44.956066, "status": "CLOSED", "address": "Dale Street N & University Ave", "name": "Dale Street N & University Ave"}, "geometry": {"type": "Point", "coordinates": [-93.126088, 44.956066]}}, {"type": "Feature", "properties": {"lon": -93.214864, "stands": 15, "update": "2015-11-03T12:04:29", "bikes": 0, "lat": 44.971012, "status": "CLOSED", "address": "University Ave SE & 29th Ave SE", "name": "University Ave SE & 29th Ave SE"}, "geometry": {"type": "Point", "coordinates": [-93.214864, 44.971012]}}, {"type": "Feature", "properties": {"lon": -93.212892, "stands": 14, "update": "2015-11-04T12:02:02", "bikes": 0, "lat": 44.987934, "status": "CLOSED", "address": "Como Ave. SE & 29th Ave. SE", "name": "Como Ave. SE & 29th Ave. SE"}, "geometry": {"type": "Point", "coordinates": [-93.212892, 44.987934]}}, {"type": "Feature", "properties": {"lon": -93.230469, "stands": 15, "update": "2015-11-04T12:03:43", "bikes": 0, "lat": 44.987517, "status": "CLOSED", "address": "15th Ave. SE & Como Ave. SE", "name": "15th Ave. SE & Como Ave. SE"}, "geometry": {"type": "Point", "coordinates": [-93.230469, 44.987517]}}, {"type": "Feature", "properties": {"lon": -93.143383, "stands": 23, "update": "2015-11-06T12:03:30", "bikes": 0, "lat": 44.981914, "status": "CLOSED", "address": "Lake Como Pavilion", "name": "Lake Como Pavilion"}, "geometry": {"type": "Point", "coordinates": [-93.143383, 44.981914]}}, {"type": "Feature", "properties": {"lon": -93.126261, "stands": 14, "update": "2015-11-03T20:18:08", "bikes": 0, "lat": 44.939779, "status": "CLOSED", "address": "Dale Street & Grand Ave.", "name": "Dale Street & Grand Ave."}, "geometry": {"type": "Point", "coordinates": [-93.126261, 44.939779]}}, {"type": "Feature", "properties": {"lon": -93.156984, "stands": 14, "update": "2015-11-04T12:01:33", "bikes": 0, "lat": 44.953527, "status": "CLOSED", "address": "St. Paul Police Western District", "name": "St. Paul Police Western District"}, "geometry": {"type": "Point", "coordinates": [-93.156984, 44.953527]}}, {"type": "Feature", "properties": {"lon": -93.247114, "stands": 15, "update": "2015-11-02T22:12:16", "bikes": 0, "lat": 45.00994, "status": "CLOSED", "address": "Central Ave. NE & 22nd Ave NE", "name": "Central Ave. NE & 22nd Ave NE"}, "geometry": {"type": "Point", "coordinates": [-93.247114, 45.00994]}}, {"type": "Feature", "properties": {"lon": -93.185029, "stands": 15, "update": "2015-11-04T12:03:09", "bikes": 0, "lat": 44.984527, "status": "CLOSED", "address": "U of M St. Paul Student Center", "name": "U of M St. Paul Student Center"}, "geometry": {"type": "Point", "coordinates": [-93.185029, 44.984527]}}, {"type": "Feature", "properties": {"lon": -93.1873, "stands": 15, "update": "2015-11-02T12:00:26", "bikes": 0, "lat": 44.945367, "status": "CLOSED", "address": "Cleveland Ave N & Laurel Ave", "name": "Cleveland Ave N & Laurel Ave"}, "geometry": {"type": "Point", "coordinates": [-93.1873, 44.945367]}}, {"type": "Feature", "properties": {"lon": -93.2321, "stands": 27, "update": "2015-11-04T12:04:39", "bikes": 0, "lat": 44.97394, "status": "CLOSED", "address": "Washington Ave SE & Union Street SE", "name": "Washington Ave SE & Union Street SE"}, "geometry": {"type": "Point", "coordinates": [-93.2321, 44.97394]}}, {"type": "Feature", "properties": {"lon": -93.10673, "stands": 15, "update": "2015-11-04T12:03:00", "bikes": 0, "lat": 44.949053, "status": "CLOSED", "address": "Minnesota History Center", "name": "Minnesota History Center"}, "geometry": {"type": "Point", "coordinates": [-93.10673, 44.949053]}}, {"type": "Feature", "properties": {"lon": -93.09759, "stands": 15, "update": "2015-11-04T12:05:03", "bikes": 0, "lat": 44.950189, "status": "CLOSED", "address": "10th Street E & Cedar Street", "name": "10th Street E & Cedar Street"}, "geometry": {"type": "Point", "coordinates": [-93.09759, 44.950189]}}, {"type": "Feature", "properties": {"lon": -93.091207, "stands": 14, "update": "2015-11-04T12:01:19", "bikes": 0, "lat": 44.949433, "status": "CLOSED", "address": "7th Place & Jackson Street", "name": "7th Place & Jackson Street"}, "geometry": {"type": "Point", "coordinates": [-93.091207, 44.949433]}}, {"type": "Feature", "properties": {"lon": -93.086584, "stands": 23, "update": "2015-11-04T12:03:51", "bikes": 0, "lat": 44.948399, "status": "CLOSED", "address": "Union Depot", "name": "Union Depot"}, "geometry": {"type": "Point", "coordinates": [-93.086584, 44.948399]}}, {"type": "Feature", "properties": {"lon": -93.088802, "stands": 19, "update": "2015-11-04T12:00:48", "bikes": 0, "lat": 44.946191, "status": "CLOSED", "address": "Kellogg Blvd E & Jackson Street", "name": "Kellogg Blvd E & Jackson Street"}, "geometry": {"type": "Point", "coordinates": [-93.088802, 44.946191]}}, {"type": "Feature", "properties": {"lon": -93.089245, "stands": 15, "update": "2015-11-04T12:02:09", "bikes": 0, "lat": 44.950766, "status": "CLOSED", "address": "7th Street E & Wacouta Street", "name": "7th Street E & Wacouta Street"}, "geometry": {"type": "Point", "coordinates": [-93.089245, 44.950766]}}, {"type": "Feature", "properties": {"lon": -93.0845, "stands": 19, "update": "2015-11-04T12:03:15", "bikes": 0, "lat": 44.94965, "status": "CLOSED", "address": "Broadway Street N & 4th Street E", "name": "Broadway Street N & 4th Street E"}, "geometry": {"type": "Point", "coordinates": [-93.0845, 44.94965]}}, {"type": "Feature", "properties": {"lon": -93.10445, "stands": 15, "update": "2015-11-04T12:04:25", "bikes": 0, "lat": 44.95385, "status": "CLOSED", "address": "Minnesota Dept. of Transportation", "name": "Minnesota Dept. of Transportation"}, "geometry": {"type": "Point", "coordinates": [-93.10445, 44.95385]}}, {"type": "Feature", "properties": {"lon": -93.103863, "stands": 15, "update": "2015-11-04T12:02:06", "bikes": 0, "lat": 44.945173, "status": "CLOSED", "address": "Kellogg Blvd W & Smith Ave", "name": "Kellogg Blvd W & Smith Ave"}, "geometry": {"type": "Point", "coordinates": [-93.103863, 44.945173]}}, {"type": "Feature", "properties": {"lon": -93.08465, "stands": 18, "update": "2015-11-04T12:04:28", "bikes": 0, "lat": 44.956028, "status": "CLOSED", "address": "Lafayette Road & Grove Street", "name": "Lafayette Road & Grove Street"}, "geometry": {"type": "Point", "coordinates": [-93.08465, 44.956028]}}, {"type": "Feature", "properties": {"lon": -93.09231, "stands": 19, "update": "2015-11-04T12:02:56", "bikes": 0, "lat": 44.94683, "status": "CLOSED", "address": "5th Street E & Minnesota Street N", "name": "5th Street E & Minnesota Street N"}, "geometry": {"type": "Point", "coordinates": [-93.09231, 44.94683]}}, {"type": "Feature", "properties": {"lon": -93.096114, "stands": 19, "update": "2015-11-04T12:01:10", "bikes": 0, "lat": 44.945267, "status": "CLOSED", "address": "Landmark Plaza", "name": "Landmark Plaza"}, "geometry": {"type": "Point", "coordinates": [-93.096114, 44.945267]}}, {"type": "Feature", "properties": {"lon": -93.09663, "stands": 19, "update": "2015-11-04T12:02:05", "bikes": 0, "lat": 44.94813, "status": "CLOSED", "address": "Wells Fargo Place", "name": "Wells Fargo Place"}, "geometry": {"type": "Point", "coordinates": [-93.09663, 44.94813]}}, {"type": "Feature", "properties": {"lon": -93.0779, "stands": 15, "update": "2015-11-04T12:04:24", "bikes": 0, "lat": 44.93002, "status": "CLOSED", "address": "State Street & Cesar Chavez Street", "name": "State Street & Cesar Chavez Street"}, "geometry": {"type": "Point", "coordinates": [-93.0779, 44.93002]}}, {"type": "Feature", "properties": {"lon": -93.089031, "stands": 15, "update": "2015-11-04T12:01:14", "bikes": 0, "lat": 44.939047, "status": "CLOSED", "address": "Wabasha Street S & E Fillmore Ave", "name": "Wabasha Street S & E Fillmore Ave"}, "geometry": {"type": "Point", "coordinates": [-93.089031, 44.939047]}}, {"type": "Feature", "properties": {"lon": -93.094532, "stands": 19, "update": "2015-11-05T12:04:17", "bikes": 0, "lat": 44.93768, "status": "CLOSED", "address": "Harriet Island", "name": "Harriet Island"}, "geometry": {"type": "Point", "coordinates": [-93.094532, 44.93768]}}, {"type": "Feature", "properties": {"lon": -93.09227, "stands": 19, "update": "2015-11-04T12:03:37", "bikes": 0, "lat": 44.943846, "status": "CLOSED", "address": "Kellogg Blvd & Wabasha Street", "name": "Kellogg Blvd & Wabasha Street"}, "geometry": {"type": "Point", "coordinates": [-93.09227, 44.943846]}}, {"type": "Feature", "properties": {"lon": -93.084497, "stands": 15, "update": "2015-11-04T12:04:05", "bikes": 0, "lat": 44.934503, "status": "CLOSED", "address": "Wabasha Street S & Cesar Chavez Street", "name": "Wabasha Street S & Cesar Chavez Street"}, "geometry": {"type": "Point", "coordinates": [-93.084497, 44.934503]}}, {"type": "Feature", "properties": {"lon": -93.098712, "stands": 19, "update": "2015-11-05T12:03:25", "bikes": 0, "lat": 44.940902, "status": "CLOSED", "address": "Upper Landing", "name": "Upper Landing"}, "geometry": {"type": "Point", "coordinates": [-93.098712, 44.940902]}}, {"type": "Feature", "properties": {"lon": -93.10624, "stands": 19, "update": "2015-11-04T12:03:01", "bikes": 0, "lat": 44.94144, "status": "CLOSED", "address": "7th Street W & Grand Ave", "name": "7th Street W & Grand Ave"}, "geometry": {"type": "Point", "coordinates": [-93.10624, 44.94144]}}, {"type": "Feature", "properties": {"lon": -93.097836, "stands": 19, "update": "2015-11-04T12:01:57", "bikes": 0, "lat": 44.942846, "status": "CLOSED", "address": "Science Museum of Minnesota", "name": "Science Museum of Minnesota"}, "geometry": {"type": "Point", "coordinates": [-93.097836, 44.942846]}}, {"type": "Feature", "properties": {"lon": -93.1151, "stands": 19, "update": "2015-11-03T18:15:40", "bikes": 0, "lat": 44.9467, "status": "CLOSED", "address": "Selby Ave & Virginia Street", "name": "Selby Ave & Virginia Street"}, "geometry": {"type": "Point", "coordinates": [-93.1151, 44.9467]}}, {"type": "Feature", "properties": {"lon": -93.11665, "stands": 15, "update": "2015-11-04T12:02:32", "bikes": 0, "lat": 44.95562, "status": "CLOSED", "address": "University Ave & Western Ave", "name": "University Ave & Western Ave"}, "geometry": {"type": "Point", "coordinates": [-93.11665, 44.95562]}}, {"type": "Feature", "properties": {"lon": -93.097817, "stands": 17, "update": "2015-11-04T12:02:31", "bikes": 0, "lat": 44.954697, "status": "CLOSED", "address": "E 14th Street & N Robert Street ", "name": "E 14th Street & N Robert Street "}, "geometry": {"type": "Point", "coordinates": [-93.097817, 44.954697]}}, {"type": "Feature", "properties": {"lon": -93.10955, "stands": 15, "update": "2015-11-04T12:02:24", "bikes": 0, "lat": 44.95476, "status": "CLOSED", "address": "N Marion Street & University Ave W", "name": "N Marion Street & University Ave W"}, "geometry": {"type": "Point", "coordinates": [-93.10955, 44.95476]}}, {"type": "Feature", "properties": {"lon": -93.094545, "stands": 19, "update": "2015-11-04T12:04:03", "bikes": 0, "lat": 44.951132, "status": "CLOSED", "address": "N Robert Street & E 10th Street", "name": "N Robert Street & E 10th Street"}, "geometry": {"type": "Point", "coordinates": [-93.094545, 44.951132]}}, {"type": "Feature", "properties": {"lon": -93.277505, "stands": 25, "update": "2015-11-02T12:01:01", "bikes": 0, "lat": 44.977128, "status": "CLOSED", "address": "9th Street N & Hawthorne Ave", "name": "9th Street N & Hawthorne Ave"}, "geometry": {"type": "Point", "coordinates": [-93.277505, 44.977128]}}, {"type": "Feature", "properties": {"lon": -93.256736, "stands": 19, "update": "2015-11-02T16:37:18", "bikes": 0, "lat": 44.977521, "status": "CLOSED", "address": "Chicago Ave & Washington Ave S", "name": "Chicago Ave & Washington Ave S"}, "geometry": {"type": "Point", "coordinates": [-93.256736, 44.977521]}}, {"type": "Feature", "properties": {"lon": -93.269087, "stands": 15, "update": "2015-11-03T16:29:31", "bikes": 0, "lat": 44.988461, "status": "CLOSED", "address": "N 4th Ave & W River Parkway", "name": "N 4th Ave & W River Parkway"}, "geometry": {"type": "Point", "coordinates": [-93.269087, 44.988461]}}, {"type": "Feature", "properties": {"lon": -93.277037, "stands": 15, "update": "2015-11-03T12:03:13", "bikes": 0, "lat": 45.00095, "status": "CLOSED", "address": "Minneapolis Park & Recreation Board", "name": "Minneapolis Park & Recreation Board"},