<<<<<<< HEAD
{"type": "FeatureCollection", "features": [{"geometry": {"coordinates": [-93.256551, 44.984892], "type": "Point"}, "type": "Feature", "properties": {"bikes": 0, "update": "2015-11-04T12:04:04", "name": "100 Main Street SE", "address": "100 Main Street SE", "lon": -93.256551, "status": "CLOSED", "stands": 27, "lat": 44.984892}}, {"geometry": {"coordinates": [-93.223374, 44.957341], "type": "Point"}, "type": "Feature", "properties": {"bikes": 0, "update": "2015-11-02T15:35:25", "name": "25th Street & 33rd Ave S", "address": "25th Street & 33rd Ave S", "lon": -93.223374, "status": "CLOSED", "stands": 15, "lat": 44.957341}}, {"geometry": {"coordinates": [-93.240149, 44.967115], "type": "Point"}, "type": "Feature", "properties": {"bikes": 0, "update": "2015-11-02T17:49:24", "name": "Riverside Ave & 23rd Ave S", "address": "Riverside Ave & 23rd Ave S", "lon": -93.240149, "status": "CLOSED", "stands": 15, "lat": 44.967115}}, {"geometry": {"coordinates": [-93.306269, 44.991412], "type": "Point"}, "type": "Feature", "properties": {"bikes": 0, "update": "2015-11-03T12:02:28", "name": "Plymouth Ave N &  N Oliver Ave", "address": "Plymouth Ave N &  N Oliver Ave", "lon": -93.306269, "status": "CLOSED", "stands": 15, "lat": 44.991412}}, {"geometry": {"coordinates": [-93.27869, 44.97534], "type": "Point"}, "type": "Feature", "properties": {"bikes": 0, "update": "2015-11-02T20:11:46", "name": "11th Street & Hennepin", "address": "11th Street & Hennepin", "lon": -93.27869, "status": "CLOSED", "stands": 23, "lat": 44.97534}}, {"geometry": {"coordinates": [-93.25392, 44.98889], "type": "Point"}, "type": "Feature", "properties": {"bikes": 0, "update": "2015-11-03T12:02:59", "name": "Hennepin & Central Avenue NE", "address": "Hennepin & Central Avenue NE", "lon": -93.25392, "status": "CLOSED", "stands": 15, "lat": 44.98889}}, {"geometry": {"coordinates": [-93.276435, 44.972217], "type": "Point"}, "type": "Feature", "properties": {"bikes": 0, "update": "2015-11-05T12:03:53", "name": "YWCA Downtown", "address": "YWCA Downtown", "lon": -93.276435, "status": "CLOSED", "stands": 23, "lat": 44.972217}}, {"geometry": {"coordinates": [-93.26872, 44.97265], "type": "Point"}, "type": "Feature", "properties": {"bikes": 0, "update": "2015-11-02T17:36:26", "name": "9th Street & 4th Ave", "address": "9th Street & 4th Ave", "lon": -93.26872, "status": "CLOSED", "stands": 19, "lat": 44.97265}}, {"geometry": {"coordinates": [-93.2602, 44.94859], "type": "Point"}, "type": "Feature", "properties": {"bikes": 0, "update": "2015-11-02T16:50:41", "name": "Midtown Exchange", "address": "Midtown Exchange", "lon": -93.2602, "status": "CLOSED", "stands": 19, "lat": 44.94859}}, {"geometry": {"coordinates": [-93.23746, 44.98102], "type": "Point"}, "type": "Feature", "properties": {"bikes": 0, "update": "2015-11-04T12:04:16", "name": "4th Street & 13th Ave SE", "address": "4th Street & 13th Ave SE", "lon": -93.23746, "status": "CLOSED", "stands": 19, "lat": 44.98102}}, {"geometry": {"coordinates": [-93.28305, 44.97391], "type": "Point"}, "type": "Feature", "properties": {"bikes": 0, "update": "2015-11-02T20:06:54", "name": "Hennepin & Laurel Ave", "address": "Hennepin & Laurel Ave", "lon": -93.28305, "status": "CLOSED", "stands": 15, "lat": 44.97391}}, {"geometry": {"coordinates": [-93.272459, 44.986087], "type": "Point"}, "type": "Feature", "properties": {"bikes": 0, "update": "2015-11-03T16:25:14", "name": "North 2nd Street & 4th Ave N", "address": "North 2nd Street & 4th Ave N", "lon": -93.272459, "status": "CLOSED", "stands": 19, "lat": 44.986087}}, {"geometry": {"coordinates": [-93.275861, 44.970041], "type": "Point"}, "type": "Feature", "properties": {"bikes": 0, "update": "2015-11-03T12:02:31", "name": "Mpls Convention Center", "address": "Mpls Convention Center", "lon": -93.275861, "status": "CLOSED", "stands": 19, "lat": 44.970041}}, {"geometry": {"coordinates": [-93.288227319717, 44.949484653766], "type": "Point"}, "type": "Feature", "properties": {"bikes": 0, "update": "2015-11-03T12:00:33", "name": "Lyndale Ave S & W 29th Street", "address": "Lyndale Ave S & W 29th Street", "lon": -93.288227319717, "status": "CLOSED", "stands": 19, "lat": 44.949484653766}}, {"geometry": {"coordinates": [-93.241042, 44.96293], "type": "Point"}, "type": "Feature", "properties": {"bikes": 0, "update": "2015-11-02T17:04:42", "name": "22nd Ave S & Franklin Ave", "address": "22nd Ave S & Franklin Ave", "lon": -93.241042, "status": "CLOSED", "stands": 15, "lat": 44.96293}}, {"geometry": {"coordinates": [-93.24748, 44.97344], "type": "Point"}, "type": "Feature", "properties": {"bikes": 0, "update": "2015-11-02T12:03:06", "name": "Washington & Cedar", "address": "Washington & Cedar", "lon": -93.24748, "status": "CLOSED", "stands": 20, "lat": 44.97344}}, {"geometry": {"coordinates": [-93.28848, 44.96746], "type": "Point"}, "type": "Feature", "properties": {"bikes": 0, "update": "2015-11-04T18:12:24", "name": "Walker Art Center", "address": "Walker Art Center", "lon": -93.28848, "status": "CLOSED", "stands": 17, "lat": 44.96746}}, {"geometry": {"coordinates": [-93.28815, 44.960744], "type": "Point"}, "type": "Feature", "properties": {"bikes": 0, "update": "2015-11-02T18:36:19", "name": "Lyndale Ave S & 22nd Street ", "address": "Lyndale Ave S & 22nd Street ", "lon": -93.28815, "status": "CLOSED", "stands": 19, "lat": 44.960744}}, {"geometry": {"coordinates": [-93.274981, 44.957214], "type": "Point"}, "type": "Feature", "properties": {"bikes": 0, "update": "2015-11-04T18:44:19", "name": "MCAD", "address": "MCAD", "lon": -93.274981, "status": "CLOSED", "stands": 17, "lat": 44.957214}}, {"geometry": {"coordinates": [-93.243754, 44.971359], "type": "Point"}, "type": "Feature", "properties": {"bikes": 0, "update": "2015-11-04T12:01:02", "name": "Social Sciences", "address": "Social Sciences", "lon": -93.243754, "status": "CLOSED", "stands": 28, "lat": 44.971359}}, {"geometry": {"coordinates": [-93.29853, 44.95131], "type": "Point"}, "type": "Feature", "properties": {"bikes": 0, "update": "2015-11-03T12:00:35", "name": "YWCA Uptown", "address": "YWCA Uptown", "lon": -93.29853, "status": "CLOSED", "stands": 19, "lat": 44.95131}}, {"geometry": {"coordinates": [-93.27099, 44.98383], "type": "Point"}, "type": "Feature", "properties": {"bikes": 0, "update": "2015-11-03T17:01:37", "name": "Washington & 2nd Ave N", "address": "Washington & 2nd Ave N", "lon": -93.27099, "status": "CLOSED", "stands": 19, "lat": 44.98383}}, {"geometry": {"coordinates": [-93.28775, 44.95548], "type": "Point"}, "type": "Feature", "properties": {"bikes": 0, "update": "2015-11-02T20:50:58", "name": "26th Street & Lyndale", "address": "26th Street & Lyndale", "lon": -93.28775, "status": "CLOSED", "stands": 15, "lat": 44.95548}}, {"geometry": {"coordinates": [-93.26259, 44.95355], "type": "Point"}, "type": "Feature", "properties": {"bikes": 0, "update": "2015-11-02T16:57:05", "name": "Chicago & 27th Street", "address": "Chicago & 27th Street", "lon": -93.26259, "status": "CLOSED", "stands": 15, "lat": 44.95355}}, {"geometry": {"coordinates": [-93.234762, 44.973378], "type": "Point"}, "type": "Feature", "properties": {"bikes": 0, "update": "2015-11-03T19:21:58", "name": "Coffman Union", "address": "Coffman Union", "lon": -93.234762, "status": "CLOSED", "stands": 3, "lat": 44.973378}}, {"geometry": {"coordinates": [-93.234911, 44.977406], "type": "Point"}, "type": "Feature", "properties": {"bikes": 0, "update": "2015-11-04T12:01:44", "name": "Williamson Hall", "address": "Williamson Hall", "lon": -93.234911, "status": "CLOSED", "stands": 25, "lat": 44.977406}}, {"geometry": {"coordinates": [-93.23206, 44.97209], "type": "Point"}, "type": "Feature", "properties": {"bikes": 0, "update": "2015-11-04T12:02:17", "name": "Mayo Memorial Building", "address": "Mayo Memorial Building", "lon": -93.23206, "status": "CLOSED", "stands": 25, "lat": 44.97209}}, {"geometry": {"coordinates": [-93.24519, 44.97003], "type": "Point"}, "type": "Feature", "properties": {"bikes": 0, "update": "2015-11-02T12:02:53", "name": "4th Street S & 19th Ave", "address": "4th Street S & 19th Ave", "lon": -93.24519, "status": "CLOSED", "stands": 19, "lat": 44.97003}}, {"geometry": {"coordinates": [-93.266925215721, 44.980873610847], "type": "Point"}, "type": "Feature", "properties": {"bikes": 0, "update": "2015-11-03T15:58:52", "name": "Washington & Marquette", "address": "Washington & Marquette", "lon": -93.266925215721, "status": "CLOSED", "stands": 19, "lat": 44.980873610847}}, {"geometry": {"coordinates": [-93.266701, 44.976602], "type": "Point"}, "type": "Feature", "properties": {"bikes": 0, "update": "2015-11-02T12:01:15", "name": "Hennepin County Government Center", "address": "Hennepin County Government Center", "lon": -93.266701, "status": "CLOSED", "stands": 27, "lat": 44.976602}}, {"geometry": {"coordinates": [-93.2583, 44.96251], "type": "Point"}, "type": "Feature", "properties": {"bikes": 0, "update": "2015-11-02T17:18:16", "name": "Franklin & 11th Ave", "address": "Franklin & 11th Ave", "lon": -93.2583, "status": "CLOSED", "stands": 15, "lat": 44.96251}}, {"geometry": {"coordinates": [-93.22697, 44.97202], "type": "Point"}, "type": "Feature", "properties": {"bikes": 0, "update": "2015-11-04T12:03:19", "name": "Oak Street Ramp", "address": "Oak Street Ramp", "lon": -93.22697, "status": "CLOSED", "stands": 23, "lat": 44.97202}}, {"geometry": {"coordinates": [-93.263454437256, 44.980926733576], "type": "Point"}, "type": "Feature", "properties": {"bikes": 0, "update": "2015-11-03T16:03:17", "name": "South 2nd Street & 3rd Ave S", "address": "South 2nd Street & 3rd Ave S", "lon": -93.263454437256, "status": "CLOSED", "stands": 27, "lat": 44.980926733576}}, {"geometry": {"coordinates": [-93.221639, 44.977028], "type": "Point"}, "type": "Feature", "properties": {"bikes": 0, "update": "2015-11-03T12:00:54", "name": "23rd Ave SE & 6th Street SE", "address": "23rd Ave SE & 6th Street SE", "lon": -93.221639, "status": "CLOSED", "stands": 18, "lat": 44.977028}}, {"geometry": {"coordinates": [-93.23189, 44.97913], "type": "Point"}, "type": "Feature", "properties": {"bikes": 0, "update": "2015-11-03T17:25:28", "name": "4th Street & 17th Ave SE", "address": "4th Street & 17th Ave SE", "lon": -93.23189, "status": "CLOSED", "stands": 15, "lat": 44.97913}}, {"geometry": {"coordinates": [-93.284927, 44.9715], "type": "Point"}, "type": "Feature", "properties": {"bikes": 0, "update": "2015-11-02T20:02:54", "name": "Loring Park", "address": "Loring Park", "lon": -93.284927, "status": "CLOSED", "stands": 15, "lat": 44.9715}}, {"geometry": {"coordinates": [-93.269217, 44.980199], "type": "Point"}, "type": "Feature", "properties": {"bikes": 0, "update": "2015-11-03T19:45:55", "name": "Downtown Library", "address": "Downtown Library", "lon": -93.269217, "status": "CLOSED", "stands": 31, "lat": 44.980199}}, {"geometry": {"coordinates": [-93.251136, 44.969225], "type": "Point"}, "type": "Feature", "properties": {"bikes": 0, "update": "2015-11-02T17:57:24", "name": "Currie Park", "address": "Currie Park", "lon": -93.251136, "status": "CLOSED", "stands": 15, "lat": 44.969225}}, {"geometry": {"coordinates": [-93.252269, 44.96285], "type": "Point"}, "type": "Feature", "properties": {"bikes": 0, "update": "2015-11-02T17:05:18", "name": "E Franklin Ave & Bloomington Ave S", "address": "E Franklin Ave & Bloomington Ave S", "lon": -93.252269, "status": "CLOSED", "stands": 15, "lat": 44.96285}}, {"geometry": {"coordinates": [-93.274544, 44.973839], "type": "Point"}, "type": "Feature", "properties": {"bikes": 0, "update": "1970-01-01T01:00:00", "name": "10th Street & Nicollet Mall", "address": "10th Street & Nicollet Mall", "lon": -93.274544, "status": "CLOSED", "stands": 0, "lat": 44.973839}}, {"geometry": {"coordinates": [-93.27405, 44.97265], "type": "Point"}, "type": "Feature", "properties": {"bikes": 0, "update": "2015-11-05T12:03:12", "name": "11th Street & Marquette", "address": "11th Street & Marquette", "lon": -93.27405, "status": "CLOSED", "stands": 19, "lat": 44.97265}}, {"geometry": {"coordinates": [-93.267526, 44.962846], "type": "Point"}, "type": "Feature", "properties": {"bikes": 0, "update": "2015-11-02T17:40:32", "name": "Franklin & Portland", "address": "Franklin & Portland", "lon": -93.267526, "status": "CLOSED", "stands": 15, "lat": 44.962846}}, {"geometry": {"coordinates": [-93.272185, 44.975641], "type": "Point"}, "type": "Feature", "properties": {"bikes": 0, "update": "2015-11-02T20:53:36", "name": "IDS Center", "address": "IDS Center", "lon": -93.272185, "status": "CLOSED", "stands": 23, "lat": 44.975641}}, {"geometry": {"coordinates": [-93.30077, 44.94865], "type": "Point"}, "type": "Feature", "properties": {"bikes": 0, "update": "2015-11-02T21:04:39", "name": "Lake Street & Humboldt", "address": "Lake Street & Humboldt", "lon": -93.30077, "status": "CLOSED", "stands": 19, "lat": 44.94865}}, {"geometry": {"coordinates": [-93.29714298, 44.9554734], "type": "Point"}, "type": "Feature", "properties": {"bikes": 0, "update": "2015-11-02T18:20:24", "name": "26th Street & Hennepin", "address": "26th Street & Hennepin", "lon": -93.29714298, "status": "CLOSED", "stands": 15, "lat": 44.9554734}}, {"geometry": {"coordinates": [-93.230893, 44.962701], "type": "Point"}, "type": "Feature", "properties": {"bikes": 0, "update": "2015-11-02T17:38:37", "name": "Franklin & 28th Ave", "address": "Franklin & 28th Ave", "lon": -93.230893, "status": "CLOSED", "stands": 19, "lat": 44.962701}}, {"geometry": {"coordinates": [-93.25576, 44.98717], "type": "Point"}, "type": "Feature", "properties": {"bikes": 0, "update": "2015-11-03T12:03:42", "name": "University & Bank Street SE", "address": "University & Bank Street SE", "lon": -93.25576, "status": "CLOSED", "stands": 19, "lat": 44.98717}}, {"geometry": {"coordinates": [-93.29303, 44.96146], "type": "Point"}, "type": "Feature", "properties": {"bikes": 0, "update": "2015-11-02T18:28:18", "name": "Dupont Ave & 22nd Street", "address": "Dupont Ave & 22nd Street", "lon": -93.29303, "status": "CLOSED", "stands": 15, "lat": 44.96146}}, {"geometry": {"coordinates": [-93.26599, 44.97974], "type": "Point"}, "type": "Feature", "properties": {"bikes": 0, "update": "2015-11-03T18:51:46", "name": "3rd Street S & 2nd Ave S", "address": "3rd Street S & 2nd Ave S", "lon": -93.26599, "status": "CLOSED", "stands": 27, "lat": 44.97974}}, {"geometry": {"coordinates": [-93.275626, 44.980536], "type": "Point"}, "type": "Feature", "properties": {"bikes": 0, "update": "2015-11-03T12:03:18", "name": "2nd Ave N & N 6th Street", "address": "2nd Ave N & N 6th Street", "lon": -93.275626, "status": "CLOSED", "stands": 23, "lat": 44.980536}}, {"geometry": {"coordinates": [-93.25535, 44.97654], "type": "Point"}, "type": "Feature", "properties": {"bikes": 0, "update": "2015-11-02T16:16:45", "name": "Washington Ave S & 10th Ave S", "address": "Washington Ave S & 10th Ave S", "lon": -93.25535, "status": "CLOSED", "stands": 19, "lat": 44.97654}}, {"geometry": {"coordinates": [-93.27796, 44.95618], "type": "Point"}, "type": "Feature", "properties": {"bikes": 0, "update": "2015-11-02T17:50:41", "name": "Nicollet Ave & W 26th Street", "address": "Nicollet Ave & W 26th Street", "lon": -93.27796, "status": "CLOSED", "stands": 15, "lat": 44.95618}}, {"geometry": {"coordinates": [-93.266684, 44.97497], "type": "Point"}, "type": "Feature", "properties": {"bikes": 0, "update": "2015-11-02T17:27:25", "name": "7th Street & 4th Ave. S", "address": "7th Street & 4th Ave. S", "lon": -93.266684, "status": "CLOSED", "stands": 15, "lat": 44.97497}}, {"geometry": {"coordinates": [-93.279038071632, 44.984125390044], "type": "Point"}, "type": "Feature", "properties": {"bikes": 0, "update": "2015-11-05T12:02:24", "name": "Target Field Station", "address": "Target Field Station", "lon": -93.279038071632, "status": "CLOSED", "stands": 23, "lat": 44.984125390044}}, {"geometry": {"coordinates": [-93.269278, 44.950371], "type": "Point"}, "type": "Feature", "properties": {"bikes": 0, "update": "2015-11-04T17:23:01", "name": "Midtown Greenway & 5th Ave S", "address": "Midtown Greenway & 5th Ave S", "lon": -93.269278, "status": "CLOSED", "stands": 15, "lat": 44.950371}}, {"geometry": {"coordinates": [-93.211264014244, 44.973371428374], "type": "Point"}, "type": "Feature", "properties": {"bikes": 0, "update": "2015-11-05T12:01:45", "name": "Malcolm Ave SE & 5th Street SE", "address": "Malcolm Ave SE & 5th Street SE", "lon": -93.211264014244, "status": "CLOSED", "stands": 23, "lat": 44.973371428374}}, {"geometry": {"coordinates": [-93.22854, 44.9743], "type": "Point"}, "type": "Feature", "properties": {"bikes": 0, "update": "2015-11-04T12:00:53", "name": "McNamara Center", "address": "McNamara Center", "lon": -93.22854, "status": "CLOSED", "stands": 19, "lat": 44.9743}}, {"geometry": {"coordinates": [-93.23818, 44.97685], "type": "Point"}, "type": "Feature", "properties": {"bikes": 0, "update": "2015-11-03T16:36:45", "name": "Elliot Hall", "address": "Elliot Hall", "lon": -93.23818, "status": "CLOSED", "stands": 14, "lat": 44.97685}}, {"geometry": {"coordinates": [-93.26079, 44.970553], "type": "Point"}, "type": "Feature", "properties": {"bikes": 0, "update": "2015-11-02T17:48:39", "name": "Elliot Park", "address": "Elliot Park", "lon": -93.26079, "status": "CLOSED", "stands": 15, "lat": 44.970553}}, {"geometry": {"coordinates": [-93.29736, 44.946687], "type": "Point"}, "type": "Feature", "properties": {"bikes": 0, "update": "2015-11-02T19:23:51", "name": "W 31st Street & Hennepin Ave S", "address": "W 31st Street & Hennepin Ave S", "lon": -93.29736, "status": "CLOSED", "stands": 19, "lat": 44.946687}}, {"geometry": {"coordinates": [-93.277939, 44.96342], "type": "Point"}, "type": "Feature", "properties": {"bikes": 0, "update": "2015-11-02T17:46:41", "name": "Nicollet & Franklin", "address": "Nicollet & Franklin", "lon": -93.277939, "status": "CLOSED", "stands": 23, "lat": 44.96342}}, {"geometry": {"coordinates": [-93.27831, 44.9519], "type": "Point"}, "type": "Feature", "properties": {"bikes": 0, "update": "2015-11-02T17:55:02", "name": "28th Street & Nicollet Ave. S", "address": "28th Street & Nicollet Ave. S", "lon": -93.27831, "status": "CLOSED", "stands": 15, "lat": 44.9519}}, {"geometry": {"coordinates": [-93.304427, 44.981147], "type": "Point"}, "type": "Feature", "properties": {"bikes": 0, "update": "2015-11-03T12:01:17", "name": "Glenwood Ave & N Morgan Ave.", "address": "Glenwood Ave & N Morgan Ave.", "lon": -93.304427, "status": "CLOSED", "stands": 14, "lat": 44.981147}}, {"geometry": {"coordinates": [-93.28542, 44.98052], "type": "Point"}, "type": "Feature", "properties": {"bikes": 0, "update": "2015-11-03T12:03:36", "name": "Minneapolis Farmers Market", "address": "Minneapolis Farmers Market", "lon": -93.28542, "status": "CLOSED", "stands": 15, "lat": 44.98052}}, {"geometry": {"coordinates": [-93.279783725739, 44.989879107463], "type": "Point"}, "type": "Feature", "properties": {"bikes": 0, "update": "2015-11-03T15:59:36", "name": "Washington Ave N & 9th Ave N", "address": "Washington Ave N & 9th Ave N", "lon": -93.279783725739, "status": "CLOSED", "stands": 15, "lat": 44.989879107463}}, {"geometry": {"coordinates": [-93.322066, 44.9798], "type": "Point"}, "type": "Feature", "properties": {"bikes": 0, "update": "2015-11-06T12:02:56", "name": "Wirth Beach", "address": "Wirth Beach", "lon": -93.322066, "status": "CLOSED", "stands": 15, "lat": 44.9798}}, {"geometry": {"coordinates": [-93.290941, 44.999341], "type": "Point"}, "type": "Feature", "properties": {"bikes": 0, "update": "2015-11-03T16:15:20", "name": "Bryant Ave N & West Broadway", "address": "Bryant Ave N & West Broadway", "lon": -93.290941, "status": "CLOSED", "stands": 10, "lat": 44.999341}}, {"geometry": {"coordinates": [-93.297071, 44.99957], "type": "Point"}, "type": "Feature", "properties": {"bikes": 0, "update": "2015-11-03T15:48:24", "name": "Girard Ave N & W Broadway Ave", "address": "Girard Ave N & W Broadway Ave", "lon": -93.297071, "status": "CLOSED", "stands": 15, "lat": 44.99957}}, {"geometry": {"coordinates": [-93.287559, 45.005994], "type": "Point"}, "type": "Feature", "properties": {"bikes": 0, "update": "2015-11-03T12:03:54", "name": "Farview Park", "address": "Farview Park", "lon": -93.287559, "status": "CLOSED", "stands": 15, "lat": 45.005994}}, {"geometry": {"coordinates": [-93.305857, 45.002448], "type": "Point"}, "type": "Feature", "properties": {"bikes": 0, "update": "2015-11-03T15:42:46", "name": "West Broadway & Logan Ave N", "address": "West Broadway & Logan Ave N", "lon": -93.305857, "status": "CLOSED", "stands": 15, "lat": 45.002448}}, {"geometry": {"coordinates": [-93.307798, 45.013318], "type": "Point"}, "type": "Feature", "properties": {"bikes": 0, "update": "2015-11-03T12:01:37", "name": "Lowry Ave N & Penn Ave", "address": "Lowry Ave N & Penn Ave", "lon": -93.307798, "status": "CLOSED", "stands": 15, "lat": 45.013318}}, {"geometry": {"coordinates": [-93.298634, 44.941388], "type": "Point"}, "type": "Feature", "properties": {"bikes": 0, "update": "2015-11-02T18:50:10", "name": "West 34th Street  & Hennepin Ave S", "address": "West 34th Street  & Hennepin Ave S", "lon": -93.298634, "status": "CLOSED", "stands": 19, "lat": 44.941388}}, {"geometry": {"coordinates": [-93.218919, 44.97259], "type": "Point"}, "type": "Feature", "properties": {"bikes": 0, "update": "2015-11-03T12:01:32", "name": "27th Ave SE & University Ave.", "address": "27th Ave SE & University Ave.", "lon": -93.218919, "status": "CLOSED", "stands": 15, "lat": 44.97259}}, {"geometry": {"coordinates": [-93.20525, 44.96616], "type": "Point"}, "type": "Feature", "properties": {"bikes": 0, "update": "2015-11-03T12:03:26", "name": "Curfew Street & Ellis Ave.", "address": "Curfew Street & Ellis Ave.", "lon": -93.20525, "status": "CLOSED", "stands": 15, "lat": 44.96616}}, {"geometry": {"coordinates": [-93.195906, 44.963549], "type": "Point"}, "type": "Feature", "properties": {"bikes": 0, "update": "2015-11-03T16:21:07", "name": "Carleton Street & University Ave ", "address": "Carleton Street & University Ave ", "lon": -93.195906, "status": "CLOSED", "stands": 14, "lat": 44.963549}}, {"geometry": {"coordinates": [-93.17706, 44.95665], "type": "Point"}, "type": "Feature", "properties": {"bikes": 0, "update": "2015-11-04T12:04:18", "name": "Fairview Ave. & University Ave.", "address": "Fairview Ave. & University Ave.", "lon": -93.17706, "status": "CLOSED", "stands": 15, "lat": 44.95665}}, {"geometry": {"coordinates": [-93.165868, 44.964172], "type": "Point"}, "type": "Feature", "properties": {"bikes": 0, "update": "2015-11-04T12:03:44", "name": "Hamline University", "address": "Hamline University", "lon": -93.165868, "status": "CLOSED", "stands": 15, "lat": 44.964172}}, {"geometry": {"coordinates": [-93.16734, 44.956624], "type": "Point"}, "type": "Feature", "properties": {"bikes": 0, "update": "2015-11-04T12:01:44", "name": "Sherburne Ave & Snelling Ave N", "address": "Sherburne Ave & Snelling Ave N", "lon": -93.16734, "status": "CLOSED", "stands": 15, "lat": 44.956624}}, {"geometry": {"coordinates": [-93.24054, 44.94823], "type": "Point"}, "type": "Feature", "properties": {"bikes": 0, "update": "2015-11-04T12:01:34", "name": "Midtown YWCA", "address": "Midtown YWCA", "lon": -93.24054, "status": "CLOSED", "stands": 15, "lat": 44.94823}}, {"geometry": {"coordinates": [-93.22106, 44.94826], "type": "Point"}, "type": "Feature", "properties": {"bikes": 0, "update": "2015-11-02T16:20:50", "name": "East Lake Street & 36th Ave S", "address": "East Lake Street & 36th Ave S", "lon": -93.22106, "status": "CLOSED", "stands": 15, "lat": 44.94826}}, {"geometry": {"coordinates": [-93.136556, 44.956052], "type": "Point"}, "type": "Feature", "properties": {"bikes": 0, "update": "2015-11-04T12:02:17", "name": "N Victoria Street & University Ave ", "address": "N Victoria Street & University Ave ", "lon": -93.136556, "status": "CLOSED", "stands": 15, "lat": 44.956052}}, {"geometry": {"coordinates": [-93.185819, 44.948147], "type": "Point"}, "type": "Feature", "properties": {"bikes": 0, "update": "2015-11-02T15:41:52", "name": "Wilder Street & Marshall Ave", "address": "Wilder Street & Marshall Ave", "lon": -93.185819, "status": "CLOSED", "stands": 15, "lat": 44.948147}}, {"geometry": {"coordinates": [-93.177093, 44.940513], "type": "Point"}, "type": "Feature", "properties": {"bikes": 0, "update": "2015-11-02T12:02:44", "name": "Grand Ave & Fairview Ave", "address": "Grand Ave & Fairview Ave", "lon": -93.177093, "status": "CLOSED", "stands": 15, "lat": 44.940513}}, {"geometry": {"coordinates": [-93.17022, 44.940218], "type": "Point"}, "type": "Feature", "properties": {"bikes": 0, "update": "2015-11-02T15:55:41", "name": "Macalester College", "address": "Macalester College", "lon": -93.17022, "status": "CLOSED", "stands": 15, "lat": 44.940218}}, {"geometry": {"coordinates": [-93.2669, 44.96954], "type": "Point"}, "type": "Feature", "properties": {"bikes": 0, "update": "2015-11-02T17:44:02", "name": "Grant Street & Portland Ave", "address": "Grant Street & Portland Ave", "lon": -93.2669, "status": "CLOSED", "stands": 15, "lat": 44.96954}}, {"geometry": {"coordinates": [-93.24812, 44.983281], "type": "Point"}, "type": "Feature", "properties": {"bikes": 0, "update": "2015-11-06T12:01:22", "name": "6th Ave. SE & University Ave.", "address": "6th Ave. SE & University Ave.", "lon": -93.24812, "status": "CLOSED", "stands": 23, "lat": 44.983281}}, {"geometry": {"coordinates": [-93.317294418812, 44.948467166877], "type": "Point"}, "type": "Feature", "properties": {"bikes": 0, "update": "2015-11-02T19:37:02", "name": "Lake Calhoun Center", "address": "Lake Calhoun Center", "lon": -93.317294418812, "status": "CLOSED", "stands": 27, "lat": 44.948467166877}}, {"geometry": {"coordinates": [-93.26023, 44.978068], "type": "Point"}, "type": "Feature", "properties": {"bikes": 0, "update": "2015-11-02T16:53:04", "name": "Portland Ave. & Washington Ave.", "address": "Portland Ave. & Washington Ave.", "lon": -93.26023, "status": "CLOSED", "stands": 19, "lat": 44.978068}}, {"geometry": {"coordinates": [-93.2675139, 44.9825943], "type": "Point"}, "type": "Feature", "properties": {"bikes": 0, "update": "2015-11-03T17:18:46", "name": "Gateway Park", "address": "Gateway Park", "lon": -93.2675139, "status": "CLOSED", "stands": 15, "lat": 44.9825943}}, {"geometry": {"coordinates": [-93.266854, 44.995348], "type": "Point"}, "type": "Feature", "properties": {"bikes": 0, "update": "2015-11-03T12:03:08", "name": "Marshall Street NE & 8th Ave. NE", "address": "Marshall Street NE & 8th Ave. NE", "lon": -93.266854, "status": "CLOSED", "stands": 15, "lat": 44.995348}}, {"geometry": {"coordinates": [-93.27651, 44.989166], "type": "Point"}, "type": "Feature", "properties": {"bikes": 0, "update": "2015-11-03T20:46:37", "name": "2nd Street N & 8th Ave. N", "address": "2nd Street N & 8th Ave. N", "lon": -93.27651, "status": "CLOSED", "stands": 19, "lat": 44.989166}}, {"geometry": {"coordinates": [-93.26296, 44.999894], "type": "Point"}, "type": "Feature", "properties": {"bikes": 0, "update": "2015-11-03T15:32:37", "name": "University Ave. NE & 12th Ave. NE", "address": "University Ave. NE & 12th Ave. NE", "lon": -93.26296, "status": "CLOSED", "stands": 15, "lat": 44.999894}}, {"geometry": {"coordinates": [-93.283163, 44.948556], "type": "Point"}, "type": "Feature", "properties": {"bikes": 0, "update": "2015-11-03T12:03:10", "name": "Pleasant Ave S &  Lake Street", "address": "Pleasant Ave S &  Lake Street", "lon": -93.283163, "status": "CLOSED", "stands": 15, "lat": 44.948556}}, {"geometry": {"coordinates": [-93.29038, 44.94478], "type": "Point"}, "type": "Feature", "properties": {"bikes": 0, "update": "2015-11-02T18:36:48", "name": "West 32nd Street & Bryant Ave S", "address": "West 32nd Street & Bryant Ave S", "lon": -93.29038, "status": "CLOSED", "stands": 15, "lat": 44.94478}}, {"geometry": {"coordinates": [-93.2912, 44.93775], "type": "Point"}, "type": "Feature", "properties": {"bikes": 0, "update": "2015-11-02T18:43:35", "name": "West 36th Street & Bryant Ave S", "address": "West 36th Street & Bryant Ave S", "lon": -93.2912, "status": "CLOSED", "stands": 15, "lat": 44.93775}}, {"geometry": {"coordinates": [-93.281991, 44.968237], "type": "Point"}, "type": "Feature", "properties": {"bikes": 0, "update": "2015-11-02T19:21:53", "name": "West 15th Street & Willow", "address": "West 15th Street & Willow", "lon": -93.281991, "status": "CLOSED", "stands": 19, "lat": 44.968237}}, {"geometry": {"coordinates": [-93.192758, 44.939936], "type": "Point"}, "type": "Feature", "properties": {"bikes": 0, "update": "2015-11-04T12:01:54", "name": "Grand Ave & Cretin Ave", "address": "Grand Ave & Cretin Ave", "lon": -93.192758, "status": "CLOSED", "stands": 15, "lat": 44.939936}}, {"geometry": {"coordinates": [-93.1529, 44.94016], "type": "Point"}, "type": "Feature", "properties": {"bikes": 0, "update": "2015-11-03T20:24:25", "name": "Kowalski's Market", "address": "Kowalski's Market", "lon": -93.1529, "status": "CLOSED", "stands": 15, "lat": 44.94016}}, {"geometry": {"coordinates": [-93.138832, 44.941599], "type": "Point"}, "type": "Feature", "properties": {"bikes": 0, "update": "2015-11-05T12:04:33", "name": "N Milton Street & Summit Ave", "address": "N Milton Street & Summit Ave", "lon": -93.138832, "status": "CLOSED", "stands": 15, "lat": 44.941599}}, {"geometry": {"coordinates": [-93.1517, 44.98115], "type": "Point"}, "type": "Feature", "properties": {"bikes": 0, "update": "2015-11-06T12:04:33", "name": "Como Park Conservatory", "address": "Como Park Conservatory", "lon": -93.1517, "status": "CLOSED", "stands": 19, "lat": 44.98115}}, {"geometry": {"coordinates": [-93.12661, 44.945736], "type": "Point"}, "type": "Feature", "properties": {"bikes": 0, "update": "2015-11-03T18:23:22", "name": "Hague Ave & Dale Street", "address": "Hague Ave & Dale Street", "lon": -93.12661, "status": "CLOSED", "stands": 15, "lat": 44.945736}}, {"geometry": {"coordinates": [-93.25276, 44.99882], "type": "Point"}, "type": "Feature", "properties": {"bikes": 0, "update": "2015-11-03T15:38:39", "name": "Logan Park", "address": "Logan Park", "lon": -93.25276, "status": "CLOSED", "stands": 15, "lat": 44.99882}}, {"geometry": {"coordinates": [-93.146379, 44.955363], "type": "Point"}, "type": "Feature", "properties": {"bikes": 0, "update": "2015-11-04T12:02:43", "name": "Lexington Pkwy & University Ave", "address": "Lexington Pkwy & University Ave", "lon": -93.146379, "status": "CLOSED", "stands": 15, "lat": 44.955363}}, {"geometry": {"coordinates": [-93.126088, 44.956066], "type": "Point"}, "type": "Feature", "properties": {"bikes": 0, "update": "2015-11-04T12:04:35", "name": "Dale Street N & University Ave", "address": "Dale Street N & University Ave", "lon": -93.126088, "status": "CLOSED", "stands": 15, "lat": 44.956066}}, {"geometry": {"coordinates": [-93.214864, 44.971012], "type": "Point"}, "type": "Feature", "properties": {"bikes": 0, "update": "2015-11-03T12:04:29", "name": "University Ave SE & 29th Ave SE", "address": "University Ave SE & 29th Ave SE", "lon": -93.214864, "status": "CLOSED", "stands": 15, "lat": 44.971012}}, {"geometry": {"coordinates": [-93.212892, 44.987934], "type": "Point"}, "type": "Feature", "properties": {"bikes": 0, "update": "2015-11-04T12:02:02", "name": "Como Ave. SE & 29th Ave. SE", "address": "Como Ave. SE & 29th Ave. SE", "lon": -93.212892, "status": "CLOSED", "stands": 14, "lat": 44.987934}}, {"geometry": {"coordinates": [-93.230469, 44.987517], "type": "Point"}, "type": "Feature", "properties": {"bikes": 0, "update": "2015-11-04T12:03:43", "name": "15th Ave. SE & Como Ave. SE", "address": "15th Ave. SE & Como Ave. SE", "lon": -93.230469, "status": "CLOSED", "stands": 15, "lat": 44.987517}}, {"geometry": {"coordinates": [-93.143383, 44.981914], "type": "Point"}, "type": "Feature", "properties": {"bikes": 0, "update": "2015-11-06T12:03:30", "name": "Lake Como Pavilion", "address": "Lake Como Pavilion", "lon": -93.143383, "status": "CLOSED", "stands": 23, "lat": 44.981914}}, {"geometry": {"coordinates": [-93.126261, 44.939779], "type": "Point"}, "type": "Feature", "properties": {"bikes": 0, "update": "2015-11-03T20:18:08", "name": "Dale Street & Grand Ave.", "address": "Dale Street & Grand Ave.", "lon": -93.126261, "status": "CLOSED", "stands": 14, "lat": 44.939779}}, {"geometry": {"coordinates": [-93.156984, 44.953527], "type": "Point"}, "type": "Feature", "properties": {"bikes": 0, "update": "2015-11-04T12:01:33", "name": "St. Paul Police Western District", "address": "St. Paul Police Western District", "lon": -93.156984, "status": "CLOSED", "stands": 14, "lat": 44.953527}}, {"geometry": {"coordinates": [-93.247114, 45.00994], "type": "Point"}, "type": "Feature", "properties": {"bikes": 0, "update": "2015-11-02T22:12:16", "name": "Central Ave. NE & 22nd Ave NE", "address": "Central Ave. NE & 22nd Ave NE", "lon": -93.247114, "status": "CLOSED", "stands": 15, "lat": 45.00994}}, {"geometry": {"coordinates": [-93.185029, 44.984527], "type": "Point"}, "type": "Feature", "properties": {"bikes": 0, "update": "2015-11-04T12:03:09", "name": "U of M St. Paul Student Center", "address": "U of M St. Paul Student Center", "lon": -93.185029, "status": "CLOSED", "stands": 15, "lat": 44.984527}}, {"geometry": {"coordinates": [-93.1873, 44.945367], "type": "Point"}, "type": "Feature", "properties": {"bikes": 0, "update": "2015-11-02T12:00:26", "name": "Cleveland Ave N & Laurel Ave", "address": "Cleveland Ave N & Laurel Ave", "lon": -93.1873, "status": "CLOSED", "stands": 15, "lat": 44.945367}}, {"geometry": {"coordinates": [-93.2321, 44.97394], "type": "Point"}, "type": "Feature", "properties": {"bikes": 0, "update": "2015-11-04T12:04:39", "name": "Washington Ave SE & Union Street SE", "address": "Washington Ave SE & Union Street SE", "lon": -93.2321, "status": "CLOSED", "stands": 27, "lat": 44.97394}}, {"geometry": {"coordinates": [-93.10673, 44.949053], "type": "Point"}, "type": "Feature", "properties": {"bikes": 0, "update": "2015-11-04T12:03:00", "name": "Minnesota History Center", "address": "Minnesota History Center", "lon": -93.10673, "status": "CLOSED", "stands": 15, "lat": 44.949053}}, {"geometry": {"coordinates": [-93.09759, 44.950189], "type": "Point"}, "type": "Feature", "properties": {"bikes": 0, "update": "2015-11-04T12:05:03", "name": "10th Street E & Cedar Street", "address": "10th Street E & Cedar Street", "lon": -93.09759, "status": "CLOSED", "stands": 15, "lat": 44.950189}}, {"geometry": {"coordinates": [-93.091207, 44.949433], "type": "Point"}, "type": "Feature", "properties": {"bikes": 0, "update": "2015-11-04T12:01:19", "name": "7th Place & Jackson Street", "address": "7th Place & Jackson Street", "lon": -93.091207, "status": "CLOSED", "stands": 14, "lat": 44.949433}}, {"geometry": {"coordinates": [-93.086584, 44.948399], "type": "Point"}, "type": "Feature", "properties": {"bikes": 0, "update": "2015-11-04T12:03:51", "name": "Union Depot", "address": "Union Depot", "lon": -93.086584, "status": "CLOSED", "stands": 23, "lat": 44.948399}}, {"geometry": {"coordinates": [-93.088802, 44.946191], "type": "Point"}, "type": "Feature", "properties": {"bikes": 0, "update": "2015-11-04T12:00:48", "name": "Kellogg Blvd E & Jackson Street", "address": "Kellogg Blvd E & Jackson Street", "lon": -93.088802, "status": "CLOSED", "stands": 19, "lat": 44.946191}}, {"geometry": {"coordinates": [-93.089245, 44.950766], "type": "Point"}, "type": "Feature", "properties": {"bikes": 0, "update": "2015-11-04T12:02:09", "name": "7th Street E & Wacouta Street", "address": "7th Street E & Wacouta Street", "lon": -93.089245, "status": "CLOSED", "stands": 15, "lat": 44.950766}}, {"geometry": {"coordinates": [-93.0845, 44.94965], "type": "Point"}, "type": "Feature", "properties": {"bikes": 0, "update": "2015-11-04T12:03:15", "name": "Broadway Street N & 4th Street E", "address": "Broadway Street N & 4th Street E", "lon": -93.0845, "status": "CLOSED", "stands": 19, "lat": 44.94965}}, {"geometry": {"coordinates": [-93.10445, 44.95385], "type": "Point"}, "type": "Feature", "properties": {"bikes": 0, "update": "2015-11-04T12:04:25", "name": "Minnesota Dept. of Transportation", "address": "Minnesota Dept. of Transportation", "lon": -93.10445, "status": "CLOSED", "stands": 15, "lat": 44.95385}}, {"geometry": {"coordinates": [-93.103863, 44.945173], "type": "Point"}, "type": "Feature", "properties": {"bikes": 0, "update": "2015-11-04T12:02:06", "name": "Kellogg Blvd W & Smith Ave", "address": "Kellogg Blvd W & Smith Ave", "lon": -93.103863, "status": "CLOSED", "stands": 15, "lat": 44.945173}}, {"geometry": {"coordinates": [-93.08465, 44.956028], "type": "Point"}, "type": "Feature", "properties": {"bikes": 0, "update": "2015-11-04T12:04:28", "name": "Lafayette Road & Grove Street", "address": "Lafayette Road & Grove Street", "lon": -93.08465, "status": "CLOSED", "stands": 18, "lat": 44.956028}}, {"geometry": {"coordinates": [-93.09231, 44.94683], "type": "Point"}, "type": "Feature", "properties": {"bikes": 0, "update": "2015-11-04T12:02:56", "name": "5th Street E & Minnesota Street N", "address": "5th Street E & Minnesota Street N", "lon": -93.09231, "status": "CLOSED", "stands": 19, "lat": 44.94683}}, {"geometry": {"coordinates": [-93.096114, 44.945267], "type": "Point"}, "type": "Feature", "properties": {"bikes": 0, "update": "2015-11-04T12:01:10", "name": "Landmark Plaza", "address": "Landmark Plaza", "lon": -93.096114, "status": "CLOSED", "stands": 19, "lat": 44.945267}}, {"geometry": {"coordinates": [-93.09663, 44.94813], "type": "Point"}, "type": "Feature", "properties": {"bikes": 0, "update": "2015-11-04T12:02:05", "name": "Wells Fargo Place", "address": "Wells Fargo Place", "lon": -93.09663, "status": "CLOSED", "stands": 19, "lat": 44.94813}}, {"geometry": {"coordinates": [-93.0779, 44.93002], "type": "Point"}, "type": "Feature", "properties": {"bikes": 0, "update": "2015-11-04T12:04:24", "name": "State Street & Cesar Chavez Street", "address": "State Street & Cesar Chavez Street", "lon": -93.0779, "status": "CLOSED", "stands": 15, "lat": 44.93002}}, {"geometry": {"coordinates": [-93.089031, 44.939047], "type": "Point"}, "type": "Feature", "properties": {"bikes": 0, "update": "2015-11-04T12:01:14", "name": "Wabasha Street S & E Fillmore Ave", "address": "Wabasha Street S & E Fillmore Ave", "lon": -93.089031, "status": "CLOSED", "stands": 15, "lat": 44.939047}}, {"geometry": {"coordinates": [-93.094532, 44.93768], "type": "Point"}, "type": "Feature", "properties": {"bikes": 0, "update": "2015-11-05T12:04:17", "name": "Harriet Island", "address": "Harriet Island", "lon": -93.094532, "status": "CLOSED", "stands": 19, "lat": 44.93768}}, {"geometry": {"coordinates": [-93.09227, 44.943846], "type": "Point"}, "type": "Feature", "properties": {"bikes": 0, "update": "2015-11-04T12:03:37", "name": "Kellogg Blvd & Wabasha Street", "address": "Kellogg Blvd & Wabasha Street", "lon": -93.09227, "status": "CLOSED", "stands": 19, "lat": 44.943846}}, {"geometry": {"coordinates": [-93.084497, 44.934503], "type": "Point"}, "type": "Feature", "properties": {"bikes": 0, "update": "2015-11-04T12:04:05", "name": "Wabasha Street S & Cesar Chavez Street", "address": "Wabasha Street S & Cesar Chavez Street", "lon": -93.084497, "status": "CLOSED", "stands": 15, "lat": 44.934503}}, {"geometry": {"coordinates": [-93.098712, 44.940902], "type": "Point"}, "type": "Feature", "properties": {"bikes": 0, "update": "2015-11-05T12:03:25", "name": "Upper Landing", "address": "Upper Landing", "lon": -93.098712, "status": "CLOSED", "stands": 19, "lat": 44.940902}}, {"geometry": {"coordinates": [-93.10624, 44.94144], "type": "Point"}, "type": "Feature", "properties": {"bikes": 0, "update": "2015-11-04T12:03:01", "name": "7th Street W & Grand Ave", "address": "7th Street W & Grand Ave", "lon": -93.10624, "status": "CLOSED", "stands": 19, "lat": 44.94144}}, {"geometry": {"coordinates": [-93.097836, 44.942846], "type": "Point"}, "type": "Feature", "properties": {"bikes": 0, "update": "2015-11-04T12:01:57", "name": "Science Museum of Minnesota", "address": "Science Museum of Minnesota", "lon": -93.097836, "status": "CLOSED", "stands": 19, "lat": 44.942846}}, {"geometry": {"coordinates": [-93.1151, 44.9467], "type": "Point"}, "type": "Feature", "properties": {"bikes": 0, "update": "2015-11-03T18:15:40", "name": "Selby Ave & Virginia Street", "address": "Selby Ave & Virginia Street", "lon": -93.1151, "status": "CLOSED", "stands": 19, "lat": 44.9467}}, {"geometry": {"coordinates": [-93.11665, 44.95562], "type": "Point"}, "type": "Feature", "properties": {"bikes": 0, "update": "2015-11-04T12:02:32", "name": "University Ave & Western Ave", "address": "University Ave & Western Ave", "lon": -93.11665, "status": "CLOSED", "stands": 15, "lat": 44.95562}}, {"geometry": {"coordinates": [-93.097817, 44.954697], "type": "Point"}, "type": "Feature", "properties": {"bikes": 0, "update": "2015-11-04T12:02:31", "name": "E 14th Street & N Robert Street ", "address": "E 14th Street & N Robert Street ", "lon": -93.097817, "status": "CLOSED", "stands": 17, "lat": 44.954697}}, {"geometry": {"coordinates": [-93.10955, 44.95476], "type": "Point"}, "type": "Feature", "properties": {"bikes": 0, "update": "2015-11-04T12:02:24", "name": "N Marion Street & University Ave W", "address": "N Marion Street & University Ave W", "lon": -93.10955, "status": "CLOSED", "stands": 15, "lat": 44.95476}}, {"geometry": {"coordinates": [-93.094545, 44.951132], "type": "Point"}, "type": "Feature", "properties": {"bikes": 0, "update": "2015-11-04T12:04:03", "name": "N Robert Street & E 10th Street", "address": "N Robert Street & E 10th Street", "lon": -93.094545, "status": "CLOSED", "stands": 19, "lat": 44.951132}}, {"geometry": {"coordinates": [-93.277505, 44.977128], "type": "Point"}, "type": "Feature", "properties": {"bikes": 0, "update": "2015-11-02T12:01:01", "name": "9th Street N & Hawthorne Ave", "address": "9th Street N & Hawthorne Ave", "lon": -93.277505, "status": "CLOSED", "stands": 25, "lat": 44.977128}}, {"geometry": {"coordinates": [-93.256736, 44.977521], "type": "Point"}, "type": "Feature", "properties": {"bikes": 0, "update": "2015-11-02T16:37:18", "name": "Chicago Ave & Washington Ave S", "address": "Chicago Ave & Washington Ave S", "lon": -93.256736, "status": "CLOSED", "stands": 19, "lat": 44.977521}}, {"geometry": {"coordinates": [-93.269087, 44.988461], "type": "Point"}, "type": "Feature", "properties": {"bikes": 0, "update": "2015-11-03T16:29:31", "name": "N 4th Ave & W River Parkway", "address": "N 4th Ave & W River Parkway", "lon": -93.269087, "status": "CLOSED", "stands": 15, "lat": 44.988461}}, {"geometry": {"coordinates": [-93.277037, 45.00095], "type": "Point"}, "type": "Feature", "properties": {"bikes": 0, "update": "2015-11-03T12:03:13", "name": "Minneapolis Park & Recreation Board", "address": "Minneapolis Park & Recreation Board", "lon": -93.277037, "status": "CLOSED", "stands": 15, "lat": 45.00095}}, {"geometry": {"coordinates": [-93.29065, 45.033069], "type": "Point"}, "type": "Feature", "properties": {"bikes": 0, "update": "2015-11-06T12:02:49", "name": "Webber Park", "address": "Webber Park", "lon": -93.29065, "status": "CLOSED", "stands": 15, "lat": 45.033069}}, {"geometry": {"coordinates": [-93.187381, 44.894044], "type": "Point"}, "type": "Feature", "properties": {"bikes": 0, "update": "2015-11-05T12:04:20", "name": "Fort Snelling Visitor Center", "address": "Fort Snelling Visitor Center", "lon": -93.187381, "status": "CLOSED", "stands": 19, "lat": 44.894044}}, {"geometry": {"coordinates": [-93.213587, 44.916906], "type": "Point"}, "type": "Feature", "properties": {"bikes": 0, "update": "2015-11-02T16:12:46", "name": "Minnehaha Park", "address": "Minnehaha Park", "lon": -93.213587, "status": "CLOSED", "stands": 27, "lat": 44.916906}}, {"geometry": {"coordinates": [-93.30713, 44.92936], "type": "Point"}, "type": "Feature", "properties": {"bikes": 0, "update": "2015-11-05T12:03:34", "name": "Lake Harriet Bandshell", "address": "Lake Harriet Bandshell", "lon": -93.30713, "status": "CLOSED", "stands": 25, "lat": 44.92936}}, {"geometry": {"coordinates": [-93.242761, 44.915957], "type": "Point"}, "type": "Feature", "properties": {"bikes": 0, "update": "2015-11-06T12:03:51", "name": "Lake Nokomis", "address": "Lake Nokomis", "lon": -93.242761, "status": "CLOSED", "stands": 23, "lat": 44.915957}}, {"geometry": {"coordinates": [-93.2125, 44.9342], "type": "Point"}, "type": "Feature", "properties": {"bikes": 0, "update": "2015-11-02T15:40:24", "name": "E 38th Street & 42nd Ave S", "address": "E 38th Street & 42nd Ave S", "lon": -93.2125, "status": "CLOSED", "stands": 15, "lat": 44.9342}}, {"geometry": {"coordinates": [-93.320212, 44.937817], "type": "Point"}, "type": "Feature", "properties": {"bikes": 0, "update": "2015-11-05T12:00:59", "name": "W 36th Street & W Calhoun Parkway", "address": "W 36th Street & W Calhoun Parkway", "lon": -93.320212, "status": "CLOSED", "stands": 19, "lat": 44.937817}}, {"geometry": {"coordinates": [-93.206201, 44.948452], "type": "Point"}, "type": "Feature", "properties": {"bikes": 0, "update": "2015-11-02T15:48:18", "name": "Lake Street & West River Parkway", "address": "Lake Street & West River Parkway", "lon": -93.206201, "status": "CLOSED", "stands": 15, "lat": 44.948452}}, {"geometry": {"coordinates": [-93.293129, 44.949699], "type": "Point"}, "type": "Feature", "properties": {"bikes": 0, "update": "2015-11-02T18:14:58", "name": "Dupont Ave S & W 29th Street", "address": "Dupont Ave S & W 29th Street", "lon": -93.293129, "status": "CLOSED", "stands": 15, "lat": 44.949699}}, {"geometry": {"coordinates": [-93.314597, 44.92515], "type": "Point"}, "type": "Feature", "properties": {"bikes": 0, "update": "2015-11-05T12:05:16", "name": "Upton Ave S & Sheridan Ave S", "address": "Upton Ave S & Sheridan Ave S", "lon": -93.314597, "status": "CLOSED", "stands": 19, "lat": 44.92515}}, {"geometry": {"coordinates": [-93.233092, 44.947329], "type": "Point"}, "type": "Feature", "properties": {"bikes": 0, "update": "2015-11-02T16:50:22", "name": "27th Ave S & Minnehaha Ave", "address": "27th Ave S & Minnehaha Ave", "lon": -93.233092, "status": "CLOSED", "stands": 15, "lat": 44.947329}}, {"geometry": {"coordinates": [-93.198283, 44.905043], "type": "Point"}, "type": "Feature", "properties": {"bikes": 0, "update": "2015-11-05T12:05:02", "name": "Coldwater Spring", "address": "Coldwater Spring", "lon": -93.198283, "status": "CLOSED", "stands": 15, "lat": 44.905043}}, {"geometry": {"coordinates": [-93.21953, 44.920466], "type": "Point"}, "type": "Feature", "properties": {"bikes": 0, "update": "2015-11-02T16:19:56", "name": "46th Street Light Rail Station", "address": "46th Street Light Rail Station", "lon": -93.21953, "status": "CLOSED", "stands": 19, "lat": 44.920466}}, {"geometry": {"coordinates": [-93.229338, 44.93434], "type": "Point"}, "type": "Feature", "properties": {"bikes": 0, "update": "2015-11-02T15:27:48", "name": "38th Street Light Rail Station", "address": "38th Street Light Rail Station", "lon": -93.229338, "status": "CLOSED", "stands": 15, "lat": 44.93434}}, {"geometry": {"coordinates": [-93.187264, 44.919593], "type": "Point"}, "type": "Feature", "properties": {"bikes": 0, "update": "2015-11-02T16:05:44", "name": "Cleveland Ave S & Highland Parkway", "address": "Cleveland Ave S & Highland Parkway", "lon": -93.187264, "status": "CLOSED", "stands": 15, "lat": 44.919593}}, {"geometry": {"coordinates": [-93.252189, 44.97673], "type": "Point"}, "type": "Feature", "properties": {"bikes": 0, "update": "2015-11-02T16:04:48", "name": "11th Ave S & S 2nd Street", "address": "11th Ave S & S 2nd Street", "lon": -93.252189, "status": "CLOSED", "stands": 3, "lat": 44.97673}}, {"geometry": {"coordinates": [-93.268633, 44.998613], "type": "Point"}, "type": "Feature", "properties": {"bikes": 0, "update": "2015-11-03T15:28:19", "name": "Broadway & Marshall Street NE", "address": "Broadway & Marshall Street NE", "lon": -93.268633, "status": "CLOSED", "stands": 15, "lat": 44.998613}}, {"geometry": {"coordinates": [-93.271571, 45.006229], "type": "Point"}, "type": "Feature", "properties": {"bikes": 0, "update": "2015-11-03T12:03:59", "name": "Marshall Street NE & 18th Ave NE", "address": "Marshall Street NE & 18th Ave NE", "lon": -93.271571, "status": "CLOSED", "stands": 15, "lat": 45.006229}}, {"geometry": {"coordinates": [-93.270256, 44.99254], "type": "Point"}, "type": "Feature", "properties": {"bikes": 0, "update": "2015-11-03T12:01:31", "name": "Boom Island Park", "address": "Boom Island Park", "lon": -93.270256, "status": "CLOSED", "stands": 15, "lat": 44.99254}}, {"geometry": {"coordinates": [-93.197997, 44.940288], "type": "Point"}, "type": "Feature", "properties": {"bikes": 0, "update": "2015-11-03T20:34:25", "name": "Mississippi River Blvd & Summit Ave", "address": "Mississippi River Blvd & Summit Ave", "lon": -93.197997, "status": "CLOSED", "stands": 15, "lat": 44.940288}}, {"geometry": {"coordinates": [-93.191837, 44.943017], "type": "Point"}, "type": "Feature", "properties": {"bikes": 0, "update": "2015-11-02T15:47:39", "name": "University of St. Thomas", "address": "University of St. Thomas", "lon": -93.191837, "status": "CLOSED", "stands": 19, "lat": 44.943017}}, {"geometry": {"coordinates": [-93.18237, 44.890527], "type": "Point"}, "type": "Feature", "properties": {"bikes": 0, "update": "2015-11-05T12:01:43", "name": "Fort Snelling State Park", "address": "Fort Snelling State Park", "lon": -93.18237, "status": "CLOSED", "stands": 19, "lat": 44.890527}}, {"geometry": {"coordinates": [-93.27166, 45.01312], "type": "Point"}, "type": "Feature", "properties": {"bikes": 0, "update": "2015-11-03T12:02:07", "name": "Marshall Street NE & Lowry Ave", "address": "Marshall Street NE & Lowry Ave", "lon": -93.27166, "status": "CLOSED", "stands": 15, "lat": 45.01312}}, {"geometry": {"coordinates": [-93.278133, 44.96995], "type": "Point"}, "type": "Feature", "properties": {"bikes": 0, "update": "2015-11-05T12:03:50", "name": "Nicollet Mall & Grant Street", "address": "Nicollet Mall & Grant Street", "lon": -93.278133, "status": "CLOSED", "stands": 15, "lat": 44.96995}}, {"geometry": {"coordinates": [-93.305209, 44.9485], "type": "Point"}, "type": "Feature", "properties": {"bikes": 0, "update": "2015-11-02T20:20:28", "name": "Lake Street & Knox Ave S", "address": "Lake Street & Knox Ave S", "lon": -93.305209, "status": "CLOSED", "stands": 33, "lat": 44.9485}}, {"geometry": {"coordinates": [-93.26145, 44.985388], "type": "Point"}, "type": "Feature", "properties": {"bikes": 0, "update": "2015-11-03T12:02:55", "name": "Nicollet Island", "address": "Nicollet Island", "lon": -93.26145, "status": "CLOSED", "stands": 15, "lat": 44.985388}}, {"geometry": {"coordinates": [-93.270503282547, 44.978665179559], "type": "Point"}, "type": "Feature", "properties": {"bikes": 0, "update": "2015-11-03T18:09:34", "name": "5th Street & Nicollet Mall", "address": "5th Street & Nicollet Mall", "lon": -93.270503282547, "status": "CLOSED", "stands": 19, "lat": 44.978665179559}}, {"geometry": {"coordinates": [-93.270649, 44.974795], "type": "Point"}, "type": "Feature", "properties": {"bikes": 0, "update": "2015-11-03T12:03:29", "name": "8th Street & 2nd Ave S", "address": "8th Street & 2nd Ave S", "lon": -93.270649, "status": "CLOSED", "stands": 19, "lat": 44.974795}}, {"geometry": {"coordinates": [-93.252102, 44.985465], "type": "Point"}, "type": "Feature", "properties": {"bikes": 0, "update": "2015-11-03T12:04:08", "name": "SE 3rd Ave & University Ave SE", "address": "SE 3rd Ave & University Ave SE", "lon": -93.252102, "status": "CLOSED", "stands": 15, "lat": 44.985465}}, {"geometry": {"coordinates": [-93.249653, 44.983321], "type": "Point"}, "type": "Feature", "properties": {"bikes": 0, "update": "2015-11-03T12:03:05", "name": "2nd Street SE & 5th Ave SE", "address": "2nd Street SE & 5th Ave SE", "lon": -93.249653, "status": "CLOSED", "stands": 15, "lat": 44.983321}}, {"geometry": {"coordinates": [-93.240282, 44.980831], "type": "Point"}, "type": "Feature", "properties": {"bikes": 0, "update": "2015-11-04T12:03:03", "name": "Sanford Hall", "address": "Sanford Hall", "lon": -93.240282, "status": "CLOSED", "stands": 23, "lat": 44.980831}}, {"geometry": {"coordinates": [-93.221021, 44.972128], "type": "Point"}, "type": "Feature", "properties": {"bikes": 0, "update": "2015-11-05T12:02:07", "name": "Delaware St SE & 26th Ave SE", "address": "Delaware St SE & 26th Ave SE", "lon": -93.221021, "status": "CLOSED", "stands": 19, "lat": 44.972128}}, {"geometry": {"coordinates": [-93.237254, 44.973607], "type": "Point"}, "type": "Feature", "properties": {"bikes": 0, "update": "2015-11-05T12:04:15", "name": "Weisman Art Museum", "address": "Weisman Art Museum", "lon": -93.237254, "status": "CLOSED", "stands": 18, "lat": 44.973607}}, {"geometry": {"coordinates": [-93.268604, 44.983902], "type": "Point"}, "type": "Feature", "properties": {"bikes": 0, "update": "2015-11-03T18:43:18", "name": "1st Ave N & 2nd Street N", "address": "1st Ave N & 2nd Street N", "lon": -93.268604, "status": "CLOSED", "stands": 19, "lat": 44.983902}}, {"geometry": {"coordinates": [-93.279854, 44.987996], "type": "Point"}, "type": "Feature", "properties": {"bikes": 0, "update": "2015-11-03T15:53:41", "name": "3rd Street N & 8th Ave N", "address": "3rd Street N & 8th Ave N", "lon": -93.279854, "status": "CLOSED", "stands": 19, "lat": 44.987996}}, {"geometry": {"coordinates": [-93.277234, 44.98446], "type": "Point"}, "type": "Feature", "properties": {"bikes": 0, "update": "2015-11-03T15:39:25", "name": "5th Ave N & 4th Street N", "address": "5th Ave N & 4th Street N", "lon": -93.277234, "status": "CLOSED", "stands": 19, "lat": 44.98446}}, {"geometry": {"coordinates": [-93.274031, 44.985406], "type": "Point"}, "type": "Feature", "properties": {"bikes": 0, "update": "2015-11-03T15:42:20", "name": "Washington Ave N & Cedar Lake Trail", "address": "Washington Ave N & Cedar Lake Trail", "lon": -93.274031, "status": "CLOSED", "stands": 19, "lat": 44.985406}}, {"geometry": {"coordinates": [-93.269195, 44.981895], "type": "Point"}, "type": "Feature", "properties": {"bikes": 0, "update": "2015-10-28T15:26:35", "name": "Hennepin Ave & S Washington Ave", "address": "Hennepin Ave & S Washington Ave", "lon": -93.269195, "status": "OPEN", "stands": 23, "lat": 44.981895}}, {"geometry": {"coordinates": [-93.286294, 44.966145], "type": "Point"}, "type": "Feature", "properties": {"bikes": 0, "update": "2015-11-02T19:09:19", "name": "Groveland Ave & Clifton Place", "address": "Groveland Ave & Clifton Place", "lon": -93.286294, "status": "CLOSED", "stands": 18, "lat": 44.966145}}, {"geometry": {"coordinates": [-93.254295, 44.990328], "type": "Point"}, "type": "Feature", "properties": {"bikes": 0, "update": "2015-11-03T17:08:39", "name": "5th Street NE & 1st Ave NE", "address": "5th Street NE & 1st Ave NE", "lon": -93.254295, "status": "CLOSED", "stands": 15, "lat": 44.990328}}, {"geometry": {"coordinates": [-93.255558, 44.991821], "type": "Point"}, "type": "Feature", "properties": {"bikes": 0, "update": "2015-11-02T23:27:35", "name": "5th Street NE & 3rd Ave NE", "address": "5th Street NE & 3rd Ave NE", "lon": -93.255558, "status": "CLOSED", "stands": 14, "lat": 44.991821}}, {"geometry": {"coordinates": [-93.264573, 45.01304], "type": "Point"}, "type": "Feature", "properties": {"bikes": 0, "update": "2015-11-03T12:00:49", "name": "3rd Street NE & Lowry Ave NE", "address": "3rd Street NE & Lowry Ave NE", "lon": -93.264573, "status": "CLOSED", "stands": 15, "lat": 45.01304}}, {"geometry": {"coordinates": [-93.268598, 45.010119], "type": "Point"}, "type": "Feature", "properties": {"bikes": 0, "update": "2015-11-03T12:01:01", "name": "22nd Ave NE & California Street NE", "address": "22nd Ave NE & California Street NE", "lon": -93.268598, "status": "CLOSED", "stands": 15, "lat": 45.010119}}, {"geometry": {"coordinates": [-93.19782, 44.892483], "type": "Point"}, "type": "Feature", "properties": {"bikes": 0, "update": "2015-11-06T16:04:11", "name": "Fort Snelling LRT Station", "address": "Fort Snelling LRT Station", "lon": -93.19782, "status": "CLOSED", "stands": 15, "lat": 44.892483}}, {"geometry": {"coordinates": [-93.266553, 45.006321], "type": "Point"}, "type": "Feature", "properties": {"bikes": 0, "update": "2015-11-03T12:05:17", "name": "18th Ave Trail & 2nd Street NE", "address": "18th Ave Trail & 2nd Street NE", "lon": -93.266553, "status": "CLOSED", "stands": 15, "lat": 45.006321}}, {"geometry": {"coordinates": [-93.220066, 44.953566], "type": "Point"}, "type": "Feature", "properties": {"bikes": 0, "update": "2015-11-04T00:00:56", "name": "Nice Ride World Headquarters", "address": "Nice Ride World Headquarters", "lon": -93.220066, "status": "CLOSED", "stands": 3, "lat": 44.953566}}]}
=======
{"type": "FeatureCollection", "features": [{"type": "Feature", "geometry": {"type": "Point", "coordinates": [-93.256551, 44.984892]}, "properties": {"bikes": 0, "stands": 27, "name": "100 Main Street SE", "status": "CLOSED", "lon": -93.256551, "lat": 44.984892, "update": "2015-11-04T12:04:04", "address": "100 Main Street SE"}}, {"type": "Feature", "geometry": {"type": "Point", "coordinates": [-93.223374, 44.957341]}, "properties": {"bikes": 0, "stands": 15, "name": "25th Street & 33rd Ave S", "status": "CLOSED", "lon": -93.223374, "lat": 44.957341, "update": "2015-11-02T15:35:25", "address": "25th Street & 33rd Ave S"}}, {"type": "Feature", "geometry": {"type": "Point", "coordinates": [-93.240149, 44.967115]}, "properties": {"bikes": 0, "stands": 15, "name": "Riverside Ave & 23rd Ave S", "status": "CLOSED", "lon": -93.240149, "lat": 44.967115, "update": "2015-11-02T17:49:24", "address": "Riverside Ave & 23rd Ave S"}}, {"type": "Feature", "geometry": {"type": "Point", "coordinates": [-93.306269, 44.991412]}, "properties": {"bikes": 0, "stands": 15, "name": "Plymouth Ave N &  N Oliver Ave", "status": "CLOSED", "lon": -93.306269, "lat": 44.991412, "update": "2015-11-03T12:02:28", "address": "Plymouth Ave N &  N Oliver Ave"}}, {"type": "Feature", "geometry": {"type": "Point", "coordinates": [-93.27869, 44.97534]}, "properties": {"bikes": 0, "stands": 23, "name": "11th Street & Hennepin", "status": "CLOSED", "lon": -93.27869, "lat": 44.97534, "update": "2015-11-02T20:11:46", "address": "11th Street & Hennepin"}}, {"type": "Feature", "geometry": {"type": "Point", "coordinates": [-93.25392, 44.98889]}, "properties": {"bikes": 0, "stands": 15, "name": "Hennepin & Central Avenue NE", "status": "CLOSED", "lon": -93.25392, "lat": 44.98889, "update": "2015-11-03T12:02:59", "address": "Hennepin & Central Avenue NE"}}, {"type": "Feature", "geometry": {"type": "Point", "coordinates": [-93.276435, 44.972217]}, "properties": {"bikes": 0, "stands": 23, "name": "YWCA Downtown", "status": "CLOSED", "lon": -93.276435, "lat": 44.972217, "update": "2015-11-05T12:03:53", "address": "YWCA Downtown"}}, {"type": "Feature", "geometry": {"type": "Point", "coordinates": [-93.26872, 44.97265]}, "properties": {"bikes": 0, "stands": 19, "name": "9th Street & 4th Ave", "status": "CLOSED", "lon": -93.26872, "lat": 44.97265, "update": "2015-11-02T17:36:26", "address": "9th Street & 4th Ave"}}, {"type": "Feature", "geometry": {"type": "Point", "coordinates": [-93.2602, 44.94859]}, "properties": {"bikes": 0, "stands": 19, "name": "Midtown Exchange", "status": "CLOSED", "lon": -93.2602, "lat": 44.94859, "update": "2015-11-02T16:50:41", "address": "Midtown Exchange"}}, {"type": "Feature", "geometry": {"type": "Point", "coordinates": [-93.23746, 44.98102]}, "properties": {"bikes": 0, "stands": 19, "name": "4th Street & 13th Ave SE", "status": "CLOSED", "lon": -93.23746, "lat": 44.98102, "update": "2015-11-04T12:04:16", "address": "4th Street & 13th Ave SE"}}, {"type": "Feature", "geometry": {"type": "Point", "coordinates": [-93.28305, 44.97391]}, "properties": {"bikes": 0, "stands": 15, "name": "Hennepin & Laurel Ave", "status": "CLOSED", "lon": -93.28305, "lat": 44.97391, "update": "2015-11-02T20:06:54", "address": "Hennepin & Laurel Ave"}}, {"type": "Feature", "geometry": {"type": "Point", "coordinates": [-93.272459, 44.986087]}, "properties": {"bikes": 0, "stands": 19, "name": "North 2nd Street & 4th Ave N", "status": "CLOSED", "lon": -93.272459, "lat": 44.986087, "update": "2015-11-03T16:25:14", "address": "North 2nd Street & 4th Ave N"}}, {"type": "Feature", "geometry": {"type": "Point", "coordinates": [-93.275861, 44.970041]}, "properties": {"bikes": 0, "stands": 19, "name": "Mpls Convention Center", "status": "CLOSED", "lon": -93.275861, "lat": 44.970041, "update": "2015-11-03T12:02:31", "address": "Mpls Convention Center"}}, {"type": "Feature", "geometry": {"type": "Point", "coordinates": [-93.288227319717, 44.949484653766]}, "properties": {"bikes": 0, "stands": 19, "name": "Lyndale Ave S & W 29th Street", "status": "CLOSED", "lon": -93.288227319717, "lat": 44.949484653766, "update": "2015-11-03T12:00:33", "address": "Lyndale Ave S & W 29th Street"}}, {"type": "Feature", "geometry": {"type": "Point", "coordinates": [-93.241042, 44.96293]}, "properties": {"bikes": 0, "stands": 15, "name": "22nd Ave S & Franklin Ave", "status": "CLOSED", "lon": -93.241042, "lat": 44.96293, "update": "2015-11-02T17:04:42", "address": "22nd Ave S & Franklin Ave"}}, {"type": "Feature", "geometry": {"type": "Point", "coordinates": [-93.24748, 44.97344]}, "properties": {"bikes": 0, "stands": 20, "name": "Washington & Cedar", "status": "CLOSED", "lon": -93.24748, "lat": 44.97344, "update": "2015-11-02T12:03:06", "address": "Washington & Cedar"}}, {"type": "Feature", "geometry": {"type": "Point", "coordinates": [-93.28848, 44.96746]}, "properties": {"bikes": 0, "stands": 17, "name": "Walker Art Center", "status": "CLOSED", "lon": -93.28848, "lat": 44.96746, "update": "2015-11-04T18:12:24", "address": "Walker Art Center"}}, {"type": "Feature", "geometry": {"type": "Point", "coordinates": [-93.28815, 44.960744]}, "properties": {"bikes": 0, "stands": 19, "name": "Lyndale Ave S & 22nd Street ", "status": "CLOSED", "lon": -93.28815, "lat": 44.960744, "update": "2015-11-02T18:36:19", "address": "Lyndale Ave S & 22nd Street "}}, {"type": "Feature", "geometry": {"type": "Point", "coordinates": [-93.274981, 44.957214]}, "properties": {"bikes": 0, "stands": 17, "name": "MCAD", "status": "CLOSED", "lon": -93.274981, "lat": 44.957214, "update": "2015-11-04T18:44:19", "address": "MCAD"}}, {"type": "Feature", "geometry": {"type": "Point", "coordinates": [-93.243754, 44.971359]}, "properties": {"bikes": 0, "stands": 28, "name": "Social Sciences", "status": "CLOSED", "lon": -93.243754, "lat": 44.971359, "update": "2015-11-04T12:01:02", "address": "Social Sciences"}}, {"type": "Feature", "geometry": {"type": "Point", "coordinates": [-93.29853, 44.95131]}, "properties": {"bikes": 0, "stands": 19, "name": "YWCA Uptown", "status": "CLOSED", "lon": -93.29853, "lat": 44.95131, "update": "2015-11-03T12:00:35", "address": "YWCA Uptown"}}, {"type": "Feature", "geometry": {"type": "Point", "coordinates": [-93.27099, 44.98383]}, "properties": {"bikes": 0, "stands": 19, "name": "Washington & 2nd Ave N", "status": "CLOSED", "lon": -93.27099, "lat": 44.98383, "update": "2015-11-03T17:01:37", "address": "Washington & 2nd Ave N"}}, {"type": "Feature", "geometry": {"type": "Point", "coordinates": [-93.28775, 44.95548]}, "properties": {"bikes": 0, "stands": 15, "name": "26th Street & Lyndale", "status": "CLOSED", "lon": -93.28775, "lat": 44.95548, "update": "2015-11-02T20:50:58", "address": "26th Street & Lyndale"}}, {"type": "Feature", "geometry": {"type": "Point", "coordinates": [-93.26259, 44.95355]}, "properties": {"bikes": 0, "stands": 15, "name": "Chicago & 27th Street", "status": "CLOSED", "lon": -93.26259, "lat": 44.95355, "update": "2015-11-02T16:57:05", "address": "Chicago & 27th Street"}}, {"type": "Feature", "geometry": {"type": "Point", "coordinates": [-93.234762, 44.973378]}, "properties": {"bikes": 0, "stands": 3, "name": "Coffman Union", "status": "CLOSED", "lon": -93.234762, "lat": 44.973378, "update": "2015-11-03T19:21:58", "address": "Coffman Union"}}, {"type": "Feature", "geometry": {"type": "Point", "coordinates": [-93.234911, 44.977406]}, "properties": {"bikes": 0, "stands": 25, "name": "Williamson Hall", "status": "CLOSED", "lon": -93.234911, "lat": 44.977406, "update": "2015-11-04T12:01:44", "address": "Williamson Hall"}}, {"type": "Feature", "geometry": {"type": "Point", "coordinates": [-93.23206, 44.97209]}, "properties": {"bikes": 0, "stands": 25, "name": "Mayo Memorial Building", "status": "CLOSED", "lon": -93.23206, "lat": 44.97209, "update": "2015-11-04T12:02:17", "address": "Mayo Memorial Building"}}, {"type": "Feature", "geometry": {"type": "Point", "coordinates": [-93.24519, 44.97003]}, "properties": {"bikes": 0, "stands": 19, "name": "4th Street S & 19th Ave", "status": "CLOSED", "lon": -93.24519, "lat": 44.97003, "update": "2015-11-02T12:02:53", "address": "4th Street S & 19th Ave"}}, {"type": "Feature", "geometry": {"type": "Point", "coordinates": [-93.266925215721, 44.980873610847]}, "properties": {"bikes": 0, "stands": 19, "name": "Washington & Marquette", "status": "CLOSED", "lon": -93.266925215721, "lat": 44.980873610847, "update": "2015-11-03T15:58:52", "address": "Washington & Marquette"}}, {"type": "Feature", "geometry": {"type": "Point", "coordinates": [-93.266701, 44.976602]}, "properties": {"bikes": 0, "stands": 27, "name": "Hennepin County Government Center", "status": "CLOSED", "lon": -93.266701, "lat": 44.976602, "update": "2015-11-02T12:01:15", "address": "Hennepin County Government Center"}}, {"type": "Feature", "geometry": {"type": "Point", "coordinates": [-93.2583, 44.96251]}, "properties": {"bikes": 0, "stands": 15, "name": "Franklin & 11th Ave", "status": "CLOSED", "lon": -93.2583, "lat": 44.96251, "update": "2015-11-02T17:18:16", "address": "Franklin & 11th Ave"}}, {"type": "Feature", "geometry": {"type": "Point", "coordinates": [-93.22697, 44.97202]}, "properties": {"bikes": 0, "stands": 23, "name": "Oak Street Ramp", "status": "CLOSED", "lon": -93.22697, "lat": 44.97202, "update": "2015-11-04T12:03:19", "address": "Oak Street Ramp"}}, {"type": "Feature", "geometry": {"type": "Point", "coordinates": [-93.263454437256, 44.980926733576]}, "properties": {"bikes": 0, "stands": 27, "name": "South 2nd Street & 3rd Ave S", "status": "CLOSED", "lon": -93.263454437256, "lat": 44.980926733576, "update": "2015-11-03T16:03:17", "address": "South 2nd Street & 3rd Ave S"}}, {"type": "Feature", "geometry": {"type": "Point", "coordinates": [-93.221639, 44.977028]}, "properties": {"bikes": 0, "stands": 18, "name": "23rd Ave SE & 6th Street SE", "status": "CLOSED", "lon": -93.221639, "lat": 44.977028, "update": "2015-11-03T12:00:54", "address": "23rd Ave SE & 6th Street SE"}}, {"type": "Feature", "geometry": {"type": "Point", "coordinates": [-93.23189, 44.97913]}, "properties": {"bikes": 0, "stands": 15, "name": "4th Street & 17th Ave SE", "status": "CLOSED", "lon": -93.23189, "lat": 44.97913, "update": "2015-11-03T17:25:28", "address": "4th Street & 17th Ave SE"}}, {"type": "Feature", "geometry": {"type": "Point", "coordinates": [-93.284927, 44.9715]}, "properties": {"bikes": 0, "stands": 15, "name": "Loring Park", "status": "CLOSED", "lon": -93.284927, "lat": 44.9715, "update": "2015-11-02T20:02:54", "address": "Loring Park"}}, {"type": "Feature", "geometry": {"type": "Point", "coordinates": [-93.269217, 44.980199]}, "properties": {"bikes": 0, "stands": 31, "name": "Downtown Library", "status": "CLOSED", "lon": -93.269217, "lat": 44.980199, "update": "2015-11-03T19:45:55", "address": "Downtown Library"}}, {"type": "Feature", "geometry": {"type": "Point", "coordinates": [-93.251136, 44.969225]}, "properties": {"bikes": 0, "stands": 15, "name": "Currie Park", "status": "CLOSED", "lon": -93.251136, "lat": 44.969225, "update": "2015-11-02T17:57:24", "address": "Currie Park"}}, {"type": "Feature", "geometry": {"type": "Point", "coordinates": [-93.252269, 44.96285]}, "properties": {"bikes": 0, "stands": 15, "name": "E Franklin Ave & Bloomington Ave S", "status": "CLOSED", "lon": -93.252269, "lat": 44.96285, "update": "2015-11-02T17:05:18", "address": "E Franklin Ave & Bloomington Ave S"}}, {"type": "Feature", "geometry": {"type": "Point", "coordinates": [-93.274544, 44.973839]}, "properties": {"bikes": 0, "stands": 0, "name": "10th Street & Nicollet Mall", "status": "CLOSED", "lon": -93.274544, "lat": 44.973839, "update": "1970-01-01T01:00:00", "address": "10th Street & Nicollet Mall"}}, {"type": "Feature", "geometry": {"type": "Point", "coordinates": [-93.27405, 44.97265]}, "properties": {"bikes": 0, "stands": 19, "name": "11th Street & Marquette", "status": "CLOSED", "lon": -93.27405, "lat": 44.97265, "update": "2015-11-05T12:03:12", "address": "11th Street & Marquette"}}, {"type": "Feature", "geometry": {"type": "Point", "coordinates": [-93.267526, 44.962846]}, "properties": {"bikes": 0, "stands": 15, "name": "Franklin & Portland", "status": "CLOSED", "lon": -93.267526, "lat": 44.962846, "update": "2015-11-02T17:40:32", "address": "Franklin & Portland"}}, {"type": "Feature", "geometry": {"type": "Point", "coordinates": [-93.272185, 44.975641]}, "properties": {"bikes": 0, "stands": 23, "name": "IDS Center", "status": "CLOSED", "lon": -93.272185, "lat": 44.975641, "update": "2015-11-02T20:53:36", "address": "IDS Center"}}, {"type": "Feature", "geometry": {"type": "Point", "coordinates": [-93.30077, 44.94865]}, "properties": {"bikes": 0, "stands": 19, "name": "Lake Street & Humboldt", "status": "CLOSED", "lon": -93.30077, "lat": 44.94865, "update": "2015-11-02T21:04:39", "address": "Lake Street & Humboldt"}}, {"type": "Feature", "geometry": {"type": "Point", "coordinates": [-93.29714298, 44.9554734]}, "properties": {"bikes": 0, "stands": 15, "name": "26th Street & Hennepin", "status": "CLOSED", "lon": -93.29714298, "lat": 44.9554734, "update": "2015-11-02T18:20:24", "address": "26th Street & Hennepin"}}, {"type": "Feature", "geometry": {"type": "Point", "coordinates": [-93.230893, 44.962701]}, "properties": {"bikes": 0, "stands": 19, "name": "Franklin & 28th Ave", "status": "CLOSED", "lon": -93.230893, "lat": 44.962701, "update": "2015-11-02T17:38:37", "address": "Franklin & 28th Ave"}}, {"type": "Feature", "geometry": {"type": "Point", "coordinates": [-93.25576, 44.98717]}, "properties": {"bikes": 0, "stands": 19, "name": "University & Bank Street SE", "status": "CLOSED", "lon": -93.25576, "lat": 44.98717, "update": "2015-11-03T12:03:42", "address": "University & Bank Street SE"}}, {"type": "Feature", "geometry": {"type": "Point", "coordinates": [-93.29303, 44.96146]}, "properties": {"bikes": 0, "stands": 15, "name": "Dupont Ave & 22nd Street", "status": "CLOSED", "lon": -93.29303, "lat": 44.96146, "update": "2015-11-02T18:28:18", "address": "Dupont Ave & 22nd Street"}}, {"type": "Feature", "geometry": {"type": "Point", "coordinates": [-93.26599, 44.97974]}, "properties": {"bikes": 0, "stands": 27, "name": "3rd Street S & 2nd Ave S", "status": "CLOSED", "lon": -93.26599, "lat": 44.97974, "update": "2015-11-03T18:51:46", "address": "3rd Street S & 2nd Ave S"}}, {"type": "Feature", "geometry": {"type": "Point", "coordinates": [-93.275626, 44.980536]}, "properties": {"bikes": 0, "stands": 23, "name": "2nd Ave N & N 6th Street", "status": "CLOSED", "lon": -93.275626, "lat": 44.980536, "update": "2015-11-03T12:03:18", "address": "2nd Ave N & N 6th Street"}}, {"type": "Feature", "geometry": {"type": "Point", "coordinates": [-93.25535, 44.97654]}, "properties": {"bikes": 0, "stands": 19, "name": "Washington Ave S & 10th Ave S", "status": "CLOSED", "lon": -93.25535, "lat": 44.97654, "update": "2015-11-02T16:16:45", "address": "Washington Ave S & 10th Ave S"}}, {"type": "Feature", "geometry": {"type": "Point", "coordinates": [-93.27796, 44.95618]}, "properties": {"bikes": 0, "stands": 15, "name": "Nicollet Ave & W 26th Street", "status": "CLOSED", "lon": -93.27796, "lat": 44.95618, "update": "2015-11-02T17:50:41", "address": "Nicollet Ave & W 26th Street"}}, {"type": "Feature", "geometry": {"type": "Point", "coordinates": [-93.266684, 44.97497]}, "properties": {"bikes": 0, "stands": 15, "name": "7th Street & 4th Ave. S", "status": "CLOSED", "lon": -93.266684, "lat": 44.97497, "update": "2015-11-02T17:27:25", "address": "7th Street & 4th Ave. S"}}, {"type": "Feature", "geometry": {"type": "Point", "coordinates": [-93.279038071632, 44.984125390044]}, "properties": {"bikes": 0, "stands": 23, "name": "Target Field Station", "status": "CLOSED", "lon": -93.279038071632, "lat": 44.984125390044, "update": "2015-11-05T12:02:24", "address": "Target Field Station"}}, {"type": "Feature", "geometry": {"type": "Point", "coordinates": [-93.269278, 44.950371]}, "properties": {"bikes": 0, "stands": 15, "name": "Midtown Greenway & 5th Ave S", "status": "CLOSED", "lon": -93.269278, "lat": 44.950371, "update": "2015-11-04T17:23:01", "address": "Midtown Greenway & 5th Ave S"}}, {"type": "Feature", "geometry": {"type": "Point", "coordinates": [-93.211264014244, 44.973371428374]}, "properties": {"bikes": 0, "stands": 23, "name": "Malcolm Ave SE & 5th Street SE", "status": "CLOSED", "lon": -93.211264014244, "lat": 44.973371428374, "update": "2015-11-05T12:01:45", "address": "Malcolm Ave SE & 5th Street SE"}}, {"type": "Feature", "geometry": {"type": "Point", "coordinates": [-93.22854, 44.9743]}, "properties": {"bikes": 0, "stands": 19, "name": "McNamara Center", "status": "CLOSED", "lon": -93.22854, "lat": 44.9743, "update": "2015-11-04T12:00:53", "address": "McNamara Center"}}, {"type": "Feature", "geometry": {"type": "Point", "coordinates": [-93.23818, 44.97685]}, "properties": {"bikes": 0, "stands": 14, "name": "Elliot Hall", "status": "CLOSED", "lon": -93.23818, "lat": 44.97685, "update": "2015-11-03T16:36:45", "address": "Elliot Hall"}}, {"type": "Feature", "geometry": {"type": "Point", "coordinates": [-93.26079, 44.970553]}, "properties": {"bikes": 0, "stands": 15, "name": "Elliot Park", "status": "CLOSED", "lon": -93.26079, "lat": 44.970553, "update": "2015-11-02T17:48:39", "address": "Elliot Park"}}, {"type": "Feature", "geometry": {"type": "Point", "coordinates": [-93.29736, 44.946687]}, "properties": {"bikes": 0, "stands": 19, "name": "W 31st Street & Hennepin Ave S", "status": "CLOSED", "lon": -93.29736, "lat": 44.946687, "update": "2015-11-02T19:23:51", "address": "W 31st Street & Hennepin Ave S"}}, {"type": "Feature", "geometry": {"type": "Point", "coordinates": [-93.277939, 44.96342]}, "properties": {"bikes": 0, "stands": 23, "name": "Nicollet & Franklin", "status": "CLOSED", "lon": -93.277939, "lat": 44.96342, "update": "2015-11-02T17:46:41", "address": "Nicollet & Franklin"}}, {"type": "Feature", "geometry": {"type": "Point", "coordinates": [-93.27831, 44.9519]}, "properties": {"bikes": 0, "stands": 15, "name": "28th Street & Nicollet Ave. S", "status": "CLOSED", "lon": -93.27831, "lat": 44.9519, "update": "2015-11-02T17:55:02", "address": "28th Street & Nicollet Ave. S"}}, {"type": "Feature", "geometry": {"type": "Point", "coordinates": [-93.304427, 44.981147]}, "properties": {"bikes": 0, "stands": 14, "name": "Glenwood Ave & N Morgan Ave.", "status": "CLOSED", "lon": -93.304427, "lat": 44.981147, "update": "2015-11-03T12:01:17", "address": "Glenwood Ave & N Morgan Ave."}}, {"type": "Feature", "geometry": {"type": "Point", "coordinates": [-93.28542, 44.98052]}, "properties": {"bikes": 0, "stands": 15, "name": "Minneapolis Farmers Market", "status": "CLOSED", "lon": -93.28542, "lat": 44.98052, "update": "2015-11-03T12:03:36", "address": "Minneapolis Farmers Market"}}, {"type": "Feature", "geometry": {"type": "Point", "coordinates": [-93.279783725739, 44.989879107463]}, "properties": {"bikes": 0, "stands": 15, "name": "Washington Ave N & 9th Ave N", "status": "CLOSED", "lon": -93.279783725739, "lat": 44.989879107463, "update": "2015-11-03T15:59:36", "address": "Washington Ave N & 9th Ave N"}}, {"type": "Feature", "geometry": {"type": "Point", "coordinates": [-93.322066, 44.9798]}, "properties": {"bikes": 0, "stands": 15, "name": "Wirth Beach", "status": "CLOSED", "lon": -93.322066, "lat": 44.9798, "update": "2015-11-06T12:02:56", "address": "Wirth Beach"}}, {"type": "Feature", "geometry": {"type": "Point", "coordinates": [-93.290941, 44.999341]}, "properties": {"bikes": 0, "stands": 10, "name": "Bryant Ave N & West Broadway", "status": "CLOSED", "lon": -93.290941, "lat": 44.999341, "update": "2015-11-03T16:15:20", "address": "Bryant Ave N & West Broadway"}}, {"type": "Feature", "geometry": {"type": "Point", "coordinates": [-93.297071, 44.99957]}, "properties": {"bikes": 0, "stands": 15, "name": "Girard Ave N & W Broadway Ave", "status": "CLOSED", "lon": -93.297071, "lat": 44.99957, "update": "2015-11-03T15:48:24", "address": "Girard Ave N & W Broadway Ave"}}, {"type": "Feature", "geometry": {"type": "Point", "coordinates": [-93.287559, 45.005994]}, "properties": {"bikes": 0, "stands": 15, "name": "Farview Park", "status": "CLOSED", "lon": -93.287559, "lat": 45.005994, "update": "2015-11-03T12:03:54", "address": "Farview Park"}}, {"type": "Feature", "geometry": {"type": "Point", "coordinates": [-93.305857, 45.002448]}, "properties": {"bikes": 0, "stands": 15, "name": "West Broadway & Logan Ave N", "status": "CLOSED", "lon": -93.305857, "lat": 45.002448, "update": "2015-11-03T15:42:46", "address": "West Broadway & Logan Ave N"}}, {"type": "Feature", "geometry": {"type": "Point", "coordinates": [-93.307798, 45.013318]}, "properties": {"bikes": 0, "stands": 15, "name": "Lowry Ave N & Penn Ave", "status": "CLOSED", "lon": -93.307798, "lat": 45.013318, "update": "2015-11-03T12:01:37", "address": "Lowry Ave N & Penn Ave"}}, {"type": "Feature", "geometry": {"type": "Point", "coordinates": [-93.298634, 44.941388]}, "properties": {"bikes": 0, "stands": 19, "name": "West 34th Street  & Hennepin Ave S", "status": "CLOSED", "lon": -93.298634, "lat": 44.941388, "update": "2015-11-02T18:50:10", "address": "West 34th Street  & Hennepin Ave S"}}, {"type": "Feature", "geometry": {"type": "Point", "coordinates": [-93.218919, 44.97259]}, "properties": {"bikes": 0, "stands": 15, "name": "27th Ave SE & University Ave.", "status": "CLOSED", "lon": -93.218919, "lat": 44.97259, "update": "2015-11-03T12:01:32", "address": "27th Ave SE & University Ave."}}, {"type": "Feature", "geometry": {"type": "Point", "coordinates": [-93.20525, 44.96616]}, "properties": {"bikes": 0, "stands": 15, "name": "Curfew Street & Ellis Ave.", "status": "CLOSED", "lon": -93.20525, "lat": 44.96616, "update": "2015-11-03T12:03:26", "address": "Curfew Street & Ellis Ave."}}, {"type": "Feature", "geometry": {"type": "Point", "coordinates": [-93.195906, 44.963549]}, "properties": {"bikes": 0, "stands": 14, "name": "Carleton Street & University Ave ", "status": "CLOSED", "lon": -93.195906, "lat": 44.963549, "update": "2015-11-03T16:21:07", "address": "Carleton Street & University Ave "}}, {"type": "Feature", "geometry": {"type": "Point", "coordinates": [-93.17706, 44.95665]}, "properties": {"bikes": 0, "stands": 15, "name": "Fairview Ave. & University Ave.", "status": "CLOSED", "lon": -93.17706, "lat": 44.95665, "update": "2015-11-04T12:04:18", "address": "Fairview Ave. & University Ave."}}, {"type": "Feature", "geometry": {"type": "Point", "coordinates": [-93.165868, 44.964172]}, "properties": {"bikes": 0, "stands": 15, "name": "Hamline University", "status": "CLOSED", "lon": -93.165868, "lat": 44.964172, "update": "2015-11-04T12:03:44", "address": "Hamline University"}}, {"type": "Feature", "geometry": {"type": "Point", "coordinates": [-93.16734, 44.956624]}, "properties": {"bikes": 0, "stands": 15, "name": "Sherburne Ave & Snelling Ave N", "status": "CLOSED", "lon": -93.16734, "lat": 44.956624, "update": "2015-11-04T12:01:44", "address": "Sherburne Ave & Snelling Ave N"}}, {"type": "Feature", "geometry": {"type": "Point", "coordinates": [-93.24054, 44.94823]}, "properties": {"bikes": 0, "stands": 15, "name": "Midtown YWCA", "status": "CLOSED", "lon": -93.24054, "lat": 44.94823, "update": "2015-11-04T12:01:34", "address": "Midtown YWCA"}}, {"type": "Feature", "geometry": {"type": "Point", "coordinates": [-93.22106, 44.94826]}, "properties": {"bikes": 0, "stands": 15, "name": "East Lake Street & 36th Ave S", "status": "CLOSED", "lon": -93.22106, "lat": 44.94826, "update": "2015-11-02T16:20:50", "address": "East Lake Street & 36th Ave S"}}, {"type": "Feature", "geometry": {"type": "Point", "coordinates": [-93.136556, 44.956052]}, "properties": {"bikes": 0, "stands": 15, "name": "N Victoria Street & University Ave ", "status": "CLOSED", "lon": -93.136556, "lat": 44.956052, "update": "2015-11-04T12:02:17", "address": "N Victoria Street & University Ave "}}, {"type": "Feature", "geometry": {"type": "Point", "coordinates": [-93.185819, 44.948147]}, "properties": {"bikes": 0, "stands": 15, "name": "Wilder Street & Marshall Ave", "status": "CLOSED", "lon": -93.185819, "lat": 44.948147, "update": "2015-11-02T15:41:52", "address": "Wilder Street & Marshall Ave"}}, {"type": "Feature", "geometry": {"type": "Point", "coordinates": [-93.177093, 44.940513]}, "properties": {"bikes": 0, "stands": 15, "name": "Grand Ave & Fairview Ave", "status": "CLOSED", "lon": -93.177093, "lat": 44.940513, "update": "2015-11-02T12:02:44", "address": "Grand Ave & Fairview Ave"}}, {"type": "Feature", "geometry": {"type": "Point", "coordinates": [-93.17022, 44.940218]}, "properties": {"bikes": 0, "stands": 15, "name": "Macalester College", "status": "CLOSED", "lon": -93.17022, "lat": 44.940218, "update": "2015-11-02T15:55:41", "address": "Macalester College"}}, {"type": "Feature", "geometry": {"type": "Point", "coordinates": [-93.2669, 44.96954]}, "properties": {"bikes": 0, "stands": 15, "name": "Grant Street & Portland Ave", "status": "CLOSED", "lon": -93.2669, "lat": 44.96954, "update": "2015-11-02T17:44:02", "address": "Grant Street & Portland Ave"}}, {"type": "Feature", "geometry": {"type": "Point", "coordinates": [-93.24812, 44.983281]}, "properties": {"bikes": 0, "stands": 23, "name": "6th Ave. SE & University Ave.", "status": "CLOSED", "lon": -93.24812, "lat": 44.983281, "update": "2015-11-06T12:01:22", "address": "6th Ave. SE & University Ave."}}, {"type": "Feature", "geometry": {"type": "Point", "coordinates": [-93.317294418812, 44.948467166877]}, "properties": {"bikes": 0, "stands": 27, "name": "Lake Calhoun Center", "status": "CLOSED", "lon": -93.317294418812, "lat": 44.948467166877, "update": "2015-11-02T19:37:02", "address": "Lake Calhoun Center"}}, {"type": "Feature", "geometry": {"type": "Point", "coordinates": [-93.26023, 44.978068]}, "properties": {"bikes": 0, "stands": 19, "name": "Portland Ave. & Washington Ave.", "status": "CLOSED", "lon": -93.26023, "lat": 44.978068, "update": "2015-11-02T16:53:04", "address": "Portland Ave. & Washington Ave."}}, {"type": "Feature", "geometry": {"type": "Point", "coordinates": [-93.2675139, 44.9825943]}, "properties": {"bikes": 0, "stands": 15, "name": "Gateway Park", "status": "CLOSED", "lon": -93.2675139, "lat": 44.9825943, "update": "2015-11-03T17:18:46", "address": "Gateway Park"}}, {"type": "Feature", "geometry": {"type": "Point", "coordinates": [-93.266854, 44.995348]}, "properties": {"bikes": 0, "stands": 15, "name": "Marshall Street NE & 8th Ave. NE", "status": "CLOSED", "lon": -93.266854, "lat": 44.995348, "update": "2015-11-03T12:03:08", "address": "Marshall Street NE & 8th Ave. NE"}}, {"type": "Feature", "geometry": {"type": "Point", "coordinates": [-93.27651, 44.989166]}, "properties": {"bikes": 0, "stands": 19, "name": "2nd Street N & 8th Ave. N", "status": "CLOSED", "lon": -93.27651, "lat": 44.989166, "update": "2015-11-03T20:46:37", "address": "2nd Street N & 8th Ave. N"}}, {"type": "Feature", "geometry": {"type": "Point", "coordinates": [-93.26296, 44.999894]}, "properties": {"bikes": 0, "stands": 15, "name": "University Ave. NE & 12th Ave. NE", "status": "CLOSED", "lon": -93.26296, "lat": 44.999894, "update": "2015-11-03T15:32:37", "address": "University Ave. NE & 12th Ave. NE"}}, {"type": "Feature", "geometry": {"type": "Point", "coordinates": [-93.283163, 44.948556]}, "properties": {"bikes": 0, "stands": 15, "name": "Pleasant Ave S &  Lake Street", "status": "CLOSED", "lon": -93.283163, "lat": 44.948556, "update": "2015-11-03T12:03:10", "address": "Pleasant Ave S &  Lake Street"}}, {"type": "Feature", "geometry": {"type": "Point", "coordinates": [-93.29038, 44.94478]}, "properties": {"bikes": 0, "stands": 15, "name": "West 32nd Street & Bryant Ave S", "status": "CLOSED", "lon": -93.29038, "lat": 44.94478, "update": "2015-11-02T18:36:48", "address": "West 32nd Street & Bryant Ave S"}}, {"type": "Feature", "geometry": {"type": "Point", "coordinates": [-93.2912, 44.93775]}, "properties": {"bikes": 0, "stands": 15, "name": "West 36th Street & Bryant Ave S", "status": "CLOSED", "lon": -93.2912, "lat": 44.93775, "update": "2015-11-02T18:43:35", "address": "West 36th Street & Bryant Ave S"}}, {"type": "Feature", "geometry": {"type": "Point", "coordinates": [-93.281991, 44.968237]}, "properties": {"bikes": 0, "stands": 19, "name": "West 15th Street & Willow", "status": "CLOSED", "lon": -93.281991, "lat": 44.968237, "update": "2015-11-02T19:21:53", "address": "West 15th Street & Willow"}}, {"type": "Feature", "geometry": {"type": "Point", "coordinates": [-93.192758, 44.939936]}, "properties": {"bikes": 0, "stands": 15, "name": "Grand Ave & Cretin Ave", "status": "CLOSED", "lon": -93.192758, "lat": 44.939936, "update": "2015-11-04T12:01:54", "address": "Grand Ave & Cretin Ave"}}, {"type": "Feature", "geometry": {"type": "Point", "coordinates": [-93.1529, 44.94016]}, "properties": {"bikes": 0, "stands": 15, "name": "Kowalski's Market", "status": "CLOSED", "lon": -93.1529, "lat": 44.94016, "update": "2015-11-03T20:24:25", "address": "Kowalski's Market"}}, {"type": "Feature", "geometry": {"type": "Point", "coordinates": [-93.138832, 44.941599]}, "properties": {"bikes": 0, "stands": 15, "name": "N Milton Street & Summit Ave", "status": "CLOSED", "lon": -93.138832, "lat": 44.941599, "update": "2015-11-05T12:04:33", "address": "N Milton Street & Summit Ave"}}, {"type": "Feature", "geometry": {"type": "Point", "coordinates": [-93.1517, 44.98115]}, "properties": {"bikes": 0, "stands": 19, "name": "Como Park Conservatory", "status": "CLOSED", "lon": -93.1517, "lat": 44.98115, "update": "2015-11-06T12:04:33", "address": "Como Park Conservatory"}}, {"type": "Feature", "geometry": {"type": "Point", "coordinates": [-93.12661, 44.945736]}, "properties": {"bikes": 0, "stands": 15, "name": "Hague Ave & Dale Street", "status": "CLOSED", "lon": -93.12661, "lat": 44.945736, "update": "2015-11-03T18:23:22", "address": "Hague Ave & Dale Street"}}, {"type": "Feature", "geometry": {"type": "Point", "coordinates": [-93.25276, 44.99882]}, "properties": {"bikes": 0, "stands": 15, "name": "Logan Park", "status": "CLOSED", "lon": -93.25276, "lat": 44.99882, "update": "2015-11-03T15:38:39", "address": "Logan Park"}}, {"type": "Feature", "geometry": {"type": "Point", "coordinates": [-93.146379, 44.955363]}, "properties": {"bikes": 0, "stands": 15, "name": "Lexington Pkwy & University Ave", "status": "CLOSED", "lon": -93.146379, "lat": 44.955363, "update": "2015-11-04T12:02:43", "address": "Lexington Pkwy & University Ave"}}, {"type": "Feature", "geometry": {"type": "Point", "coordinates": [-93.126088, 44.956066]}, "properties": {"bikes": 0, "stands": 15, "name": "Dale Street N & University Ave", "status": "CLOSED", "lon": -93.126088, "lat": 44.956066, "update": "2015-11-04T12:04:35", "address": "Dale Street N & University Ave"}}, {"type": "Feature", "geometry": {"type": "Point", "coordinates": [-93.214864, 44.971012]}, "properties": {"bikes": 0, "stands": 15, "name": "University Ave SE & 29th Ave SE", "status": "CLOSED", "lon": -93.214864, "lat": 44.971012, "update": "2015-11-03T12:04:29", "address": "University Ave SE & 29th Ave SE"}}, {"type": "Feature", "geometry": {"type": "Point", "coordinates": [-93.212892, 44.987934]}, "properties": {"bikes": 0, "stands": 14, "name": "Como Ave. SE & 29th Ave. SE", "status": "CLOSED", "lon": -93.212892, "lat": 44.987934, "update": "2015-11-04T12:02:02", "address": "Como Ave. SE & 29th Ave. SE"}}, {"type": "Feature", "geometry": {"type": "Point", "coordinates": [-93.230469, 44.987517]}, "properties": {"bikes": 0, "stands": 15, "name": "15th Ave. SE & Como Ave. SE", "status": "CLOSED", "lon": -93.230469, "lat": 44.987517, "update": "2015-11-04T12:03:43", "address": "15th Ave. SE & Como Ave. SE"}}, {"type": "Feature", "geometry": {"type": "Point", "coordinates": [-93.143383, 44.981914]}, "properties": {"bikes": 0, "stands": 23, "name": "Lake Como Pavilion", "status": "CLOSED", "lon": -93.143383, "lat": 44.981914, "update": "2015-11-06T12:03:30", "address": "Lake Como Pavilion"}}, {"type": "Feature", "geometry": {"type": "Point", "coordinates": [-93.126261, 44.939779]}, "properties": {"bikes": 0, "stands": 14, "name": "Dale Street & Grand Ave.", "status": "CLOSED", "lon": -93.126261, "lat": 44.939779, "update": "2015-11-03T20:18:08", "address": "Dale Street & Grand Ave."}}, {"type": "Feature", "geometry": {"type": "Point", "coordinates": [-93.156984, 44.953527]}, "properties": {"bikes": 0, "stands": 14, "name": "St. Paul Police Western District", "status": "CLOSED", "lon": -93.156984, "lat": 44.953527, "update": "2015-11-04T12:01:33", "address": "St. Paul Police Western District"}}, {"type": "Feature", "geometry": {"type": "Point", "coordinates": [-93.247114, 45.00994]}, "properties": {"bikes": 0, "stands": 15, "name": "Central Ave. NE & 22nd Ave NE", "status": "CLOSED", "lon": -93.247114, "lat": 45.00994, "update": "2015-11-02T22:12:16", "address": "Central Ave. NE & 22nd Ave NE"}}, {"type": "Feature", "geometry": {"type": "Point", "coordinates": [-93.185029, 44.984527]}, "properties": {"bikes": 0, "stands": 15, "name": "U of M St. Paul Student Center", "status": "CLOSED", "lon": -93.185029, "lat": 44.984527, "update": "2015-11-04T12:03:09", "address": "U of M St. Paul Student Center"}}, {"type": "Feature", "geometry": {"type": "Point", "coordinates": [-93.1873, 44.945367]}, "properties": {"bikes": 0, "stands": 15, "name": "Cleveland Ave N & Laurel Ave", "status": "CLOSED", "lon": -93.1873, "lat": 44.945367, "update": "2015-11-02T12:00:26", "address": "Cleveland Ave N & Laurel Ave"}}, {"type": "Feature", "geometry": {"type": "Point", "coordinates": [-93.2321, 44.97394]}, "properties": {"bikes": 0, "stands": 27, "name": "Washington Ave SE & Union Street SE", "status": "CLOSED", "lon": -93.2321, "lat": 44.97394, "update": "2015-11-04T12:04:39", "address": "Washington Ave SE & Union Street SE"}}, {"type": "Feature", "geometry": {"type": "Point", "coordinates": [-93.10673, 44.949053]}, "properties": {"bikes": 0, "stands": 15, "name": "Minnesota History Center", "status": "CLOSED", "lon": -93.10673, "lat": 44.949053, "update": "2015-11-04T12:03:00", "address": "Minnesota History Center"}}, {"type": "Feature", "geometry": {"type": "Point", "coordinates": [-93.09759, 44.950189]}, "properties": {"bikes": 0, "stands": 15, "name": "10th Street E & Cedar Street", "status": "CLOSED", "lon": -93.09759, "lat": 44.950189, "update": "2015-11-04T12:05:03", "address": "10th Street E & Cedar Street"}}, {"type": "Feature", "geometry": {"type": "Point", "coordinates": [-93.091207, 44.949433]}, "properties": {"bikes": 0, "stands": 14, "name": "7th Place & Jackson Street", "status": "CLOSED", "lon": -93.091207, "lat": 44.949433, "update": "2015-11-04T12:01:19", "address": "7th Place & Jackson Street"}}, {"type": "Feature", "geometry": {"type": "Point", "coordinates": [-93.086584, 44.948399]}, "properties": {"bikes": 0, "stands": 23, "name": "Union Depot", "status": "CLOSED", "lon": -93.086584, "lat": 44.948399, "update": "2015-11-04T12:03:51", "address": "Union Depot"}}, {"type": "Feature", "geometry": {"type": "Point", "coordinates": [-93.088802, 44.946191]}, "properties": {"bikes": 0, "stands": 19, "name": "Kellogg Blvd E & Jackson Street", "status": "CLOSED", "lon": -93.088802, "lat": 44.946191, "update": "2015-11-04T12:00:48", "address": "Kellogg Blvd E & Jackson Street"}}, {"type": "Feature", "geometry": {"type": "Point", "coordinates": [-93.089245, 44.950766]}, "properties": {"bikes": 0, "stands": 15, "name": "7th Street E & Wacouta Street", "status": "CLOSED", "lon": -93.089245, "lat": 44.950766, "update": "2015-11-04T12:02:09", "address": "7th Street E & Wacouta Street"}}, {"type": "Feature", "geometry": {"type": "Point", "coordinates": [-93.0845, 44.94965]}, "properties": {"bikes": 0, "stands": 19, "name": "Broadway Street N & 4th Street E", "status": "CLOSED", "lon": -93.0845, "lat": 44.94965, "update": "2015-11-04T12:03:15", "address": "Broadway Street N & 4th Street E"}}, {"type": "Feature", "geometry": {"type": "Point", "coordinates": [-93.10445, 44.95385]}, "properties": {"bikes": 0, "stands": 15, "name": "Minnesota Dept. of Transportation", "status": "CLOSED", "lon": -93.10445, "lat": 44.95385, "update": "2015-11-04T12:04:25", "address": "Minnesota Dept. of Transportation"}}, {"type": "Feature", "geometry": {"type": "Point", "coordinates": [-93.103863, 44.945173]}, "properties": {"bikes": 0, "stands": 15, "name": "Kellogg Blvd W & Smith Ave", "status": "CLOSED", "lon": -93.103863, "lat": 44.945173, "update": "2015-11-04T12:02:06", "address": "Kellogg Blvd W & Smith Ave"}}, {"type": "Feature", "geometry": {"type": "Point", "coordinates": [-93.08465, 44.956028]}, "properties": {"bikes": 0, "stands": 18, "name": "Lafayette Road & Grove Street", "status": "CLOSED", "lon": -93.08465, "lat": 44.956028, "update": "2015-11-04T12:04:28", "address": "Lafayette Road & Grove Street"}}, {"type": "Feature", "geometry": {"type": "Point", "coordinates": [-93.09231, 44.94683]}, "properties": {"bikes": 0, "stands": 19, "name": "5th Street E & Minnesota Street N", "status": "CLOSED", "lon": -93.09231, "lat": 44.94683, "update": "2015-11-04T12:02:56", "address": "5th Street E & Minnesota Street N"}}, {"type": "Feature", "geometry": {"type": "Point", "coordinates": [-93.096114, 44.945267]}, "properties": {"bikes": 0, "stands": 19, "name": "Landmark Plaza", "status": "CLOSED", "lon": -93.096114, "lat": 44.945267, "update": "2015-11-04T12:01:10", "address": "Landmark Plaza"}}, {"type": "Feature", "geometry": {"type": "Point", "coordinates": [-93.09663, 44.94813]}, "properties": {"bikes": 0, "stands": 19, "name": "Wells Fargo Place", "status": "CLOSED", "lon": -93.09663, "lat": 44.94813, "update": "2015-11-04T12:02:05", "address": "Wells Fargo Place"}}, {"type": "Feature", "geometry": {"type": "Point", "coordinates": [-93.0779, 44.93002]}, "properties": {"bikes": 0, "stands": 15, "name": "State Street & Cesar Chavez Street", "status": "CLOSED", "lon": -93.0779, "lat": 44.93002, "update": "2015-11-04T12:04:24", "address": "State Street & Cesar Chavez Street"}}, {"type": "Feature", "geometry": {"type": "Point", "coordinates": [-93.089031, 44.939047]}, "properties": {"bikes": 0, "stands": 15, "name": "Wabasha Street S & E Fillmore Ave", "status": "CLOSED", "lon": -93.089031, "lat": 44.939047, "update": "2015-11-04T12:01:14", "address": "Wabasha Street S & E Fillmore Ave"}}, {"type": "Feature", "geometry": {"type": "Point", "coordinates": [-93.094532, 44.93768]}, "properties": {"bikes": 0, "stands": 19, "name": "Harriet Island", "status": "CLOSED", "lon": -93.094532, "lat": 44.93768, "update": "2015-11-05T12:04:17", "address": "Harriet Island"}}, {"type": "Feature", "geometry": {"type": "Point", "coordinates": [-93.09227, 44.943846]}, "properties": {"bikes": 0, "stands": 19, "name": "Kellogg Blvd & Wabasha Street", "status": "CLOSED", "lon": -93.09227, "lat": 44.943846, "update": "2015-11-04T12:03:37", "address": "Kellogg Blvd & Wabasha Street"}}, {"type": "Feature", "geometry": {"type": "Point", "coordinates": [-93.084497, 44.934503]}, "properties": {"bikes": 0, "stands": 15, "name": "Wabasha Street S & Cesar Chavez Street", "status": "CLOSED", "lon": -93.084497, "lat": 44.934503, "update": "2015-11-04T12:04:05", "address": "Wabasha Street S & Cesar Chavez Street"}}, {"type": "Feature", "geometry": {"type": "Point", "coordinates": [-93.098712, 44.940902]}, "properties": {"bikes": 0, "stands": 19, "name": "Upper Landing", "status": "CLOSED", "lon": -93.098712, "lat": 44.940902, "update": "2015-11-05T12:03:25", "address": "Upper Landing"}}, {"type": "Feature", "geometry": {"type": "Point", "coordinates": [-93.10624, 44.94144]}, "properties": {"bikes": 0, "stands": 19, "name": "7th Street W & Grand Ave", "status": "CLOSED", "lon": -93.10624, "lat": 44.94144, "update": "2015-11-04T12:03:01", "address": "7th Street W & Grand Ave"}}, {"type": "Feature", "geometry": {"type": "Point", "coordinates": [-93.097836, 44.942846]}, "properties": {"bikes": 0, "stands": 19, "name": "Science Museum of Minnesota", "status": "CLOSED", "lon": -93.097836, "lat": 44.942846, "update": "2015-11-04T12:01:57", "address": "Science Museum of Minnesota"}}, {"type": "Feature", "geometry": {"type": "Point", "coordinates": [-93.1151, 44.9467]}, "properties": {"bikes": 0, "stands": 19, "name": "Selby Ave & Virginia Street", "status": "CLOSED", "lon": -93.1151, "lat": 44.9467, "update": "2015-11-03T18:15:40", "address": "Selby Ave & Virginia Street"}}, {"type": "Feature", "geometry": {"type": "Point", "coordinates": [-93.11665, 44.95562]}, "properties": {"bikes": 0, "stands": 15, "name": "University Ave & Western Ave", "status": "CLOSED", "lon": -93.11665, "lat": 44.95562, "update": "2015-11-04T12:02:32", "address": "University Ave & Western Ave"}}, {"type": "Feature", "geometry": {"type": "Point", "coordinates": [-93.097817, 44.954697]}, "properties": {"bikes": 0, "stands": 17, "name": "E 14th Street & N Robert Street ", "status": "CLOSED", "lon": -93.097817, "lat": 44.954697, "update": "2015-11-04T12:02:31", "address": "E 14th Street & N Robert Street "}}, {"type": "Feature", "geometry": {"type": "Point", "coordinates": [-93.10955, 44.95476]}, "properties": {"bikes": 0, "stands": 15, "name": "N Marion Street & University Ave W", "status": "CLOSED", "lon": -93.10955, "lat": 44.95476, "update": "2015-11-04T12:02:24", "address": "N Marion Street & University Ave W"}}, {"type": "Feature", "geometry": {"type": "Point", "coordinates": [-93.094545, 44.951132]}, "properties": {"bikes": 0, "stands": 19, "name": "N Robert Street & E 10th Street", "status": "CLOSED", "lon": -93.094545, "lat": 44.951132, "update": "2015-11-04T12:04:03", "address": "N Robert Street & E 10th Street"}}, {"type": "Feature", "geometry": {"type": "Point", "coordinates": [-93.277505, 44.977128]}, "properties": {"bikes": 0, "stands": 25, "name": "9th Street N & Hawthorne Ave", "status": "CLOSED", "lon": -93.277505, "lat": 44.977128, "update": "2015-11-02T12:01:01", "address": "9th Street N & Hawthorne Ave"}}, {"type": "Feature", "geometry": {"type": "Point", "coordinates": [-93.256736, 44.977521]}, "properties": {"bikes": 0, "stands": 19, "name": "Chicago Ave & Washington Ave S", "status": "CLOSED", "lon": -93.256736, "lat": 44.977521, "update": "2015-11-02T16:37:18", "address": "Chicago Ave & Washington Ave S"}}, {"type": "Feature", "geometry": {"type": "Point", "coordinates": [-93.269087, 44.988461]}, "properties": {"bikes": 0, "stands": 15, "name": "N 4th Ave & W River Parkway", "status": "CLOSED", "lon": -93.269087, "lat": 44.988461, "update": "2015-11-03T16:29:31", "address": "N 4th Ave & W River Parkway"}}, {"type": "Feature", "geometry": {"type": "Point", "coordinates": [-93.277037, 45.00095]},