{"type": "FeatureCollection", "features": [{"type": "Feature", "properties": {"status": "CLOSED", "lon": -93.256551, "address": "100 Main Street SE", "name": "100 Main Street SE", "bikes": 0, "lat": 44.984892, "stands": 27, "update": "2015-11-04T12:04:04"}, "geometry": {"type": "Point", "coordinates": [-93.256551, 44.984892]}}, {"type": "Feature", "properties": {"status": "CLOSED", "lon": -93.223374, "address": "25th Street & 33rd Ave S", "name": "25th Street & 33rd Ave S", "bikes": 0, "lat": 44.957341, "stands": 15, "update": "2015-11-02T15:35:25"}, "geometry": {"type": "Point", "coordinates": [-93.223374, 44.957341]}}, {"type": "Feature", "properties": {"status": "CLOSED", "lon": -93.240149, "address": "Riverside Ave & 23rd Ave S", "name": "Riverside Ave & 23rd Ave S", "bikes": 0, "lat": 44.967115, "stands": 15, "update": "2015-11-02T17:49:24"}, "geometry": {"type": "Point", "coordinates": [-93.240149, 44.967115]}}, {"type": "Feature", "properties": {"status": "CLOSED", "lon": -93.306269, "address": "Plymouth Ave N &  N Oliver Ave", "name": "Plymouth Ave N &  N Oliver Ave", "bikes": 0, "lat": 44.991412, "stands": 15, "update": "2015-11-03T12:02:28"}, "geometry": {"type": "Point", "coordinates": [-93.306269, 44.991412]}}, {"type": "Feature", "properties": {"status": "CLOSED", "lon": -93.27869, "address": "11th Street & Hennepin", "name": "11th Street & Hennepin", "bikes": 0, "lat": 44.97534, "stands": 23, "update": "2015-11-02T20:11:46"}, "geometry": {"type": "Point", "coordinates": [-93.27869, 44.97534]}}, {"type": "Feature", "properties": {"status": "CLOSED", "lon": -93.25392, "address": "Hennepin & Central Avenue NE", "name": "Hennepin & Central Avenue NE", "bikes": 0, "lat": 44.98889, "stands": 15, "update": "2015-11-03T12:02:59"}, "geometry": {"type": "Point", "coordinates": [-93.25392, 44.98889]}}, {"type": "Feature", "properties": {"status": "CLOSED", "lon": -93.276435, "address": "YWCA Downtown", "name": "YWCA Downtown", "bikes": 0, "lat": 44.972217, "stands": 23, "update": "2015-11-05T12:03:53"}, "geometry": {"type": "Point", "coordinates": [-93.276435, 44.972217]}}, {"type": "Feature", "properties": {"status": "CLOSED", "lon": -93.26872, "address": "9th Street & 4th Ave", "name": "9th Street & 4th Ave", "bikes": 0, "lat": 44.97265, "stands": 19, "update": "2015-11-02T17:36:26"}, "geometry": {"type": "Point", "coordinates": [-93.26872, 44.97265]}}, {"type": "Feature", "properties": {"status": "CLOSED", "lon": -93.2602, "address": "Midtown Exchange", "name": "Midtown Exchange", "bikes": 0, "lat": 44.94859, "stands": 19, "update": "2015-11-02T16:50:41"}, "geometry": {"type": "Point", "coordinates": [-93.2602, 44.94859]}}, {"type": "Feature", "properties": {"status": "CLOSED", "lon": -93.23746, "address": "4th Street & 13th Ave SE", "name": "4th Street & 13th Ave SE", "bikes": 0, "lat": 44.98102, "stands": 19, "update": "2015-11-04T12:04:16"}, "geometry": {"type": "Point", "coordinates": [-93.23746, 44.98102]}}, {"type": "Feature", "properties": {"status": "CLOSED", "lon": -93.28305, "address": "Hennepin & Laurel Ave", "name": "Hennepin & Laurel Ave", "bikes": 0, "lat": 44.97391, "stands": 15, "update": "2015-11-02T20:06:54"}, "geometry": {"type": "Point", "coordinates": [-93.28305, 44.97391]}}, {"type": "Feature", "properties": {"status": "CLOSED", "lon": -93.272459, "address": "North 2nd Street & 4th Ave N", "name": "North 2nd Street & 4th Ave N", "bikes": 0, "lat": 44.986087, "stands": 19, "update": "2015-11-03T16:25:14"}, "geometry": {"type": "Point", "coordinates": [-93.272459, 44.986087]}}, {"type": "Feature", "properties": {"status": "CLOSED", "lon": -93.275861, "address": "Mpls Convention Center", "name": "Mpls Convention Center", "bikes": 0, "lat": 44.970041, "stands": 19, "update": "2015-11-03T12:02:31"}, "geometry": {"type": "Point", "coordinates": [-93.275861, 44.970041]}}, {"type": "Feature", "properties": {"status": "CLOSED", "lon": -93.288227319717, "address": "Lyndale Ave S & W 29th Street", "name": "Lyndale Ave S & W 29th Street", "bikes": 0, "lat": 44.949484653766, "stands": 19, "update": "2015-11-03T12:00:33"}, "geometry": {"type": "Point", "coordinates": [-93.288227319717, 44.949484653766]}}, {"type": "Feature", "properties": {"status": "CLOSED", "lon": -93.241042, "address": "22nd Ave S & Franklin Ave", "name": "22nd Ave S & Franklin Ave", "bikes": 0, "lat": 44.96293, "stands": 15, "update": "2015-11-02T17:04:42"}, "geometry": {"type": "Point", "coordinates": [-93.241042, 44.96293]}}, {"type": "Feature", "properties": {"status": "CLOSED", "lon": -93.24748, "address": "Washington & Cedar", "name": "Washington & Cedar", "bikes": 0, "lat": 44.97344, "stands": 20, "update": "2015-11-02T12:03:06"}, "geometry": {"type": "Point", "coordinates": [-93.24748, 44.97344]}}, {"type": "Feature", "properties": {"status": "CLOSED", "lon": -93.28848, "address": "Walker Art Center", "name": "Walker Art Center", "bikes": 0, "lat": 44.96746, "stands": 17, "update": "2015-11-04T18:12:24"}, "geometry": {"type": "Point", "coordinates": [-93.28848, 44.96746]}}, {"type": "Feature", "properties": {"status": "CLOSED", "lon": -93.28815, "address": "Lyndale Ave S & 22nd Street ", "name": "Lyndale Ave S & 22nd Street ", "bikes": 0, "lat": 44.960744, "stands": 19, "update": "2015-11-02T18:36:19"}, "geometry": {"type": "Point", "coordinates": [-93.28815, 44.960744]}}, {"type": "Feature", "properties": {"status": "CLOSED", "lon": -93.274981, "address": "MCAD", "name": "MCAD", "bikes": 0, "lat": 44.957214, "stands": 17, "update": "2015-11-04T18:44:19"}, "geometry": {"type": "Point", "coordinates": [-93.274981, 44.957214]}}, {"type": "Feature", "properties": {"status": "CLOSED", "lon": -93.243754, "address": "Social Sciences", "name": "Social Sciences", "bikes": 0, "lat": 44.971359, "stands": 28, "update": "2015-11-04T12:01:02"}, "geometry": {"type": "Point", "coordinates": [-93.243754, 44.971359]}}, {"type": "Feature", "properties": {"status": "CLOSED", "lon": -93.29853, "address": "YWCA Uptown", "name": "YWCA Uptown", "bikes": 0, "lat": 44.95131, "stands": 19, "update": "2015-11-03T12:00:35"}, "geometry": {"type": "Point", "coordinates": [-93.29853, 44.95131]}}, {"type": "Feature", "properties": {"status": "CLOSED", "lon": -93.27099, "address": "Washington & 2nd Ave N", "name": "Washington & 2nd Ave N", "bikes": 0, "lat": 44.98383, "stands": 19, "update": "2015-11-03T17:01:37"}, "geometry": {"type": "Point", "coordinates": [-93.27099, 44.98383]}}, {"type": "Feature", "properties": {"status": "CLOSED", "lon": -93.28775, "address": "26th Street & Lyndale", "name": "26th Street & Lyndale", "bikes": 0, "lat": 44.95548, "stands": 15, "update": "2015-11-02T20:50:58"}, "geometry": {"type": "Point", "coordinates": [-93.28775, 44.95548]}}, {"type": "Feature", "properties": {"status": "CLOSED", "lon": -93.26259, "address": "Chicago & 27th Street", "name": "Chicago & 27th Street", "bikes": 0, "lat": 44.95355, "stands": 15, "update": "2015-11-02T16:57:05"}, "geometry": {"type": "Point", "coordinates": [-93.26259, 44.95355]}}, {"type": "Feature", "properties": {"status": "CLOSED", "lon": -93.234762, "address": "Coffman Union", "name": "Coffman Union", "bikes": 0, "lat": 44.973378, "stands": 3, "update": "2015-11-03T19:21:58"}, "geometry": {"type": "Point", "coordinates": [-93.234762, 44.973378]}}, {"type": "Feature", "properties": {"status": "CLOSED", "lon": -93.234911, "address": "Williamson Hall", "name": "Williamson Hall", "bikes": 0, "lat": 44.977406, "stands": 25, "update": "2015-11-04T12:01:44"}, "geometry": {"type": "Point", "coordinates": [-93.234911, 44.977406]}}, {"type": "Feature", "properties": {"status": "CLOSED", "lon": -93.23206, "address": "Mayo Memorial Building", "name": "Mayo Memorial Building", "bikes": 0, "lat": 44.97209, "stands": 25, "update": "2015-11-04T12:02:17"}, "geometry": {"type": "Point", "coordinates": [-93.23206, 44.97209]}}, {"type": "Feature", "properties": {"status": "CLOSED", "lon": -93.24519, "address": "4th Street S & 19th Ave", "name": "4th Street S & 19th Ave", "bikes": 0, "lat": 44.97003, "stands": 19, "update": "2015-11-02T12:02:53"}, "geometry": {"type": "Point", "coordinates": [-93.24519, 44.97003]}}, {"type": "Feature", "properties": {"status": "CLOSED", "lon": -93.266925215721, "address": "Washington & Marquette", "name": "Washington & Marquette", "bikes": 0, "lat": 44.980873610847, "stands": 19, "update": "2015-11-03T15:58:52"}, "geometry": {"type": "Point", "coordinates": [-93.266925215721, 44.980873610847]}}, {"type": "Feature", "properties": {"status": "CLOSED", "lon": -93.266701, "address": "Hennepin County Government Center", "name": "Hennepin County Government Center", "bikes": 0, "lat": 44.976602, "stands": 27, "update": "2015-11-02T12:01:15"}, "geometry": {"type": "Point", "coordinates": [-93.266701, 44.976602]}}, {"type": "Feature", "properties": {"status": "CLOSED", "lon": -93.2583, "address": "Franklin & 11th Ave", "name": "Franklin & 11th Ave", "bikes": 0, "lat": 44.96251, "stands": 15, "update": "2015-11-02T17:18:16"}, "geometry": {"type": "Point", "coordinates": [-93.2583, 44.96251]}}, {"type": "Feature", "properties": {"status": "CLOSED", "lon": -93.22697, "address": "Oak Street Ramp", "name": "Oak Street Ramp", "bikes": 0, "lat": 44.97202, "stands": 23, "update": "2015-11-04T12:03:19"}, "geometry": {"type": "Point", "coordinates": [-93.22697, 44.97202]}}, {"type": "Feature", "properties": {"status": "CLOSED", "lon": -93.263454437256, "address": "South 2nd Street & 3rd Ave S", "name": "South 2nd Street & 3rd Ave S", "bikes": 0, "lat": 44.980926733576, "stands": 27, "update": "2015-11-03T16:03:17"}, "geometry": {"type": "Point", "coordinates": [-93.263454437256, 44.980926733576]}}, {"type": "Feature", "properties": {"status": "CLOSED", "lon": -93.221639, "address": "23rd Ave SE & 6th Street SE", "name": "23rd Ave SE & 6th Street SE", "bikes": 0, "lat": 44.977028, "stands": 18, "update": "2015-11-03T12:00:54"}, "geometry": {"type": "Point", "coordinates": [-93.221639, 44.977028]}}, {"type": "Feature", "properties": {"status": "CLOSED", "lon": -93.23189, "address": "4th Street & 17th Ave SE", "name": "4th Street & 17th Ave SE", "bikes": 0, "lat": 44.97913, "stands": 15, "update": "2015-11-03T17:25:28"}, "geometry": {"type": "Point", "coordinates": [-93.23189, 44.97913]}}, {"type": "Feature", "properties": {"status": "CLOSED", "lon": -93.284927, "address": "Loring Park", "name": "Loring Park", "bikes": 0, "lat": 44.9715, "stands": 15, "update": "2015-11-02T20:02:54"}, "geometry": {"type": "Point", "coordinates": [-93.284927, 44.9715]}}, {"type": "Feature", "properties": {"status": "CLOSED", "lon": -93.269217, "address": "Downtown Library", "name": "Downtown Library", "bikes": 0, "lat": 44.980199, "stands": 31, "update": "2015-11-03T19:45:55"}, "geometry": {"type": "Point", "coordinates": [-93.269217, 44.980199]}}, {"type": "Feature", "properties": {"status": "CLOSED", "lon": -93.251136, "address": "Currie Park", "name": "Currie Park", "bikes": 0, "lat": 44.969225, "stands": 15, "update": "2015-11-02T17:57:24"}, "geometry": {"type": "Point", "coordinates": [-93.251136, 44.969225]}}, {"type": "Feature", "properties": {"status": "CLOSED", "lon": -93.252269, "address": "E Franklin Ave & Bloomington Ave S", "name": "E Franklin Ave & Bloomington Ave S", "bikes": 0, "lat": 44.96285, "stands": 15, "update": "2015-11-02T17:05:18"}, "geometry": {"type": "Point", "coordinates": [-93.252269, 44.96285]}}, {"type": "Feature", "properties": {"status": "CLOSED", "lon": -93.274544, "address": "10th Street & Nicollet Mall", "name": "10th Street & Nicollet Mall", "bikes": 0, "lat": 44.973839, "stands": 0, "update": "1970-01-01T01:00:00"}, "geometry": {"type": "Point", "coordinates": [-93.274544, 44.973839]}}, {"type": "Feature", "properties": {"status": "CLOSED", "lon": -93.27405, "address": "11th Street & Marquette", "name": "11th Street & Marquette", "bikes": 0, "lat": 44.97265, "stands": 19, "update": "2015-11-05T12:03:12"}, "geometry": {"type": "Point", "coordinates": [-93.27405, 44.97265]}}, {"type": "Feature", "properties": {"status": "CLOSED", "lon": -93.267526, "address": "Franklin & Portland", "name": "Franklin & Portland", "bikes": 0, "lat": 44.962846, "stands": 15, "update": "2015-11-02T17:40:32"}, "geometry": {"type": "Point", "coordinates": [-93.267526, 44.962846]}}, {"type": "Feature", "properties": {"status": "CLOSED", "lon": -93.272185, "address": "IDS Center", "name": "IDS Center", "bikes": 0, "lat": 44.975641, "stands": 23, "update": "2015-11-02T20:53:36"}, "geometry": {"type": "Point", "coordinates": [-93.272185, 44.975641]}}, {"type": "Feature", "properties": {"status": "CLOSED", "lon": -93.30077, "address": "Lake Street & Humboldt", "name": "Lake Street & Humboldt", "bikes": 0, "lat": 44.94865, "stands": 19, "update": "2015-11-02T21:04:39"}, "geometry": {"type": "Point", "coordinates": [-93.30077, 44.94865]}}, {"type": "Feature", "properties": {"status": "CLOSED", "lon": -93.29714298, "address": "26th Street & Hennepin", "name": "26th Street & Hennepin", "bikes": 0, "lat": 44.9554734, "stands": 15, "update": "2015-11-02T18:20:24"}, "geometry": {"type": "Point", "coordinates": [-93.29714298, 44.9554734]}}, {"type": "Feature", "properties": {"status": "CLOSED", "lon": -93.230893, "address": "Franklin & 28th Ave", "name": "Franklin & 28th Ave", "bikes": 0, "lat": 44.962701, "stands": 19, "update": "2015-11-02T17:38:37"}, "geometry": {"type": "Point", "coordinates": [-93.230893, 44.962701]}}, {"type": "Feature", "properties": {"status": "CLOSED", "lon": -93.25576, "address": "University & Bank Street SE", "name": "University & Bank Street SE", "bikes": 0, "lat": 44.98717, "stands": 19, "update": "2015-11-03T12:03:42"}, "geometry": {"type": "Point", "coordinates": [-93.25576, 44.98717]}}, {"type": "Feature", "properties": {"status": "CLOSED", "lon": -93.29303, "address": "Dupont Ave & 22nd Street", "name": "Dupont Ave & 22nd Street", "bikes": 0, "lat": 44.96146, "stands": 15, "update": "2015-11-02T18:28:18"}, "geometry": {"type": "Point", "coordinates": [-93.29303, 44.96146]}}, {"type": "Feature", "properties": {"status": "CLOSED", "lon": -93.26599, "address": "3rd Street S & 2nd Ave S", "name": "3rd Street S & 2nd Ave S", "bikes": 0, "lat": 44.97974, "stands": 27, "update": "2015-11-03T18:51:46"}, "geometry": {"type": "Point", "coordinates": [-93.26599, 44.97974]}}, {"type": "Feature", "properties": {"status": "CLOSED", "lon": -93.275626, "address": "2nd Ave N & N 6th Street", "name": "2nd Ave N & N 6th Street", "bikes": 0, "lat": 44.980536, "stands": 23, "update": "2015-11-03T12:03:18"}, "geometry": {"type": "Point", "coordinates": [-93.275626, 44.980536]}}, {"type": "Feature", "properties": {"status": "CLOSED", "lon": -93.25535, "address": "Washington Ave S & 10th Ave S", "name": "Washington Ave S & 10th Ave S", "bikes": 0, "lat": 44.97654, "stands": 19, "update": "2015-11-02T16:16:45"}, "geometry": {"type": "Point", "coordinates": [-93.25535, 44.97654]}}, {"type": "Feature", "properties": {"status": "CLOSED", "lon": -93.27796, "address": "Nicollet Ave & W 26th Street", "name": "Nicollet Ave & W 26th Street", "bikes": 0, "lat": 44.95618, "stands": 15, "update": "2015-11-02T17:50:41"}, "geometry": {"type": "Point", "coordinates": [-93.27796, 44.95618]}}, {"type": "Feature", "properties": {"status": "CLOSED", "lon": -93.266684, "address": "7th Street & 4th Ave. S", "name": "7th Street & 4th Ave. S", "bikes": 0, "lat": 44.97497, "stands": 15, "update": "2015-11-02T17:27:25"}, "geometry": {"type": "Point", "coordinates": [-93.266684, 44.97497]}}, {"type": "Feature", "properties": {"status": "CLOSED", "lon": -93.279038071632, "address": "Target Field Station", "name": "Target Field Station", "bikes": 0, "lat": 44.984125390044, "stands": 23, "update": "2015-11-05T12:02:24"}, "geometry": {"type": "Point", "coordinates": [-93.279038071632, 44.984125390044]}}, {"type": "Feature", "properties": {"status": "CLOSED", "lon": -93.269278, "address": "Midtown Greenway & 5th Ave S", "name": "Midtown Greenway & 5th Ave S", "bikes": 0, "lat": 44.950371, "stands": 15, "update": "2015-11-04T17:23:01"}, "geometry": {"type": "Point", "coordinates": [-93.269278, 44.950371]}}, {"type": "Feature", "properties": {"status": "CLOSED", "lon": -93.211264014244, "address": "Malcolm Ave SE & 5th Street SE", "name": "Malcolm Ave SE & 5th Street SE", "bikes": 0, "lat": 44.973371428374, "stands": 23, "update": "2015-11-05T12:01:45"}, "geometry": {"type": "Point", "coordinates": [-93.211264014244, 44.973371428374]}}, {"type": "Feature", "properties": {"status": "CLOSED", "lon": -93.22854, "address": "McNamara Center", "name": "McNamara Center", "bikes": 0, "lat": 44.9743, "stands": 19, "update": "2015-11-04T12:00:53"}, "geometry": {"type": "Point", "coordinates": [-93.22854, 44.9743]}}, {"type": "Feature", "properties": {"status": "CLOSED", "lon": -93.23818, "address": "Elliot Hall", "name": "Elliot Hall", "bikes": 0, "lat": 44.97685, "stands": 14, "update": "2015-11-03T16:36:45"}, "geometry": {"type": "Point", "coordinates": [-93.23818, 44.97685]}}, {"type": "Feature", "properties": {"status": "CLOSED", "lon": -93.26079, "address": "Elliot Park", "name": "Elliot Park", "bikes": 0, "lat": 44.970553, "stands": 15, "update": "2015-11-02T17:48:39"}, "geometry": {"type": "Point", "coordinates": [-93.26079, 44.970553]}}, {"type": "Feature", "properties": {"status": "CLOSED", "lon": -93.29736, "address": "W 31st Street & Hennepin Ave S", "name": "W 31st Street & Hennepin Ave S", "bikes": 0, "lat": 44.946687, "stands": 19, "update": "2015-11-02T19:23:51"}, "geometry": {"type": "Point", "coordinates": [-93.29736, 44.946687]}}, {"type": "Feature", "properties": {"status": "CLOSED", "lon": -93.277939, "address": "Nicollet & Franklin", "name": "Nicollet & Franklin", "bikes": 0, "lat": 44.96342, "stands": 23, "update": "2015-11-02T17:46:41"}, "geometry": {"type": "Point", "coordinates": [-93.277939, 44.96342]}}, {"type": "Feature", "properties": {"status": "CLOSED", "lon": -93.27831, "address": "28th Street & Nicollet Ave. S", "name": "28th Street & Nicollet Ave. S", "bikes": 0, "lat": 44.9519, "stands": 15, "update": "2015-11-02T17:55:02"}, "geometry": {"type": "Point", "coordinates": [-93.27831, 44.9519]}}, {"type": "Feature", "properties": {"status": "CLOSED", "lon": -93.304427, "address": "Glenwood Ave & N Morgan Ave.", "name": "Glenwood Ave & N Morgan Ave.", "bikes": 0, "lat": 44.981147, "stands": 14, "update": "2015-11-03T12:01:17"}, "geometry": {"type": "Point", "coordinates": [-93.304427, 44.981147]}}, {"type": "Feature", "properties": {"status": "CLOSED", "lon": -93.28542, "address": "Minneapolis Farmers Market", "name": "Minneapolis Farmers Market", "bikes": 0, "lat": 44.98052, "stands": 15, "update": "2015-11-03T12:03:36"}, "geometry": {"type": "Point", "coordinates": [-93.28542, 44.98052]}}, {"type": "Feature", "properties": {"status": "CLOSED", "lon": -93.279783725739, "address": "Washington Ave N & 9th Ave N", "name": "Washington Ave N & 9th Ave N", "bikes": 0, "lat": 44.989879107463, "stands": 15, "update": "2015-11-03T15:59:36"}, "geometry": {"type": "Point", "coordinates": [-93.279783725739, 44.989879107463]}}, {"type": "Feature", "properties": {"status": "CLOSED", "lon": -93.322066, "address": "Wirth Beach", "name": "Wirth Beach", "bikes": 0, "lat": 44.9798, "stands": 15, "update": "2015-11-06T12:02:56"}, "geometry": {"type": "Point", "coordinates": [-93.322066, 44.9798]}}, {"type": "Feature", "properties": {"status": "CLOSED", "lon": -93.290941, "address": "Bryant Ave N & West Broadway", "name": "Bryant Ave N & West Broadway", "bikes": 0, "lat": 44.999341, "stands": 10, "update": "2015-11-03T16:15:20"}, "geometry": {"type": "Point", "coordinates": [-93.290941, 44.999341]}}, {"type": "Feature", "properties": {"status": "CLOSED", "lon": -93.297071, "address": "Girard Ave N & W Broadway Ave", "name": "Girard Ave N & W Broadway Ave", "bikes": 0, "lat": 44.99957, "stands": 15, "update": "2015-11-03T15:48:24"}, "geometry": {"type": "Point", "coordinates": [-93.297071, 44.99957]}}, {"type": "Feature", "properties": {"status": "CLOSED", "lon": -93.287559, "address": "Farview Park", "name": "Farview Park", "bikes": 0, "lat": 45.005994, "stands": 15, "update": "2015-11-03T12:03:54"}, "geometry": {"type": "Point", "coordinates": [-93.287559, 45.005994]}}, {"type": "Feature", "properties": {"status": "CLOSED", "lon": -93.305857, "address": "West Broadway & Logan Ave N", "name": "West Broadway & Logan Ave N", "bikes": 0, "lat": 45.002448, "stands": 15, "update": "2015-11-03T15:42:46"}, "geometry": {"type": "Point", "coordinates": [-93.305857, 45.002448]}}, {"type": "Feature", "properties": {"status": "CLOSED", "lon": -93.307798, "address": "Lowry Ave N & Penn Ave", "name": "Lowry Ave N & Penn Ave", "bikes": 0, "lat": 45.013318, "stands": 15, "update": "2015-11-03T12:01:37"}, "geometry": {"type": "Point", "coordinates": [-93.307798, 45.013318]}}, {"type": "Feature", "properties": {"status": "CLOSED", "lon": -93.298634, "address": "West 34th Street  & Hennepin Ave S", "name": "West 34th Street  & Hennepin Ave S", "bikes": 0, "lat": 44.941388, "stands": 19, "update": "2015-11-02T18:50:10"}, "geometry": {"type": "Point", "coordinates": [-93.298634, 44.941388]}}, {"type": "Feature", "properties": {"status": "CLOSED", "lon": -93.218919, "address": "27th Ave SE & University Ave.", "name": "27th Ave SE & University Ave.", "bikes": 0, "lat": 44.97259, "stands": 15, "update": "2015-11-03T12:01:32"}, "geometry": {"type": "Point", "coordinates": [-93.218919, 44.97259]}}, {"type": "Feature", "properties": {"status": "CLOSED", "lon": -93.20525, "address": "Curfew Street & Ellis Ave.", "name": "Curfew Street & Ellis Ave.", "bikes": 0, "lat": 44.96616, "stands": 15, "update": "2015-11-03T12:03:26"}, "geometry": {"type": "Point", "coordinates": [-93.20525, 44.96616]}}, {"type": "Feature", "properties": {"status": "CLOSED", "lon": -93.195906, "address": "Carleton Street & University Ave ", "name": "Carleton Street & University Ave ", "bikes": 0, "lat": 44.963549, "stands": 14, "update": "2015-11-03T16:21:07"}, "geometry": {"type": "Point", "coordinates": [-93.195906, 44.963549]}}, {"type": "Feature", "properties": {"status": "CLOSED", "lon": -93.17706, "address": "Fairview Ave. & University Ave.", "name": "Fairview Ave. & University Ave.", "bikes": 0, "lat": 44.95665, "stands": 15, "update": "2015-11-04T12:04:18"}, "geometry": {"type": "Point", "coordinates": [-93.17706, 44.95665]}}, {"type": "Feature", "properties": {"status": "CLOSED", "lon": -93.165868, "address": "Hamline University", "name": "Hamline University", "bikes": 0, "lat": 44.964172, "stands": 15, "update": "2015-11-04T12:03:44"}, "geometry": {"type": "Point", "coordinates": [-93.165868, 44.964172]}}, {"type": "Feature", "properties": {"status": "CLOSED", "lon": -93.16734, "address": "Sherburne Ave & Snelling Ave N", "name": "Sherburne Ave & Snelling Ave N", "bikes": 0, "lat": 44.956624, "stands": 15, "update": "2015-11-04T12:01:44"}, "geometry": {"type": "Point", "coordinates": [-93.16734, 44.956624]}}, {"type": "Feature", "properties": {"status": "CLOSED", "lon": -93.24054, "address": "Midtown YWCA", "name": "Midtown YWCA", "bikes": 0, "lat": 44.94823, "stands": 15, "update": "2015-11-04T12:01:34"}, "geometry": {"type": "Point", "coordinates": [-93.24054, 44.94823]}}, {"type": "Feature", "properties": {"status": "CLOSED", "lon": -93.22106, "address": "East Lake Street & 36th Ave S", "name": "East Lake Street & 36th Ave S", "bikes": 0, "lat": 44.94826, "stands": 15, "update": "2015-11-02T16:20:50"}, "geometry": {"type": "Point", "coordinates": [-93.22106, 44.94826]}}, {"type": "Feature", "properties": {"status": "CLOSED", "lon": -93.136556, "address": "N Victoria Street & University Ave ", "name": "N Victoria Street & University Ave ", "bikes": 0, "lat": 44.956052, "stands": 15, "update": "2015-11-04T12:02:17"}, "geometry": {"type": "Point", "coordinates": [-93.136556, 44.956052]}}, {"type": "Feature", "properties": {"status": "CLOSED", "lon": -93.185819, "address": "Wilder Street & Marshall Ave", "name": "Wilder Street & Marshall Ave", "bikes": 0, "lat": 44.948147, "stands": 15, "update": "2015-11-02T15:41:52"}, "geometry": {"type": "Point", "coordinates": [-93.185819, 44.948147]}}, {"type": "Feature", "properties": {"status": "CLOSED", "lon": -93.177093, "address": "Grand Ave & Fairview Ave", "name": "Grand Ave & Fairview Ave", "bikes": 0, "lat": 44.940513, "stands": 15, "update": "2015-11-02T12:02:44"}, "geometry": {"type": "Point", "coordinates": [-93.177093, 44.940513]}}, {"type": "Feature", "properties": {"status": "CLOSED", "lon": -93.17022, "address": "Macalester College", "name": "Macalester College", "bikes": 0, "lat": 44.940218, "stands": 15, "update": "2015-11-02T15:55:41"}, "geometry": {"type": "Point", "coordinates": [-93.17022, 44.940218]}}, {"type": "Feature", "properties": {"status": "CLOSED", "lon": -93.2669, "address": "Grant Street & Portland Ave", "name": "Grant Street & Portland Ave", "bikes": 0, "lat": 44.96954, "stands": 15, "update": "2015-11-02T17:44:02"}, "geometry": {"type": "Point", "coordinates": [-93.2669, 44.96954]}}, {"type": "Feature", "properties": {"status": "CLOSED", "lon": -93.24812, "address": "6th Ave. SE & University Ave.", "name": "6th Ave. SE & University Ave.", "bikes": 0, "lat": 44.983281, "stands": 23, "update": "2015-11-06T12:01:22"}, "geometry": {"type": "Point", "coordinates": [-93.24812, 44.983281]}}, {"type": "Feature", "properties": {"status": "CLOSED", "lon": -93.317294418812, "address": "Lake Calhoun Center", "name": "Lake Calhoun Center", "bikes": 0, "lat": 44.948467166877, "stands": 27, "update": "2015-11-02T19:37:02"}, "geometry": {"type": "Point", "coordinates": [-93.317294418812, 44.948467166877]}}, {"type": "Feature", "properties": {"status": "CLOSED", "lon": -93.26023, "address": "Portland Ave. & Washington Ave.", "name": "Portland Ave. & Washington Ave.", "bikes": 0, "lat": 44.978068, "stands": 19, "update": "2015-11-02T16:53:04"}, "geometry": {"type": "Point", "coordinates": [-93.26023, 44.978068]}}, {"type": "Feature", "properties": {"status": "CLOSED", "lon": -93.2675139, "address": "Gateway Park", "name": "Gateway Park", "bikes": 0, "lat": 44.9825943, "stands": 15, "update": "2015-11-03T17:18:46"}, "geometry": {"type": "Point", "coordinates": [-93.2675139, 44.9825943]}}, {"type": "Feature", "properties": {"status": "CLOSED", "lon": -93.266854, "address": "Marshall Street NE & 8th Ave. NE", "name": "Marshall Street NE & 8th Ave. NE", "bikes": 0, "lat": 44.995348, "stands": 15, "update": "2015-11-03T12:03:08"}, "geometry": {"type": "Point", "coordinates": [-93.266854, 44.995348]}}, {"type": "Feature", "properties": {"status": "CLOSED", "lon": -93.27651, "address": "2nd Street N & 8th Ave. N", "name": "2nd Street N & 8th Ave. N", "bikes": 0, "lat": 44.989166, "stands": 19, "update": "2015-11-03T20:46:37"}, "geometry": {"type": "Point", "coordinates": [-93.27651, 44.989166]}}, {"type": "Feature", "properties": {"status": "CLOSED", "lon": -93.26296, "address": "University Ave. NE & 12th Ave. NE", "name": "University Ave. NE & 12th Ave. NE", "bikes": 0, "lat": 44.999894, "stands": 15, "update": "2015-11-03T15:32:37"}, "geometry": {"type": "Point", "coordinates": [-93.26296, 44.999894]}}, {"type": "Feature", "properties": {"status": "CLOSED", "lon": -93.283163, "address": "Pleasant Ave S &  Lake Street", "name": "Pleasant Ave S &  Lake Street", "bikes": 0, "lat": 44.948556, "stands": 15, "update": "2015-11-03T12:03:10"}, "geometry": {"type": "Point", "coordinates": [-93.283163, 44.948556]}}, {"type": "Feature", "properties": {"status": "CLOSED", "lon": -93.29038, "address": "West 32nd Street & Bryant Ave S", "name": "West 32nd Street & Bryant Ave S", "bikes": 0, "lat": 44.94478, "stands": 15, "update": "2015-11-02T18:36:48"}, "geometry": {"type": "Point", "coordinates": [-93.29038, 44.94478]}}, {"type": "Feature", "properties": {"status": "CLOSED", "lon": -93.2912, "address": "West 36th Street & Bryant Ave S", "name": "West 36th Street & Bryant Ave S", "bikes": 0, "lat": 44.93775, "stands": 15, "update": "2015-11-02T18:43:35"}, "geometry": {"type": "Point", "coordinates": [-93.2912, 44.93775]}}, {"type": "Feature", "properties": {"status": "CLOSED", "lon": -93.281991, "address": "West 15th Street & Willow", "name": "West 15th Street & Willow", "bikes": 0, "lat": 44.968237, "stands": 19, "update": "2015-11-02T19:21:53"}, "geometry": {"type": "Point", "coordinates": [-93.281991, 44.968237]}}, {"type": "Feature", "properties": {"status": "CLOSED", "lon": -93.192758, "address": "Grand Ave & Cretin Ave", "name": "Grand Ave & Cretin Ave", "bikes": 0, "lat": 44.939936, "stands": 15, "update": "2015-11-04T12:01:54"}, "geometry": {"type": "Point", "coordinates": [-93.192758, 44.939936]}}, {"type": "Feature", "properties": {"status": "CLOSED", "lon": -93.1529, "address": "Kowalski's Market", "name": "Kowalski's Market", "bikes": 0, "lat": 44.94016, "stands": 15, "update": "2015-11-03T20:24:25"}, "geometry": {"type": "Point", "coordinates": [-93.1529, 44.94016]}}, {"type": "Feature", "properties": {"status": "CLOSED", "lon": -93.138832, "address": "N Milton Street & Summit Ave", "name": "N Milton Street & Summit Ave", "bikes": 0, "lat": 44.941599, "stands": 15, "update": "2015-11-05T12:04:33"}, "geometry": {"type": "Point", "coordinates": [-93.138832, 44.941599]}}, {"type": "Feature", "properties": {"status": "CLOSED", "lon": -93.1517, "address": "Como Park Conservatory", "name": "Como Park Conservatory", "bikes": 0, "lat": 44.98115, "stands": 19, "update": "2015-11-06T12:04:33"}, "geometry": {"type": "Point", "coordinates": [-93.1517, 44.98115]}}, {"type": "Feature", "properties": {"status": "CLOSED", "lon": -93.12661, "address": "Hague Ave & Dale Street", "name": "Hague Ave & Dale Street", "bikes": 0, "lat": 44.945736, "stands": 15, "update": "2015-11-03T18:23:22"}, "geometry": {"type": "Point", "coordinates": [-93.12661, 44.945736]}}, {"type": "Feature", "properties": {"status": "CLOSED", "lon": -93.25276, "address": "Logan Park", "name": "Logan Park", "bikes": 0, "lat": 44.99882, "stands": 15, "update": "2015-11-03T15:38:39"}, "geometry": {"type": "Point", "coordinates": [-93.25276, 44.99882]}}, {"type": "Feature", "properties": {"status": "CLOSED", "lon": -93.146379, "address": "Lexington Pkwy & University Ave", "name": "Lexington Pkwy & University Ave", "bikes": 0, "lat": 44.955363, "stands": 15, "update": "2015-11-04T12:02:43"}, "geometry": {"type": "Point", "coordinates": [-93.146379, 44.955363]}}, {"type": "Feature", "properties": {"status": "CLOSED", "lon": -93.126088, "address": "Dale Street N & University Ave", "name": "Dale Street N & University Ave", "bikes": 0, "lat": 44.956066, "stands": 15, "update": "2015-11-04T12:04:35"}, "geometry": {"type": "Point", "coordinates": [-93.126088, 44.956066]}}, {"type": "Feature", "properties": {"status": "CLOSED", "lon": -93.214864, "address": "University Ave SE & 29th Ave SE", "name": "University Ave SE & 29th Ave SE", "bikes": 0, "lat": 44.971012, "stands": 15, "update": "2015-11-03T12:04:29"}, "geometry": {"type": "Point", "coordinates": [-93.214864, 44.971012]}}, {"type": "Feature", "properties": {"status": "CLOSED", "lon": -93.212892, "address": "Como Ave. SE & 29th Ave. SE", "name": "Como Ave. SE & 29th Ave. SE", "bikes": 0, "lat": 44.987934, "stands": 14, "update": "2015-11-04T12:02:02"}, "geometry": {"type": "Point", "coordinates": [-93.212892, 44.987934]}}, {"type": "Feature", "properties": {"status": "CLOSED", "lon": -93.230469, "address": "15th Ave. SE & Como Ave. SE", "name": "15th Ave. SE & Como Ave. SE", "bikes": 0, "lat": 44.987517, "stands": 15, "update": "2015-11-04T12:03:43"}, "geometry": {"type": "Point", "coordinates": [-93.230469, 44.987517]}}, {"type": "Feature", "properties": {"status": "CLOSED", "lon": -93.143383, "address": "Lake Como Pavilion", "name": "Lake Como Pavilion", "bikes": 0, "lat": 44.981914, "stands": 23, "update": "2015-11-06T12:03:30"}, "geometry": {"type": "Point", "coordinates": [-93.143383, 44.981914]}}, {"type": "Feature", "properties": {"status": "CLOSED", "lon": -93.126261, "address": "Dale Street & Grand Ave.", "name": "Dale Street & Grand Ave.", "bikes": 0, "lat": 44.939779, "stands": 14, "update": "2015-11-03T20:18:08"}, "geometry": {"type": "Point", "coordinates": [-93.126261, 44.939779]}}, {"type": "Feature", "properties": {"status": "CLOSED", "lon": -93.156984, "address": "St. Paul Police Western District", "name": "St. Paul Police Western District", "bikes": 0, "lat": 44.953527, "stands": 14, "update": "2015-11-04T12:01:33"}, "geometry": {"type": "Point", "coordinates": [-93.156984, 44.953527]}}, {"type": "Feature", "properties": {"status": "CLOSED", "lon": -93.247114, "address": "Central Ave. NE & 22nd Ave NE", "name": "Central Ave. NE & 22nd Ave NE", "bikes": 0, "lat": 45.00994, "stands": 15, "update": "2015-11-02T22:12:16"}, "geometry": {"type": "Point", "coordinates": [-93.247114, 45.00994]}}, {"type": "Feature", "properties": {"status": "CLOSED", "lon": -93.185029, "address": "U of M St. Paul Student Center", "name": "U of M St. Paul Student Center", "bikes": 0, "lat": 44.984527, "stands": 15, "update": "2015-11-04T12:03:09"}, "geometry": {"type": "Point", "coordinates": [-93.185029, 44.984527]}}, {"type": "Feature", "properties": {"status": "CLOSED", "lon": -93.1873, "address": "Cleveland Ave N & Laurel Ave", "name": "Cleveland Ave N & Laurel Ave", "bikes": 0, "lat": 44.945367, "stands": 15, "update": "2015-11-02T12:00:26"}, "geometry": {"type": "Point", "coordinates": [-93.1873, 44.945367]}}, {"type": "Feature", "properties": {"status": "CLOSED", "lon": -93.2321, "address": "Washington Ave SE & Union Street SE", "name": "Washington Ave SE & Union Street SE", "bikes": 0, "lat": 44.97394, "stands": 27, "update": "2015-11-04T12:04:39"}, "geometry": {"type": "Point", "coordinates": [-93.2321, 44.97394]}}, {"type": "Feature", "properties": {"status": "CLOSED", "lon": -93.10673, "address": "Minnesota History Center", "name": "Minnesota History Center", "bikes": 0, "lat": 44.949053, "stands": 15, "update": "2015-11-04T12:03:00"}, "geometry": {"type": "Point", "coordinates": [-93.10673, 44.949053]}}, {"type": "Feature", "properties": {"status": "CLOSED", "lon": -93.09759, "address": "10th Street E & Cedar Street", "name": "10th Street E & Cedar Street", "bikes": 0, "lat": 44.950189, "stands": 15, "update": "2015-11-04T12:05:03"}, "geometry": {"type": "Point", "coordinates": [-93.09759, 44.950189]}}, {"type": "Feature", "properties": {"status": "CLOSED", "lon": -93.091207, "address": "7th Place & Jackson Street", "name": "7th Place & Jackson Street", "bikes": 0, "lat": 44.949433, "stands": 14, "update": "2015-11-04T12:01:19"}, "geometry": {"type": "Point", "coordinates": [-93.091207, 44.949433]}}, {"type": "Feature", "properties": {"status": "CLOSED", "lon": -93.086584, "address": "Union Depot", "name": "Union Depot", "bikes": 0, "lat": 44.948399, "stands": 23, "update": "2015-11-04T12:03:51"}, "geometry": {"type": "Point", "coordinates": [-93.086584, 44.948399]}}, {"type": "Feature", "properties": {"status": "CLOSED", "lon": -93.088802, "address": "Kellogg Blvd E & Jackson Street", "name": "Kellogg Blvd E & Jackson Street", "bikes": 0, "lat": 44.946191, "stands": 19, "update": "2015-11-04T12:00:48"}, "geometry": {"type": "Point", "coordinates": [-93.088802, 44.946191]}}, {"type": "Feature", "properties": {"status": "CLOSED", "lon": -93.089245, "address": "7th Street E & Wacouta Street", "name": "7th Street E & Wacouta Street", "bikes": 0, "lat": 44.950766, "stands": 15, "update": "2015-11-04T12:02:09"}, "geometry": {"type": "Point", "coordinates": [-93.089245, 44.950766]}}, {"type": "Feature", "properties": {"status": "CLOSED", "lon": -93.0845, "address": "Broadway Street N & 4th Street E", "name": "Broadway Street N & 4th Street E", "bikes": 0, "lat": 44.94965, "stands": 19, "update": "2015-11-04T12:03:15"}, "geometry": {"type": "Point", "coordinates": [-93.0845, 44.94965]}}, {"type": "Feature", "properties": {"status": "CLOSED", "lon": -93.10445, "address": "Minnesota Dept. of Transportation", "name": "Minnesota Dept. of Transportation", "bikes": 0, "lat": 44.95385, "stands": 15, "update": "2015-11-04T12:04:25"}, "geometry": {"type": "Point", "coordinates": [-93.10445, 44.95385]}}, {"type": "Feature", "properties": {"status": "CLOSED", "lon": -93.103863, "address": "Kellogg Blvd W & Smith Ave", "name": "Kellogg Blvd W & Smith Ave", "bikes": 0, "lat": 44.945173, "stands": 15, "update": "2015-11-04T12:02:06"}, "geometry": {"type": "Point", "coordinates": [-93.103863, 44.945173]}}, {"type": "Feature", "properties": {"status": "CLOSED", "lon": -93.08465, "address": "Lafayette Road & Grove Street", "name": "Lafayette Road & Grove Street", "bikes": 0, "lat": 44.956028, "stands": 18, "update": "2015-11-04T12:04:28"}, "geometry": {"type": "Point", "coordinates": [-93.08465, 44.956028]}}, {"type": "Feature", "properties": {"status": "CLOSED", "lon": -93.09231, "address": "5th Street E & Minnesota Street N", "name": "5th Street E & Minnesota Street N", "bikes": 0, "lat": 44.94683, "stands": 19, "update": "2015-11-04T12:02:56"}, "geometry": {"type": "Point", "coordinates": [-93.09231, 44.94683]}}, {"type": "Feature", "properties": {"status": "CLOSED", "lon": -93.096114, "address": "Landmark Plaza", "name": "Landmark Plaza", "bikes": 0, "lat": 44.945267, "stands": 19, "update": "2015-11-04T12:01:10"}, "geometry": {"type": "Point", "coordinates": [-93.096114, 44.945267]}}, {"type": "Feature", "properties": {"status": "CLOSED", "lon": -93.09663, "address": "Wells Fargo Place", "name": "Wells Fargo Place", "bikes": 0, "lat": 44.94813, "stands": 19, "update": "2015-11-04T12:02:05"}, "geometry": {"type": "Point", "coordinates": [-93.09663, 44.94813]}}, {"type": "Feature", "properties": {"status": "CLOSED", "lon": -93.0779, "address": "State Street & Cesar Chavez Street", "name": "State Street & Cesar Chavez Street", "bikes": 0, "lat": 44.93002, "stands": 15, "update": "2015-11-04T12:04:24"}, "geometry": {"type": "Point", "coordinates": [-93.0779, 44.93002]}}, {"type": "Feature", "properties": {"status": "CLOSED", "lon": -93.089031, "address": "Wabasha Street S & E Fillmore Ave", "name": "Wabasha Street S & E Fillmore Ave", "bikes": 0, "lat": 44.939047, "stands": 15, "update": "2015-11-04T12:01:14"}, "geometry": {"type": "Point", "coordinates": [-93.089031, 44.939047]}}, {"type": "Feature", "properties": {"status": "CLOSED", "lon": -93.094532, "address": "Harriet Island", "name": "Harriet Island", "bikes": 0, "lat": 44.93768, "stands": 19, "update": "2015-11-05T12:04:17"}, "geometry": {"type": "Point", "coordinates": [-93.094532, 44.93768]}}, {"type": "Feature", "properties": {"status": "CLOSED", "lon": -93.09227, "address": "Kellogg Blvd & Wabasha Street", "name": "Kellogg Blvd & Wabasha Street", "bikes": 0, "lat": 44.943846, "stands": 19, "update": "2015-11-04T12:03:37"}, "geometry": {"type": "Point", "coordinates": [-93.09227, 44.943846]}}, {"type": "Feature", "properties": {"status": "CLOSED", "lon": -93.084497, "address": "Wabasha Street S & Cesar Chavez Street", "name": "Wabasha Street S & Cesar Chavez Street", "bikes": 0, "lat": 44.934503, "stands": 15, "update": "2015-11-04T12:04:05"}, "geometry": {"type": "Point", "coordinates": [-93.084497, 44.934503]}}, {"type": "Feature", "properties": {"status": "CLOSED", "lon": -93.098712, "address": "Upper Landing", "name": "Upper Landing", "bikes": 0, "lat": 44.940902, "stands": 19, "update": "2015-11-05T12:03:25"}, "geometry": {"type": "Point", "coordinates": [-93.098712, 44.940902]}}, {"type": "Feature", "properties": {"status": "CLOSED", "lon": -93.10624, "address": "7th Street W & Grand Ave", "name": "7th Street W & Grand Ave", "bikes": 0, "lat": 44.94144, "stands": 19, "update": "2015-11-04T12:03:01"}, "geometry": {"type": "Point", "coordinates": [-93.10624, 44.94144]}}, {"type": "Feature", "properties": {"status": "CLOSED", "lon": -93.097836, "address": "Science Museum of Minnesota", "name": "Science Museum of Minnesota", "bikes": 0, "lat": 44.942846, "stands": 19, "update": "2015-11-04T12:01:57"}, "geometry": {"type": "Point", "coordinates": [-93.097836, 44.942846]}}, {"type": "Feature", "properties": {"status": "CLOSED", "lon": -93.1151, "address": "Selby Ave & Virginia Street", "name": "Selby Ave & Virginia Street", "bikes": 0, "lat": 44.9467, "stands": 19, "update": "2015-11-03T18:15:40"}, "geometry": {"type": "Point", "coordinates": [-93.1151, 44.9467]}}, {"type": "Feature", "properties": {"status": "CLOSED", "lon": -93.11665, "address": "University Ave & Western Ave", "name": "University Ave & Western Ave", "bikes": 0, "lat": 44.95562, "stands": 15, "update": "2015-11-04T12:02:32"}, "geometry": {"type": "Point", "coordinates": [-93.11665, 44.95562]}}, {"type": "Feature", "properties": {"status": "CLOSED", "lon": -93.097817, "address": "E 14th Street & N Robert Street ", "name": "E 14th Street & N Robert Street ", "bikes": 0, "lat": 44.954697, "stands": 17, "update": "2015-11-04T12:02:31"}, "geometry": {"type": "Point", "coordinates": [-93.097817, 44.954697]}}, {"type": "Feature", "properties": {"status": "CLOSED", "lon": -93.10955, "address": "N Marion Street & University Ave W", "name": "N Marion Street & University Ave W", "bikes": 0, "lat": 44.95476, "stands": 15, "update": "2015-11-04T12:02:24"}, "geometry": {"type": "Point", "coordinates": [-93.10955, 44.95476]}}, {"type": "Feature", "properties": {"status": "CLOSED", "lon": -93.094545, "address": "N Robert Street & E 10th Street", "name": "N Robert Street & E 10th Street", "bikes": 0, "lat": 44.951132, "stands": 19, "update": "2015-11-04T12:04:03"}, "geometry": {"type": "Point", "coordinates": [-93.094545, 44.951132]}}, {"type": "Feature", "properties": {"status": "CLOSED", "lon": -93.277505, "address": "9th Street N & Hawthorne Ave", "name": "9th Street N & Hawthorne Ave", "bikes": 0, "lat": 44.977128, "stands": 25, "update": "2015-11-02T12:01:01"}, "geometry": {"type": "Point", "coordinates": [-93.277505, 44.977128]}}, {"type": "Feature", "properties": {"status": "CLOSED", "lon": -93.256736, "address": "Chicago Ave & Washington Ave S", "name": "Chicago Ave & Washington Ave S", "bikes": 0, "lat": 44.977521, "stands": 19, "update": "2015-11-02T16:37:18"}, "geometry": {"type": "Point", "coordinates": [-93.256736, 44.977521]}}, {"type": "Feature", "properties": {"status": "CLOSED", "lon": -93.269087, "address": "N 4th Ave & W River Parkway", "name": "N 4th Ave & W River Parkway", "bikes": 0, "lat": 44.988461, "stands": 15, "update": "2015-11-03T16:29:31"}, "geometry": {"type": "Point", "coordinates": [-93.269087, 44.988461]}}, {"type": "Feature", "properties": {"status": "CLOSED", "lon": -93.277037, "address": "Minneapolis Park & Recreation Board", "name": "Minneapolis Park & Recreation Board", "bikes": 0, "lat": 45.00095, "stands": 15, "update": "2015-11-03T12:03:13"}, "geometry": {"type": "Point", "coordinates": [-93.277037, 45.00095]}}, {"type": "Feature", "properties": {"status": "CLOSED", "lon": -93.29065, "address": "Webber Park", "name": "Webber Park", "bikes": 0, "lat": 45.033069, "stands": 15, "update": "2015-11-06T12:02:49"}, "geometry": {"type": "Point", "coordinates": [-93.29065, 45.033069]}}, {"type": "Feature", "properties": {"status": "CLOSED", "lon": -93.187381, "address": "Fort Snelling Visitor Center", "name": "Fort Snelling Visitor Center", "bikes": 0, "lat": 44.894044, "stands": 19, "update": "2015-11-05T12:04:20"}, "geometry": {"type": "Point", "coordinates": [-93.187381, 44.894044]}}, {"type": "Feature", "properties": {"status": "CLOSED", "lon": -93.213587, "address": "Minnehaha Park", "name": "Minnehaha Park", "bikes": 0, "lat": 44.916906, "stands": 27, "update": "2015-11-02T16:12:46"}, "geometry": {"type": "Point", "coordinates": [-93.213587, 44.916906]}}, {"type": "Feature", "properties": {"status": "CLOSED", "lon": -93.30713, "address": "Lake Harriet Bandshell", "name": "Lake Harriet Bandshell", "bikes": 0, "lat": 44.92936, "stands": 25, "update": "2015-11-05T12:03:34"}, "geometry": {"type": "Point", "coordinates": [-93.30713, 44.92936]}}, {"type": "Feature", "properties": {"status": "CLOSED", "lon": -93.242761, "address": "Lake Nokomis", "name": "Lake Nokomis", "bikes": 0, "lat": 44.915957, "stands": 23, "update": "2015-11-06T12:03:51"}, "geometry": {"type": "Point", "coordinates": [-93.242761, 44.915957]}}, {"type": "Feature", "properties": {"status": "CLOSED", "lon": -93.2125, "address": "E 38th Street & 42nd Ave S", "name": "E 38th Street & 42nd Ave S", "bikes": 0, "lat": 44.9342, "stands": 15, "update": "2015-11-02T15:40:24"}, "geometry": {"type": "Point", "coordinates": [-93.2125, 44.9342]}}, {"type": "Feature", "properties": {"status": "CLOSED", "lon": -93.320212, "address": "W 36th Street & W Calhoun Parkway", "name": "W 36th Street & W Calhoun Parkway", "bikes": 0, "lat": 44.937817, "stands": 19, "update": "2015-11-05T12:00:59"}, "geometry": {"type": "Point", "coordinates": [-93.320212, 44.937817]}}, {"type": "Feature", "properties": {"status": "CLOSED", "lon": -93.206201, "address": "Lake Street & West River Parkway", "name": "Lake Street & West River Parkway", "bikes": 0, "lat": 44.948452, "stands": 15, "update": "2015-11-02T15:48:18"}, "geometry": {"type": "Point", "coordinates": [-93.206201, 44.948452]}}, {"type": "Feature", "properties": {"status": "CLOSED", "lon": -93.293129, "address": "Dupont Ave S & W 29th Street", "name": "Dupont Ave S & W 29th Street", "bikes": 0, "lat": 44.949699, "stands": 15, "update": "2015-11-02T18:14:58"}, "geometry": {"type": "Point", "coordinates": [-93.293129, 44.949699]}}, {"type": "Feature", "properties": {"status": "CLOSED", "lon": -93.314597, "address": "Upton Ave S & Sheridan Ave S", "name": "Upton Ave S & Sheridan Ave S", "bikes": 0, "lat": 44.92515, "stands": 19, "update": "2015-11-05T12:05:16"}, "geometry": {"type": "Point", "coordinates": [-93.314597, 44.92515]}}, {"type": "Feature", "properties": {"status": "CLOSED", "lon": -93.233092, "address": "27th Ave S & Minnehaha Ave", "name": "27th Ave S & Minnehaha Ave", "bikes": 0, "lat": 44.947329, "stands": 15, "update": "2015-11-02T16:50:22"}, "geometry": {"type": "Point", "coordinates": [-93.233092, 44.947329]}}, {"type": "Feature", "properties": {"status": "CLOSED", "lon": -93.198283, "address": "Coldwater Spring", "name": "Coldwater Spring", "bikes": 0, "lat": 44.905043, "stands": 15, "update": "2015-11-05T12:05:02"}, "geometry": {"type": "Point", "coordinates": [-93.198283, 44.905043]}}, {"type": "Feature", "properties": {"status": "CLOSED", "lon": -93.21953, "address": "46th Street Light Rail Station", "name": "46th Street Light Rail Station", "bikes": 0, "lat": 44.920466, "stands": 19, "update": "2015-11-02T16:19:56"}, "geometry": {"type": "Point", "coordinates": [-93.21953, 44.920466]}}, {"type": "Feature", "properties": {"status": "CLOSED", "lon": -93.229338, "address": "38th Street Light Rail Station", "name": "38th Street Light Rail Station", "bikes": 0, "lat": 44.93434, "stands": 15, "update": "2015-11-02T15:27:48"}, "geometry": {"type": "Point", "coordinates": [-93.229338, 44.93434]}}, {"type": "Feature", "properties": {"status": "CLOSED", "lon": -93.187264, "address": "Cleveland Ave S & Highland Parkway", "name": "Cleveland Ave S & Highland Parkway", "bikes": 0, "lat": 44.919593, "stands": 15, "update": "2015-11-02T16:05:44"}, "geometry": {"type": "Point", "coordinates": [-93.187264, 44.919593]}}, {"type": "Feature", "properties": {"status": "CLOSED", "lon": -93.252189, "address": "11th Ave S & S 2nd Street", "name": "11th Ave S & S 2nd Street", "bikes": 0, "lat": 44.97673, "stands": 3, "update": "2015-11-02T16:04:48"}, "geometry": {"type": "Point", "coordinates": [-93.252189, 44.97673]}}, {"type": "Feature", "properties": {"status": "CLOSED", "lon": -93.268633, "address": "Broadway & Marshall Street NE", "name": "Broadway & Marshall Street NE", "bikes": 0, "lat": 44.998613, "stands": 15, "update": "2015-11-03T15:28:19"}, "geometry": {"type": "Point", "coordinates": [-93.268633, 44.998613]}}, {"type": "Feature", "properties": {"status": "CLOSED", "lon": -93.271571, "address": "Marshall Street NE & 18th Ave NE", "name": "Marshall Street NE & 18th Ave NE", "bikes": 0, "lat": 45.006229, "stands": 15, "update": "2015-11-03T12:03:59"}, "geometry": {"type": "Point", "coordinates": [-93.271571, 45.006229]}}, {"type": "Feature", "properties": {"status": "CLOSED", "lon": -93.270256, "address": "Boom Island Park", "name": "Boom Island Park", "bikes": 0, "lat": 44.99254, "stands": 15, "update": "2015-11-03T12:01:31"}, "geometry": {"type": "Point", "coordinates": [-93.270256, 44.99254]}}, {"type": "Feature", "properties": {"status": "CLOSED", "lon": -93.197997, "address": "Mississippi River Blvd & Summit Ave", "name": "Mississippi River Blvd & Summit Ave", "bikes": 0, "lat": 44.940288, "stands": 15, "update": "2015-11-03T20:34:25"}, "geometry": {"type": "Point", "coordinates": [-93.197997, 44.940288]}}, {"type": "Feature", "properties": {"status": "CLOSED", "lon": -93.191837, "address": "University of St. Thomas", "name": "University of St. Thomas", "bikes": 0, "lat": 44.943017, "stands": 19, "update": "2015-11-02T15:47:39"}, "geometry": {"type": "Point", "coordinates": [-93.191837, 44.943017]}}, {"type": "Feature", "properties": {"status": "CLOSED", "lon": -93.18237, "address": "Fort Snelling State Park", "name": "Fort Snelling State Park", "bikes": 0, "lat": 44.890527, "stands": 19, "update": "2015-11-05T12:01:43"}, "geometry": {"type": "Point", "coordinates": [-93.18237, 44.890527]}}, {"type": "Feature", "properties": {"status": "CLOSED", "lon": -93.27166, "address": "Marshall Street NE & Lowry Ave", "name": "Marshall Street NE & Lowry Ave", "bikes": 0, "lat": 45.01312, "stands": 15, "update": "2015-11-03T12:02:07"}, "geometry": {"type": "Point", "coordinates": [-93.27166, 45.01312]}}, {"type": "Feature", "properties": {"status": "CLOSED", "lon": -93.278133, "address": "Nicollet Mall & Grant Street", "name": "Nicollet Mall & Grant Street", "bikes": 0, "lat": 44.96995, "stands": 15, "update": "2015-11-05T12:03:50"}, "geometry": {"type": "Point", "coordinates": [-93.278133, 44.96995]}}, {"type": "Feature", "properties": {"status": "CLOSED", "lon": -93.305209, "address": "Lake Street & Knox Ave S", "name": "Lake Street & Knox Ave S", "bikes": 0, "lat": 44.9485, "stands": 33, "update": "2015-11-02T20:20:28"}, "geometry": {"type": "Point", "coordinates": [-93.305209, 44.9485]}}, {"type": "Feature", "properties": {"status": "CLOSED", "lon": -93.26145, "address": "Nicollet Island", "name": "Nicollet Island", "bikes": 0, "lat": 44.985388, "stands": 15, "update": "2015-11-03T12:02:55"}, "geometry": {"type": "Point", "coordinates": [-93.26145, 44.985388]}}, {"type": "Feature", "properties": {"status": "CLOSED", "lon": -93.270503282547, "address": "5th Street & Nicollet Mall", "name": "5th Street & Nicollet Mall", "bikes": 0, "lat": 44.978665179559, "stands": 19, "update": "2015-11-03T18:09:34"}, "geometry": {"type": "Point", "coordinates": [-93.270503282547, 44.978665179559]}}, {"type": "Feature", "properties": {"status": "CLOSED", "lon": -93.270649, "address": "8th Street & 2nd Ave S", "name": "8th Street & 2nd Ave S", "bikes": 0, "lat": 44.974795, "stands": 19, "update": "2015-11-03T12:03:29"}, "geometry": {"type": "Point", "coordinates": [-93.270649, 44.974795]}}, {"type": "Feature", "properties": {"status": "CLOSED", "lon": -93.252102, "address": "SE 3rd Ave & University Ave SE", "name": "SE 3rd Ave & University Ave SE", "bikes": 0, "lat": 44.985465, "stands": 15, "update": "2015-11-03T12:04:08"}, "geometry": {"type": "Point", "coordinates": [-93.252102, 44.985465]}}, {"type": "Feature", "properties": {"status": "CLOSED", "lon": -93.249653, "address": "2nd Street SE & 5th Ave SE", "name": "2nd Street SE & 5th Ave SE", "bikes": 0, "lat": 44.983321, "stands": 15, "update": "2015-11-03T12:03:05"}, "geometry": {"type": "Point", "coordinates": [-93.249653, 44.983321]}}, {"type": "Feature", "properties": {"status": "CLOSED", "lon": -93.240282, "address": "Sanford Hall", "name": "Sanford Hall", "bikes": 0, "lat": 44.980831, "stands": 23, "update": "2015-11-04T12:03:03"}, "geometry": {"type": "Point", "coordinates": [-93.240282, 44.980831]}}, {"type": "Feature", "properties": {"status": "CLOSED", "lon": -93.221021, "address": "Delaware St SE & 26th Ave SE", "name": "Delaware St SE & 26th Ave SE", "bikes": 0, "lat": 44.972128, "stands": 19, "update": "2015-11-05T12:02:07"}, "geometry": {"type": "Point", "coordinates": [-93.221021, 44.972128]}}, {"type": "Feature", "properties": {"status": "CLOSED", "lon": -93.237254, "address": "Weisman Art Museum", "name": "Weisman Art Museum", "bikes": 0, "lat": 44.973607, "stands": 18, "update": "2015-11-05T12:04:15"}, "geometry": {"type": "Point", "coordinates": [-93.237254, 44.973607]}}, {"type": "Feature", "properties": {"status": "CLOSED", "lon": -93.268604, "address": "1st Ave N & 2nd Street N", "name": "1st Ave N & 2nd Street N", "bikes": 0, "lat": 44.983902, "stands": 19, "update": "2015-11-03T18:43:18"}, "geometry": {"type": "Point", "coordinates": [-93.268604, 44.983902]}}, {"type": "Feature", "properties": {"status": "CLOSED", "lon": -93.279854, "address": "3rd Street N & 8th Ave N", "name": "3rd Street N & 8th Ave N", "bikes": 0, "lat": 44.987996, "stands": 19, "update": "2015-11-03T15:53:41"}, "geometry": {"type": "Point", "coordinates": [-93.279854, 44.987996]}}, {"type": "Feature", "properties": {"status": "CLOSED", "lon": -93.277234, "address": "5th Ave N & 4th Street N", "name": "5th Ave N & 4th Street N", "bikes": 0, "lat": 44.98446, "stands": 19, "update": "2015-11-03T15:39:25"}, "geometry": {"type": "Point", "coordinates": [-93.277234, 44.98446]}}, {"type": "Feature", "properties": {"status": "CLOSED", "lon": -93.274031, "address": "Washington Ave N & Cedar Lake Trail", "name": "Washington Ave N & Cedar Lake Trail", "bikes": 0, "lat": 44.985406, "stands": 19, "update": "2015-11-03T15:42:20"}, "geometry": {"type": "Point", "coordinates": [-93.274031, 44.985406]}}, {"type": "Feature", "properties": {"status": "OPEN", "lon": -93.269195, "address": "Hennepin Ave & S Washington Ave", "name": "Hennepin Ave & S Washington Ave", "bikes": 0, "lat": 44.981895, "stands": 23, "update": "2015-10-28T15:26:35"}, "geometry": {"type": "Point", "coordinates": [-93.269195, 44.981895]}}, {"type": "Feature", "properties": {"status": "CLOSED", "lon": -93.286294, "address": "Groveland Ave & Clifton Place", "name": "Groveland Ave & Clifton Place", "bikes": 0, "lat": 44.966145, "stands": 18, "update": "2015-11-02T19:09:19"}, "geometry": {"type": "Point", "coordinates": [-93.286294, 44.966145]}}, {"type": "Feature", "properties": {"status": "CLOSED", "lon": -93.254295, "address": "5th Street NE & 1st Ave NE", "name": "5th Street NE & 1st Ave NE", "bikes": 0, "lat": 44.990328, "stands": 15, "update": "2015-11-03T17:08:39"}, "geometry": {"type": "Point", "coordinates": [-93.254295, 44.990328]}}, {"type": "Feature", "properties": {"status": "CLOSED", "lon": -93.255558, "address": "5th Street NE & 3rd Ave NE", "name": "5th Street NE & 3rd Ave NE", "bikes": 0, "lat": 44.991821, "stands": 14, "update": "2015-11-02T23:27:35"}, "geometry": {"type": "Point", "coordinates": [-93.255558, 44.991821]}}, {"type": "Feature", "properties": {"status": "CLOSED", "lon": -93.264573, "address": "3rd Street NE & Lowry Ave NE", "name": "3rd Street NE & Lowry Ave NE", "bikes": 0, "lat": 45.01304, "stands": 15, "update": "2015-11-03T12:00:49"}, "geometry": {"type": "Point", "coordinates": [-93.264573, 45.01304]}}, {"type": "Feature", "properties": {"status": "CLOSED", "lon": -93.268598, "address": "22nd Ave NE & California Street NE", "name": "22nd Ave NE & California Street NE", "bikes": 0, "lat": 45.010119, "stands": 15, "update": "2015-11-03T12:01:01"}, "geometry": {"type": "Point", "coordinates": [-93.268598, 45.010119]}}, {"type": "Feature", "properties": {"status": "CLOSED", "lon": -93.19782, "address": "Fort Snelling LRT Station", "name": "Fort Snelling LRT Station", "bikes": 0, "lat": 44.892483, "stands": 15, "update": "2015-11-06T16:04:11"}, "geometry": {"type": "Point", "coordinates": [-93.19782, 44.892483]}}, {"type": "Feature", "properties": {"status": "CLOSED", "lon": -93.266553, "address": "18th Ave Trail & 2nd Street NE", "name": "18th Ave Trail & 2nd Street NE", "bikes": 0, "lat": 45.006321, "stands": 15, "update": "2015-11-03T12:05:17"}, "geometry": {"type": "Point", "coordinates": [-93.266553, 45.006321]}}, {"type": "Feature", "properties": {"status": "CLOSED", "lon": -93.220066, "address": "Nice Ride World Headquarters", "name": "Nice Ride World Headquarters", "bikes": 0, "lat": 44.953566, "stands": 3, "update": "2015-11-04T00:00:56"}, "geometry": {"type": "Point", "coordinates": [-93.220066, 44.953566]}}]}