{"features": [{"geometry": {"coordinates": [-93.256551, 44.984892], "type": "Point"}, "properties": {"name": "100 Main Street SE", "lon": -93.256551, "status": "CLOSED", "stands": 27, "bikes": 0, "update": "2015-11-04T12:04:04", "lat": 44.984892, "address": "100 Main Street SE"}, "type": "Feature"}, {"geometry": {"coordinates": [-93.223374, 44.957341], "type": "Point"}, "properties": {"name": "25th Street & 33rd Ave S", "lon": -93.223374, "status": "CLOSED", "stands": 15, "bikes": 0, "update": "2015-11-02T15:35:25", "lat": 44.957341, "address": "25th Street & 33rd Ave S"}, "type": "Feature"}, {"geometry": {"coordinates": [-93.240149, 44.967115], "type": "Point"}, "properties": {"name": "Riverside Ave & 23rd Ave S", "lon": -93.240149, "status": "CLOSED", "stands": 15, "bikes": 0, "update": "2015-11-02T17:49:24", "lat": 44.967115, "address": "Riverside Ave & 23rd Ave S"}, "type": "Feature"}, {"geometry": {"coordinates": [-93.306269, 44.991412], "type": "Point"}, "properties": {"name": "Plymouth Ave N &  N Oliver Ave", "lon": -93.306269, "status": "CLOSED", "stands": 15, "bikes": 0, "update": "2015-11-03T12:02:28", "lat": 44.991412, "address": "Plymouth Ave N &  N Oliver Ave"}, "type": "Feature"}, {"geometry": {"coordinates": [-93.27869, 44.97534], "type": "Point"}, "properties": {"name": "11th Street & Hennepin", "lon": -93.27869, "status": "CLOSED", "stands": 23, "bikes": 0, "update": "2015-11-02T20:11:46", "lat": 44.97534, "address": "11th Street & Hennepin"}, "type": "Feature"}, {"geometry": {"coordinates": [-93.25392, 44.98889], "type": "Point"}, "properties": {"name": "Hennepin & Central Avenue NE", "lon": -93.25392, "status": "CLOSED", "stands": 15, "bikes": 0, "update": "2015-11-03T12:02:59", "lat": 44.98889, "address": "Hennepin & Central Avenue NE"}, "type": "Feature"}, {"geometry": {"coordinates": [-93.276435, 44.972217], "type": "Point"}, "properties": {"name": "YWCA Downtown", "lon": -93.276435, "status": "CLOSED", "stands": 23, "bikes": 0, "update": "2015-11-05T12:03:53", "lat": 44.972217, "address": "YWCA Downtown"}, "type": "Feature"}, {"geometry": {"coordinates": [-93.26872, 44.97265], "type": "Point"}, "properties": {"name": "9th Street & 4th Ave", "lon": -93.26872, "status": "CLOSED", "stands": 19, "bikes": 0, "update": "2015-11-02T17:36:26", "lat": 44.97265, "address": "9th Street & 4th Ave"}, "type": "Feature"}, {"geometry": {"coordinates": [-93.2602, 44.94859], "type": "Point"}, "properties": {"name": "Midtown Exchange", "lon": -93.2602, "status": "CLOSED", "stands": 19, "bikes": 0, "update": "2015-11-02T16:50:41", "lat": 44.94859, "address": "Midtown Exchange"}, "type": "Feature"}, {"geometry": {"coordinates": [-93.23746, 44.98102], "type": "Point"}, "properties": {"name": "4th Street & 13th Ave SE", "lon": -93.23746, "status": "CLOSED", "stands": 19, "bikes": 0, "update": "2015-11-04T12:04:16", "lat": 44.98102, "address": "4th Street & 13th Ave SE"}, "type": "Feature"}, {"geometry": {"coordinates": [-93.28305, 44.97391], "type": "Point"}, "properties": {"name": "Hennepin & Laurel Ave", "lon": -93.28305, "status": "CLOSED", "stands": 15, "bikes": 0, "update": "2015-11-02T20:06:54", "lat": 44.97391, "address": "Hennepin & Laurel Ave"}, "type": "Feature"}, {"geometry": {"coordinates": [-93.272459, 44.986087], "type": "Point"}, "properties": {"name": "North 2nd Street & 4th Ave N", "lon": -93.272459, "status": "CLOSED", "stands": 19, "bikes": 0, "update": "2015-11-03T16:25:14", "lat": 44.986087, "address": "North 2nd Street & 4th Ave N"}, "type": "Feature"}, {"geometry": {"coordinates": [-93.275861, 44.970041], "type": "Point"}, "properties": {"name": "Mpls Convention Center", "lon": -93.275861, "status": "CLOSED", "stands": 19, "bikes": 0, "update": "2015-11-03T12:02:31", "lat": 44.970041, "address": "Mpls Convention Center"}, "type": "Feature"}, {"geometry": {"coordinates": [-93.288227319717, 44.949484653766], "type": "Point"}, "properties": {"name": "Lyndale Ave S & W 29th Street", "lon": -93.288227319717, "status": "CLOSED", "stands": 19, "bikes": 0, "update": "2015-11-03T12:00:33", "lat": 44.949484653766, "address": "Lyndale Ave S & W 29th Street"}, "type": "Feature"}, {"geometry": {"coordinates": [-93.241042, 44.96293], "type": "Point"}, "properties": {"name": "22nd Ave S & Franklin Ave", "lon": -93.241042, "status": "CLOSED", "stands": 15, "bikes": 0, "update": "2015-11-02T17:04:42", "lat": 44.96293, "address": "22nd Ave S & Franklin Ave"}, "type": "Feature"}, {"geometry": {"coordinates": [-93.24748, 44.97344], "type": "Point"}, "properties": {"name": "Washington & Cedar", "lon": -93.24748, "status": "CLOSED", "stands": 20, "bikes": 0, "update": "2015-11-02T12:03:06", "lat": 44.97344, "address": "Washington & Cedar"}, "type": "Feature"}, {"geometry": {"coordinates": [-93.28848, 44.96746], "type": "Point"}, "properties": {"name": "Walker Art Center", "lon": -93.28848, "status": "CLOSED", "stands": 17, "bikes": 0, "update": "2015-11-04T18:12:24", "lat": 44.96746, "address": "Walker Art Center"}, "type": "Feature"}, {"geometry": {"coordinates": [-93.28815, 44.960744], "type": "Point"}, "properties": {"name": "Lyndale Ave S & 22nd Street ", "lon": -93.28815, "status": "CLOSED", "stands": 19, "bikes": 0, "update": "2015-11-02T18:36:19", "lat": 44.960744, "address": "Lyndale Ave S & 22nd Street "}, "type": "Feature"}, {"geometry": {"coordinates": [-93.274981, 44.957214], "type": "Point"}, "properties": {"name": "MCAD", "lon": -93.274981, "status": "CLOSED", "stands": 17, "bikes": 0, "update": "2015-11-04T18:44:19", "lat": 44.957214, "address": "MCAD"}, "type": "Feature"}, {"geometry": {"coordinates": [-93.243754, 44.971359], "type": "Point"}, "properties": {"name": "Social Sciences", "lon": -93.243754, "status": "CLOSED", "stands": 28, "bikes": 0, "update": "2015-11-04T12:01:02", "lat": 44.971359, "address": "Social Sciences"}, "type": "Feature"}, {"geometry": {"coordinates": [-93.29853, 44.95131], "type": "Point"}, "properties": {"name": "YWCA Uptown", "lon": -93.29853, "status": "CLOSED", "stands": 19, "bikes": 0, "update": "2015-11-03T12:00:35", "lat": 44.95131, "address": "YWCA Uptown"}, "type": "Feature"}, {"geometry": {"coordinates": [-93.27099, 44.98383], "type": "Point"}, "properties": {"name": "Washington & 2nd Ave N", "lon": -93.27099, "status": "CLOSED", "stands": 19, "bikes": 0, "update": "2015-11-03T17:01:37", "lat": 44.98383, "address": "Washington & 2nd Ave N"}, "type": "Feature"}, {"geometry": {"coordinates": [-93.28775, 44.95548], "type": "Point"}, "properties": {"name": "26th Street & Lyndale", "lon": -93.28775, "status": "CLOSED", "stands": 15, "bikes": 0, "update": "2015-11-02T20:50:58", "lat": 44.95548, "address": "26th Street & Lyndale"}, "type": "Feature"}, {"geometry": {"coordinates": [-93.26259, 44.95355], "type": "Point"}, "properties": {"name": "Chicago & 27th Street", "lon": -93.26259, "status": "CLOSED", "stands": 15, "bikes": 0, "update": "2015-11-02T16:57:05", "lat": 44.95355, "address": "Chicago & 27th Street"}, "type": "Feature"}, {"geometry": {"coordinates": [-93.234762, 44.973378], "type": "Point"}, "properties": {"name": "Coffman Union", "lon": -93.234762, "status": "CLOSED", "stands": 3, "bikes": 0, "update": "2015-11-03T19:21:58", "lat": 44.973378, "address": "Coffman Union"}, "type": "Feature"}, {"geometry": {"coordinates": [-93.234911, 44.977406], "type": "Point"}, "properties": {"name": "Williamson Hall", "lon": -93.234911, "status": "CLOSED", "stands": 25, "bikes": 0, "update": "2015-11-04T12:01:44", "lat": 44.977406, "address": "Williamson Hall"}, "type": "Feature"}, {"geometry": {"coordinates": [-93.23206, 44.97209], "type": "Point"}, "properties": {"name": "Mayo Memorial Building", "lon": -93.23206, "status": "CLOSED", "stands": 25, "bikes": 0, "update": "2015-11-04T12:02:17", "lat": 44.97209, "address": "Mayo Memorial Building"}, "type": "Feature"}, {"geometry": {"coordinates": [-93.24519, 44.97003], "type": "Point"}, "properties": {"name": "4th Street S & 19th Ave", "lon": -93.24519, "status": "CLOSED", "stands": 19, "bikes": 0, "update": "2015-11-02T12:02:53", "lat": 44.97003, "address": "4th Street S & 19th Ave"}, "type": "Feature"}, {"geometry": {"coordinates": [-93.266925215721, 44.980873610847], "type": "Point"}, "properties": {"name": "Washington & Marquette", "lon": -93.266925215721, "status": "CLOSED", "stands": 19, "bikes": 0, "update": "2015-11-03T15:58:52", "lat": 44.980873610847, "address": "Washington & Marquette"}, "type": "Feature"}, {"geometry": {"coordinates": [-93.266701, 44.976602], "type": "Point"}, "properties": {"name": "Hennepin County Government Center", "lon": -93.266701, "status": "CLOSED", "stands": 27, "bikes": 0, "update": "2015-11-02T12:01:15", "lat": 44.976602, "address": "Hennepin County Government Center"}, "type": "Feature"}, {"geometry": {"coordinates": [-93.2583, 44.96251], "type": "Point"}, "properties": {"name": "Franklin & 11th Ave", "lon": -93.2583, "status": "CLOSED", "stands": 15, "bikes": 0, "update": "2015-11-02T17:18:16", "lat": 44.96251, "address": "Franklin & 11th Ave"}, "type": "Feature"}, {"geometry": {"coordinates": [-93.22697, 44.97202], "type": "Point"}, "properties": {"name": "Oak Street Ramp", "lon": -93.22697, "status": "CLOSED", "stands": 23, "bikes": 0, "update": "2015-11-04T12:03:19", "lat": 44.97202, "address": "Oak Street Ramp"}, "type": "Feature"}, {"geometry": {"coordinates": [-93.263454437256, 44.980926733576], "type": "Point"}, "properties": {"name": "South 2nd Street & 3rd Ave S", "lon": -93.263454437256, "status": "CLOSED", "stands": 27, "bikes": 0, "update": "2015-11-03T16:03:17", "lat": 44.980926733576, "address": "South 2nd Street & 3rd Ave S"}, "type": "Feature"}, {"geometry": {"coordinates": [-93.221639, 44.977028], "type": "Point"}, "properties": {"name": "23rd Ave SE & 6th Street SE", "lon": -93.221639, "status": "CLOSED", "stands": 18, "bikes": 0, "update": "2015-11-03T12:00:54", "lat": 44.977028, "address": "23rd Ave SE & 6th Street SE"}, "type": "Feature"}, {"geometry": {"coordinates": [-93.23189, 44.97913], "type": "Point"}, "properties": {"name": "4th Street & 17th Ave SE", "lon": -93.23189, "status": "CLOSED", "stands": 15, "bikes": 0, "update": "2015-11-03T17:25:28", "lat": 44.97913, "address": "4th Street & 17th Ave SE"}, "type": "Feature"}, {"geometry": {"coordinates": [-93.284927, 44.9715], "type": "Point"}, "properties": {"name": "Loring Park", "lon": -93.284927, "status": "CLOSED", "stands": 15, "bikes": 0, "update": "2015-11-02T20:02:54", "lat": 44.9715, "address": "Loring Park"}, "type": "Feature"}, {"geometry": {"coordinates": [-93.269217, 44.980199], "type": "Point"}, "properties": {"name": "Downtown Library", "lon": -93.269217, "status": "CLOSED", "stands": 31, "bikes": 0, "update": "2015-11-03T19:45:55", "lat": 44.980199, "address": "Downtown Library"}, "type": "Feature"}, {"geometry": {"coordinates": [-93.251136, 44.969225], "type": "Point"}, "properties": {"name": "Currie Park", "lon": -93.251136, "status": "CLOSED", "stands": 15, "bikes": 0, "update": "2015-11-02T17:57:24", "lat": 44.969225, "address": "Currie Park"}, "type": "Feature"}, {"geometry": {"coordinates": [-93.252269, 44.96285], "type": "Point"}, "properties": {"name": "E Franklin Ave & Bloomington Ave S", "lon": -93.252269, "status": "CLOSED", "stands": 15, "bikes": 0, "update": "2015-11-02T17:05:18", "lat": 44.96285, "address": "E Franklin Ave & Bloomington Ave S"}, "type": "Feature"}, {"geometry": {"coordinates": [-93.274544, 44.973839], "type": "Point"}, "properties": {"name": "10th Street & Nicollet Mall", "lon": -93.274544, "status": "CLOSED", "stands": 0, "bikes": 0, "update": "1970-01-01T01:00:00", "lat": 44.973839, "address": "10th Street & Nicollet Mall"}, "type": "Feature"}, {"geometry": {"coordinates": [-93.27405, 44.97265], "type": "Point"}, "properties": {"name": "11th Street & Marquette", "lon": -93.27405, "status": "CLOSED", "stands": 19, "bikes": 0, "update": "2015-11-05T12:03:12", "lat": 44.97265, "address": "11th Street & Marquette"}, "type": "Feature"}, {"geometry": {"coordinates": [-93.267526, 44.962846], "type": "Point"}, "properties": {"name": "Franklin & Portland", "lon": -93.267526, "status": "CLOSED", "stands": 15, "bikes": 0, "update": "2015-11-02T17:40:32", "lat": 44.962846, "address": "Franklin & Portland"}, "type": "Feature"}, {"geometry": {"coordinates": [-93.272185, 44.975641], "type": "Point"}, "properties": {"name": "IDS Center", "lon": -93.272185, "status": "CLOSED", "stands": 23, "bikes": 0, "update": "2015-11-02T20:53:36", "lat": 44.975641, "address": "IDS Center"}, "type": "Feature"}, {"geometry": {"coordinates": [-93.30077, 44.94865], "type": "Point"}, "properties": {"name": "Lake Street & Humboldt", "lon": -93.30077, "status": "CLOSED", "stands": 19, "bikes": 0, "update": "2015-11-02T21:04:39", "lat": 44.94865, "address": "Lake Street & Humboldt"}, "type": "Feature"}, {"geometry": {"coordinates": [-93.29714298, 44.9554734], "type": "Point"}, "properties": {"name": "26th Street & Hennepin", "lon": -93.29714298, "status": "CLOSED", "stands": 15, "bikes": 0, "update": "2015-11-02T18:20:24", "lat": 44.9554734, "address": "26th Street & Hennepin"}, "type": "Feature"}, {"geometry": {"coordinates": [-93.230893, 44.962701], "type": "Point"}, "properties": {"name": "Franklin & 28th Ave", "lon": -93.230893, "status": "CLOSED", "stands": 19, "bikes": 0, "update": "2015-11-02T17:38:37", "lat": 44.962701, "address": "Franklin & 28th Ave"}, "type": "Feature"}, {"geometry": {"coordinates": [-93.25576, 44.98717], "type": "Point"}, "properties": {"name": "University & Bank Street SE", "lon": -93.25576, "status": "CLOSED", "stands": 19, "bikes": 0, "update": "2015-11-03T12:03:42", "lat": 44.98717, "address": "University & Bank Street SE"}, "type": "Feature"}, {"geometry": {"coordinates": [-93.29303, 44.96146], "type": "Point"}, "properties": {"name": "Dupont Ave & 22nd Street", "lon": -93.29303, "status": "CLOSED", "stands": 15, "bikes": 0, "update": "2015-11-02T18:28:18", "lat": 44.96146, "address": "Dupont Ave & 22nd Street"}, "type": "Feature"}, {"geometry": {"coordinates": [-93.26599, 44.97974], "type": "Point"}, "properties": {"name": "3rd Street S & 2nd Ave S", "lon": -93.26599, "status": "CLOSED", "stands": 27, "bikes": 0, "update": "2015-11-03T18:51:46", "lat": 44.97974, "address": "3rd Street S & 2nd Ave S"}, "type": "Feature"}, {"geometry": {"coordinates": [-93.275626, 44.980536], "type": "Point"}, "properties": {"name": "2nd Ave N & N 6th Street", "lon": -93.275626, "status": "CLOSED", "stands": 23, "bikes": 0, "update": "2015-11-03T12:03:18", "lat": 44.980536, "address": "2nd Ave N & N 6th Street"}, "type": "Feature"}, {"geometry": {"coordinates": [-93.25535, 44.97654], "type": "Point"}, "properties": {"name": "Washington Ave S & 10th Ave S", "lon": -93.25535, "status": "CLOSED", "stands": 19, "bikes": 0, "update": "2015-11-02T16:16:45", "lat": 44.97654, "address": "Washington Ave S & 10th Ave S"}, "type": "Feature"}, {"geometry": {"coordinates": [-93.27796, 44.95618], "type": "Point"}, "properties": {"name": "Nicollet Ave & W 26th Street", "lon": -93.27796, "status": "CLOSED", "stands": 15, "bikes": 0, "update": "2015-11-02T17:50:41", "lat": 44.95618, "address": "Nicollet Ave & W 26th Street"}, "type": "Feature"}, {"geometry": {"coordinates": [-93.266684, 44.97497], "type": "Point"}, "properties": {"name": "7th Street & 4th Ave. S", "lon": -93.266684, "status": "CLOSED", "stands": 15, "bikes": 0, "update": "2015-11-02T17:27:25", "lat": 44.97497, "address": "7th Street & 4th Ave. S"}, "type": "Feature"}, {"geometry": {"coordinates": [-93.279038071632, 44.984125390044], "type": "Point"}, "properties": {"name": "Target Field Station", "lon": -93.279038071632, "status": "CLOSED", "stands": 23, "bikes": 0, "update": "2015-11-05T12:02:24", "lat": 44.984125390044, "address": "Target Field Station"}, "type": "Feature"}, {"geometry": {"coordinates": [-93.269278, 44.950371], "type": "Point"}, "properties": {"name": "Midtown Greenway & 5th Ave S", "lon": -93.269278, "status": "CLOSED", "stands": 15, "bikes": 0, "update": "2015-11-04T17:23:01", "lat": 44.950371, "address": "Midtown Greenway & 5th Ave S"}, "type": "Feature"}, {"geometry": {"coordinates": [-93.211264014244, 44.973371428374], "type": "Point"}, "properties": {"name": "Malcolm Ave SE & 5th Street SE", "lon": -93.211264014244, "status": "CLOSED", "stands": 23, "bikes": 0, "update": "2015-11-05T12:01:45", "lat": 44.973371428374, "address": "Malcolm Ave SE & 5th Street SE"}, "type": "Feature"}, {"geometry": {"coordinates": [-93.22854, 44.9743], "type": "Point"}, "properties": {"name": "McNamara Center", "lon": -93.22854, "status": "CLOSED", "stands": 19, "bikes": 0, "update": "2015-11-04T12:00:53", "lat": 44.9743, "address": "McNamara Center"}, "type": "Feature"}, {"geometry": {"coordinates": [-93.23818, 44.97685], "type": "Point"}, "properties": {"name": "Elliot Hall", "lon": -93.23818, "status": "CLOSED", "stands": 14, "bikes": 0, "update": "2015-11-03T16:36:45", "lat": 44.97685, "address": "Elliot Hall"}, "type": "Feature"}, {"geometry": {"coordinates": [-93.26079, 44.970553], "type": "Point"}, "properties": {"name": "Elliot Park", "lon": -93.26079, "status": "CLOSED", "stands": 15, "bikes": 0, "update": "2015-11-02T17:48:39", "lat": 44.970553, "address": "Elliot Park"}, "type": "Feature"}, {"geometry": {"coordinates": [-93.29736, 44.946687], "type": "Point"}, "properties": {"name": "W 31st Street & Hennepin Ave S", "lon": -93.29736, "status": "CLOSED", "stands": 19, "bikes": 0, "update": "2015-11-02T19:23:51", "lat": 44.946687, "address": "W 31st Street & Hennepin Ave S"}, "type": "Feature"}, {"geometry": {"coordinates": [-93.277939, 44.96342], "type": "Point"}, "properties": {"name": "Nicollet & Franklin", "lon": -93.277939, "status": "CLOSED", "stands": 23, "bikes": 0, "update": "2015-11-02T17:46:41", "lat": 44.96342, "address": "Nicollet & Franklin"}, "type": "Feature"}, {"geometry": {"coordinates": [-93.27831, 44.9519], "type": "Point"}, "properties": {"name": "28th Street & Nicollet Ave. S", "lon": -93.27831, "status": "CLOSED", "stands": 15, "bikes": 0, "update": "2015-11-02T17:55:02", "lat": 44.9519, "address": "28th Street & Nicollet Ave. S"}, "type": "Feature"}, {"geometry": {"coordinates": [-93.304427, 44.981147], "type": "Point"}, "properties": {"name": "Glenwood Ave & N Morgan Ave.", "lon": -93.304427, "status": "CLOSED", "stands": 14, "bikes": 0, "update": "2015-11-03T12:01:17", "lat": 44.981147, "address": "Glenwood Ave & N Morgan Ave."}, "type": "Feature"}, {"geometry": {"coordinates": [-93.28542, 44.98052], "type": "Point"}, "properties": {"name": "Minneapolis Farmers Market", "lon": -93.28542, "status": "CLOSED", "stands": 15, "bikes": 0, "update": "2015-11-03T12:03:36", "lat": 44.98052, "address": "Minneapolis Farmers Market"}, "type": "Feature"}, {"geometry": {"coordinates": [-93.279783725739, 44.989879107463], "type": "Point"}, "properties": {"name": "Washington Ave N & 9th Ave N", "lon": -93.279783725739, "status": "CLOSED", "stands": 15, "bikes": 0, "update": "2015-11-03T15:59:36", "lat": 44.989879107463, "address": "Washington Ave N & 9th Ave N"}, "type": "Feature"}, {"geometry": {"coordinates": [-93.322066, 44.9798], "type": "Point"}, "properties": {"name": "Wirth Beach", "lon": -93.322066, "status": "CLOSED", "stands": 15, "bikes": 0, "update": "2015-11-06T12:02:56", "lat": 44.9798, "address": "Wirth Beach"}, "type": "Feature"}, {"geometry": {"coordinates": [-93.290941, 44.999341], "type": "Point"}, "properties": {"name": "Bryant Ave N & West Broadway", "lon": -93.290941, "status": "CLOSED", "stands": 10, "bikes": 0, "update": "2015-11-03T16:15:20", "lat": 44.999341, "address": "Bryant Ave N & West Broadway"}, "type": "Feature"}, {"geometry": {"coordinates": [-93.297071, 44.99957], "type": "Point"}, "properties": {"name": "Girard Ave N & W Broadway Ave", "lon": -93.297071, "status": "CLOSED", "stands": 15, "bikes": 0, "update": "2015-11-03T15:48:24", "lat": 44.99957, "address": "Girard Ave N & W Broadway Ave"}, "type": "Feature"}, {"geometry": {"coordinates": [-93.287559, 45.005994], "type": "Point"}, "properties": {"name": "Farview Park", "lon": -93.287559, "status": "CLOSED", "stands": 15, "bikes": 0, "update": "2015-11-03T12:03:54", "lat": 45.005994, "address": "Farview Park"}, "type": "Feature"}, {"geometry": {"coordinates": [-93.305857, 45.002448], "type": "Point"}, "properties": {"name": "West Broadway & Logan Ave N", "lon": -93.305857, "status": "CLOSED", "stands": 15, "bikes": 0, "update": "2015-11-03T15:42:46", "lat": 45.002448, "address": "West Broadway & Logan Ave N"}, "type": "Feature"}, {"geometry": {"coordinates": [-93.307798, 45.013318], "type": "Point"}, "properties": {"name": "Lowry Ave N & Penn Ave", "lon": -93.307798, "status": "CLOSED", "stands": 15, "bikes": 0, "update": "2015-11-03T12:01:37", "lat": 45.013318, "address": "Lowry Ave N & Penn Ave"}, "type": "Feature"}, {"geometry": {"coordinates": [-93.298634, 44.941388], "type": "Point"}, "properties": {"name": "West 34th Street  & Hennepin Ave S", "lon": -93.298634, "status": "CLOSED", "stands": 19, "bikes": 0, "update": "2015-11-02T18:50:10", "lat": 44.941388, "address": "West 34th Street  & Hennepin Ave S"}, "type": "Feature"}, {"geometry": {"coordinates": [-93.218919, 44.97259], "type": "Point"}, "properties": {"name": "27th Ave SE & University Ave.", "lon": -93.218919, "status": "CLOSED", "stands": 15, "bikes": 0, "update": "2015-11-03T12:01:32", "lat": 44.97259, "address": "27th Ave SE & University Ave."}, "type": "Feature"}, {"geometry": {"coordinates": [-93.20525, 44.96616], "type": "Point"}, "properties": {"name": "Curfew Street & Ellis Ave.", "lon": -93.20525, "status": "CLOSED", "stands": 15, "bikes": 0, "update": "2015-11-03T12:03:26", "lat": 44.96616, "address": "Curfew Street & Ellis Ave."}, "type": "Feature"}, {"geometry": {"coordinates": [-93.195906, 44.963549], "type": "Point"}, "properties": {"name": "Carleton Street & University Ave ", "lon": -93.195906, "status": "CLOSED", "stands": 14, "bikes": 0, "update": "2015-11-03T16:21:07", "lat": 44.963549, "address": "Carleton Street & University Ave "}, "type": "Feature"}, {"geometry": {"coordinates": [-93.17706, 44.95665], "type": "Point"}, "properties": {"name": "Fairview Ave. & University Ave.", "lon": -93.17706, "status": "CLOSED", "stands": 15, "bikes": 0, "update": "2015-11-04T12:04:18", "lat": 44.95665, "address": "Fairview Ave. & University Ave."}, "type": "Feature"}, {"geometry": {"coordinates": [-93.165868, 44.964172], "type": "Point"}, "properties": {"name": "Hamline University", "lon": -93.165868, "status": "CLOSED", "stands": 15, "bikes": 0, "update": "2015-11-04T12:03:44", "lat": 44.964172, "address": "Hamline University"}, "type": "Feature"}, {"geometry": {"coordinates": [-93.16734, 44.956624], "type": "Point"}, "properties": {"name": "Sherburne Ave & Snelling Ave N", "lon": -93.16734, "status": "CLOSED", "stands": 15, "bikes": 0, "update": "2015-11-04T12:01:44", "lat": 44.956624, "address": "Sherburne Ave & Snelling Ave N"}, "type": "Feature"}, {"geometry": {"coordinates": [-93.24054, 44.94823], "type": "Point"}, "properties": {"name": "Midtown YWCA", "lon": -93.24054, "status": "CLOSED", "stands": 15, "bikes": 0, "update": "2015-11-04T12:01:34", "lat": 44.94823, "address": "Midtown YWCA"}, "type": "Feature"}, {"geometry": {"coordinates": [-93.22106, 44.94826], "type": "Point"}, "properties": {"name": "East Lake Street & 36th Ave S", "lon": -93.22106, "status": "CLOSED", "stands": 15, "bikes": 0, "update": "2015-11-02T16:20:50", "lat": 44.94826, "address": "East Lake Street & 36th Ave S"}, "type": "Feature"}, {"geometry": {"coordinates": [-93.136556, 44.956052], "type": "Point"}, "properties": {"name": "N Victoria Street & University Ave ", "lon": -93.136556, "status": "CLOSED", "stands": 15, "bikes": 0, "update": "2015-11-04T12:02:17", "lat": 44.956052, "address": "N Victoria Street & University Ave "}, "type": "Feature"}, {"geometry": {"coordinates": [-93.185819, 44.948147], "type": "Point"}, "properties": {"name": "Wilder Street & Marshall Ave", "lon": -93.185819, "status": "CLOSED", "stands": 15, "bikes": 0, "update": "2015-11-02T15:41:52", "lat": 44.948147, "address": "Wilder Street & Marshall Ave"}, "type": "Feature"}, {"geometry": {"coordinates": [-93.177093, 44.940513], "type": "Point"}, "properties": {"name": "Grand Ave & Fairview Ave", "lon": -93.177093, "status": "CLOSED", "stands": 15, "bikes": 0, "update": "2015-11-02T12:02:44", "lat": 44.940513, "address": "Grand Ave & Fairview Ave"}, "type": "Feature"}, {"geometry": {"coordinates": [-93.17022, 44.940218], "type": "Point"}, "properties": {"name": "Macalester College", "lon": -93.17022, "status": "CLOSED", "stands": 15, "bikes": 0, "update": "2015-11-02T15:55:41", "lat": 44.940218, "address": "Macalester College"}, "type": "Feature"}, {"geometry": {"coordinates": [-93.2669, 44.96954], "type": "Point"}, "properties": {"name": "Grant Street & Portland Ave", "lon": -93.2669, "status": "CLOSED", "stands": 15, "bikes": 0, "update": "2015-11-02T17:44:02", "lat": 44.96954, "address": "Grant Street & Portland Ave"}, "type": "Feature"}, {"geometry": {"coordinates": [-93.24812, 44.983281], "type": "Point"}, "properties": {"name": "6th Ave. SE & University Ave.", "lon": -93.24812, "status": "CLOSED", "stands": 23, "bikes": 0, "update": "2015-11-06T12:01:22", "lat": 44.983281, "address": "6th Ave. SE & University Ave."}, "type": "Feature"}, {"geometry": {"coordinates": [-93.317294418812, 44.948467166877], "type": "Point"}, "properties": {"name": "Lake Calhoun Center", "lon": -93.317294418812, "status": "CLOSED", "stands": 27, "bikes": 0, "update": "2015-11-02T19:37:02", "lat": 44.948467166877, "address": "Lake Calhoun Center"}, "type": "Feature"}, {"geometry": {"coordinates": [-93.26023, 44.978068], "type": "Point"}, "properties": {"name": "Portland Ave. & Washington Ave.", "lon": -93.26023, "status": "CLOSED", "stands": 19, "bikes": 0, "update": "2015-11-02T16:53:04", "lat": 44.978068, "address": "Portland Ave. & Washington Ave."}, "type": "Feature"}, {"geometry": {"coordinates": [-93.2675139, 44.9825943], "type": "Point"}, "properties": {"name": "Gateway Park", "lon": -93.2675139, "status": "CLOSED", "stands": 15, "bikes": 0, "update": "2015-11-03T17:18:46", "lat": 44.9825943, "address": "Gateway Park"}, "type": "Feature"}, {"geometry": {"coordinates": [-93.266854, 44.995348], "type": "Point"}, "properties": {"name": "Marshall Street NE & 8th Ave. NE", "lon": -93.266854, "status": "CLOSED", "stands": 15, "bikes": 0, "update": "2015-11-03T12:03:08", "lat": 44.995348, "address": "Marshall Street NE & 8th Ave. NE"}, "type": "Feature"}, {"geometry": {"coordinates": [-93.27651, 44.989166], "type": "Point"}, "properties": {"name": "2nd Street N & 8th Ave. N", "lon": -93.27651, "status": "CLOSED", "stands": 19, "bikes": 0, "update": "2015-11-03T20:46:37", "lat": 44.989166, "address": "2nd Street N & 8th Ave. N"}, "type": "Feature"}, {"geometry": {"coordinates": [-93.26296, 44.999894], "type": "Point"}, "properties": {"name": "University Ave. NE & 12th Ave. NE", "lon": -93.26296, "status": "CLOSED", "stands": 15, "bikes": 0, "update": "2015-11-03T15:32:37", "lat": 44.999894, "address": "University Ave. NE & 12th Ave. NE"}, "type": "Feature"}, {"geometry": {"coordinates": [-93.283163, 44.948556], "type": "Point"}, "properties": {"name": "Pleasant Ave S &  Lake Street", "lon": -93.283163, "status": "CLOSED", "stands": 15, "bikes": 0, "update": "2015-11-03T12:03:10", "lat": 44.948556, "address": "Pleasant Ave S &  Lake Street"}, "type": "Feature"}, {"geometry": {"coordinates": [-93.29038, 44.94478], "type": "Point"}, "properties": {"name": "West 32nd Street & Bryant Ave S", "lon": -93.29038, "status": "CLOSED", "stands": 15, "bikes": 0, "update": "2015-11-02T18:36:48", "lat": 44.94478, "address": "West 32nd Street & Bryant Ave S"}, "type": "Feature"}, {"geometry": {"coordinates": [-93.2912, 44.93775], "type": "Point"}, "properties": {"name": "West 36th Street & Bryant Ave S", "lon": -93.2912, "status": "CLOSED", "stands": 15, "bikes": 0, "update": "2015-11-02T18:43:35", "lat": 44.93775, "address": "West 36th Street & Bryant Ave S"}, "type": "Feature"}, {"geometry": {"coordinates": [-93.281991, 44.968237], "type": "Point"}, "properties": {"name": "West 15th Street & Willow", "lon": -93.281991, "status": "CLOSED", "stands": 19, "bikes": 0, "update": "2015-11-02T19:21:53", "lat": 44.968237, "address": "West 15th Street & Willow"}, "type": "Feature"}, {"geometry": {"coordinates": [-93.192758, 44.939936], "type": "Point"}, "properties": {"name": "Grand Ave & Cretin Ave", "lon": -93.192758, "status": "CLOSED", "stands": 15, "bikes": 0, "update": "2015-11-04T12:01:54", "lat": 44.939936, "address": "Grand Ave & Cretin Ave"}, "type": "Feature"}, {"geometry": {"coordinates": [-93.1529, 44.94016], "type": "Point"}, "properties": {"name": "Kowalski's Market", "lon": -93.1529, "status": "CLOSED", "stands": 15, "bikes": 0, "update": "2015-11-03T20:24:25", "lat": 44.94016, "address": "Kowalski's Market"}, "type": "Feature"}, {"geometry": {"coordinates": [-93.138832, 44.941599], "type": "Point"}, "properties": {"name": "N Milton Street & Summit Ave", "lon": -93.138832, "status": "CLOSED", "stands": 15, "bikes": 0, "update": "2015-11-05T12:04:33", "lat": 44.941599, "address": "N Milton Street & Summit Ave"}, "type": "Feature"}, {"geometry": {"coordinates": [-93.1517, 44.98115], "type": "Point"}, "properties": {"name": "Como Park Conservatory", "lon": -93.1517, "status": "CLOSED", "stands": 19, "bikes": 0, "update": "2015-11-06T12:04:33", "lat": 44.98115, "address": "Como Park Conservatory"}, "type": "Feature"}, {"geometry": {"coordinates": [-93.12661, 44.945736], "type": "Point"}, "properties": {"name": "Hague Ave & Dale Street", "lon": -93.12661, "status": "CLOSED", "stands": 15, "bikes": 0, "update": "2015-11-03T18:23:22", "lat": 44.945736, "address": "Hague Ave & Dale Street"}, "type": "Feature"}, {"geometry": {"coordinates": [-93.25276, 44.99882], "type": "Point"}, "properties": {"name": "Logan Park", "lon": -93.25276, "status": "CLOSED", "stands": 15, "bikes": 0, "update": "2015-11-03T15:38:39", "lat": 44.99882, "address": "Logan Park"}, "type": "Feature"}, {"geometry": {"coordinates": [-93.146379, 44.955363], "type": "Point"}, "properties": {"name": "Lexington Pkwy & University Ave", "lon": -93.146379, "status": "CLOSED", "stands": 15, "bikes": 0, "update": "2015-11-04T12:02:43", "lat": 44.955363, "address": "Lexington Pkwy & University Ave"}, "type": "Feature"}, {"geometry": {"coordinates": [-93.126088, 44.956066], "type": "Point"}, "properties": {"name": "Dale Street N & University Ave", "lon": -93.126088, "status": "CLOSED", "stands": 15, "bikes": 0, "update": "2015-11-04T12:04:35", "lat": 44.956066, "address": "Dale Street N & University Ave"}, "type": "Feature"}, {"geometry": {"coordinates": [-93.214864, 44.971012], "type": "Point"}, "properties": {"name": "University Ave SE & 29th Ave SE", "lon": -93.214864, "status": "CLOSED", "stands": 15, "bikes": 0, "update": "2015-11-03T12:04:29", "lat": 44.971012, "address": "University Ave SE & 29th Ave SE"}, "type": "Feature"}, {"geometry": {"coordinates": [-93.212892, 44.987934], "type": "Point"}, "properties": {"name": "Como Ave. SE & 29th Ave. SE", "lon": -93.212892, "status": "CLOSED", "stands": 14, "bikes": 0, "update": "2015-11-04T12:02:02", "lat": 44.987934, "address": "Como Ave. SE & 29th Ave. SE"}, "type": "Feature"}, {"geometry": {"coordinates": [-93.230469, 44.987517], "type": "Point"}, "properties": {"name": "15th Ave. SE & Como Ave. SE", "lon": -93.230469, "status": "CLOSED", "stands": 15, "bikes": 0, "update": "2015-11-04T12:03:43", "lat": 44.987517, "address": "15th Ave. SE & Como Ave. SE"}, "type": "Feature"}, {"geometry": {"coordinates": [-93.143383, 44.981914], "type": "Point"}, "properties": {"name": "Lake Como Pavilion", "lon": -93.143383, "status": "CLOSED", "stands": 23, "bikes": 0, "update": "2015-11-06T12:03:30", "lat": 44.981914, "address": "Lake Como Pavilion"}, "type": "Feature"}, {"geometry": {"coordinates": [-93.126261, 44.939779], "type": "Point"}, "properties": {"name": "Dale Street & Grand Ave.", "lon": -93.126261, "status": "CLOSED", "stands": 14, "bikes": 0, "update": "2015-11-03T20:18:08", "lat": 44.939779, "address": "Dale Street & Grand Ave."}, "type": "Feature"}, {"geometry": {"coordinates": [-93.156984, 44.953527], "type": "Point"}, "properties": {"name": "St. Paul Police Western District", "lon": -93.156984, "status": "CLOSED", "stands": 14, "bikes": 0, "update": "2015-11-04T12:01:33", "lat": 44.953527, "address": "St. Paul Police Western District"}, "type": "Feature"}, {"geometry": {"coordinates": [-93.247114, 45.00994], "type": "Point"}, "properties": {"name": "Central Ave. NE & 22nd Ave NE", "lon": -93.247114, "status": "CLOSED", "stands": 15, "bikes": 0, "update": "2015-11-02T22:12:16", "lat": 45.00994, "address": "Central Ave. NE & 22nd Ave NE"}, "type": "Feature"}, {"geometry": {"coordinates": [-93.185029, 44.984527], "type": "Point"}, "properties": {"name": "U of M St. Paul Student Center", "lon": -93.185029, "status": "CLOSED", "stands": 15, "bikes": 0, "update": "2015-11-04T12:03:09", "lat": 44.984527, "address": "U of M St. Paul Student Center"}, "type": "Feature"}, {"geometry": {"coordinates": [-93.1873, 44.945367], "type": "Point"}, "properties": {"name": "Cleveland Ave N & Laurel Ave", "lon": -93.1873, "status": "CLOSED", "stands": 15, "bikes": 0, "update": "2015-11-02T12:00:26", "lat": 44.945367, "address": "Cleveland Ave N & Laurel Ave"}, "type": "Feature"}, {"geometry": {"coordinates": [-93.2321, 44.97394], "type": "Point"}, "properties": {"name": "Washington Ave SE & Union Street SE", "lon": -93.2321, "status": "CLOSED", "stands": 27, "bikes": 0, "update": "2015-11-04T12:04:39", "lat": 44.97394, "address": "Washington Ave SE & Union Street SE"}, "type": "Feature"}, {"geometry": {"coordinates": [-93.10673, 44.949053], "type": "Point"}, "properties": {"name": "Minnesota History Center", "lon": -93.10673, "status": "CLOSED", "stands": 15, "bikes": 0, "update": "2015-11-04T12:03:00", "lat": 44.949053, "address": "Minnesota History Center"}, "type": "Feature"}, {"geometry": {"coordinates": [-93.09759, 44.950189], "type": "Point"}, "properties": {"name": "10th Street E & Cedar Street", "lon": -93.09759, "status": "CLOSED", "stands": 15, "bikes": 0, "update": "2015-11-04T12:05:03", "lat": 44.950189, "address": "10th Street E & Cedar Street"}, "type": "Feature"}, {"geometry": {"coordinates": [-93.091207, 44.949433], "type": "Point"}, "properties": {"name": "7th Place & Jackson Street", "lon": -93.091207, "status": "CLOSED", "stands": 14, "bikes": 0, "update": "2015-11-04T12:01:19", "lat": 44.949433, "address": "7th Place & Jackson Street"}, "type": "Feature"}, {"geometry": {"coordinates": [-93.086584, 44.948399], "type": "Point"}, "properties": {"name": "Union Depot", "lon": -93.086584, "status": "CLOSED", "stands": 23, "bikes": 0, "update": "2015-11-04T12:03:51", "lat": 44.948399, "address": "Union Depot"}, "type": "Feature"}, {"geometry": {"coordinates": [-93.088802, 44.946191], "type": "Point"}, "properties": {"name": "Kellogg Blvd E & Jackson Street", "lon": -93.088802, "status": "CLOSED", "stands": 19, "bikes": 0, "update": "2015-11-04T12:00:48", "lat": 44.946191, "address": "Kellogg Blvd E & Jackson Street"}, "type": "Feature"}, {"geometry": {"coordinates": [-93.089245, 44.950766], "type": "Point"}, "properties": {"name": "7th Street E & Wacouta Street", "lon": -93.089245, "status": "CLOSED", "stands": 15, "bikes": 0, "update": "2015-11-04T12:02:09", "lat": 44.950766, "address": "7th Street E & Wacouta Street"}, "type": "Feature"}, {"geometry": {"coordinates": [-93.0845, 44.94965], "type": "Point"}, "properties": {"name": "Broadway Street N & 4th Street E", "lon": -93.0845, "status": "CLOSED", "stands": 19, "bikes": 0, "update": "2015-11-04T12:03:15", "lat": 44.94965, "address": "Broadway Street N & 4th Street E"}, "type": "Feature"}, {"geometry": {"coordinates": [-93.10445, 44.95385], "type": "Point"}, "properties": {"name": "Minnesota Dept. of Transportation", "lon": -93.10445, "status": "CLOSED", "stands": 15, "bikes": 0, "update": "2015-11-04T12:04:25", "lat": 44.95385, "address": "Minnesota Dept. of Transportation"}, "type": "Feature"}, {"geometry": {"coordinates": [-93.103863, 44.945173], "type": "Point"}, "properties": {"name": "Kellogg Blvd W & Smith Ave", "lon": -93.103863, "status": "CLOSED", "stands": 15, "bikes": 0, "update": "2015-11-04T12:02:06", "lat": 44.945173, "address": "Kellogg Blvd W & Smith Ave"}, "type": "Feature"}, {"geometry": {"coordinates": [-93.08465, 44.956028], "type": "Point"}, "properties": {"name": "Lafayette Road & Grove Street", "lon": -93.08465, "status": "CLOSED", "stands": 18, "bikes": 0, "update": "2015-11-04T12:04:28", "lat": 44.956028, "address": "Lafayette Road & Grove Street"}, "type": "Feature"}, {"geometry": {"coordinates": [-93.09231, 44.94683], "type": "Point"}, "properties": {"name": "5th Street E & Minnesota Street N", "lon": -93.09231, "status": "CLOSED", "stands": 19, "bikes": 0, "update": "2015-11-04T12:02:56", "lat": 44.94683, "address": "5th Street E & Minnesota Street N"}, "type": "Feature"}, {"geometry": {"coordinates": [-93.096114, 44.945267], "type": "Point"}, "properties": {"name": "Landmark Plaza", "lon": -93.096114, "status": "CLOSED", "stands": 19, "bikes": 0, "update": "2015-11-04T12:01:10", "lat": 44.945267, "address": "Landmark Plaza"}, "type": "Feature"}, {"geometry": {"coordinates": [-93.09663, 44.94813], "type": "Point"}, "properties": {"name": "Wells Fargo Place", "lon": -93.09663, "status": "CLOSED", "stands": 19, "bikes": 0, "update": "2015-11-04T12:02:05", "lat": 44.94813, "address": "Wells Fargo Place"}, "type": "Feature"}, {"geometry": {"coordinates": [-93.0779, 44.93002], "type": "Point"}, "properties": {"name": "State Street & Cesar Chavez Street", "lon": -93.0779, "status": "CLOSED", "stands": 15, "bikes": 0, "update": "2015-11-04T12:04:24", "lat": 44.93002, "address": "State Street & Cesar Chavez Street"}, "type": "Feature"}, {"geometry": {"coordinates": [-93.089031, 44.939047], "type": "Point"}, "properties": {"name": "Wabasha Street S & E Fillmore Ave", "lon": -93.089031, "status": "CLOSED", "stands": 15, "bikes": 0, "update": "2015-11-04T12:01:14", "lat": 44.939047, "address": "Wabasha Street S & E Fillmore Ave"}, "type": "Feature"}, {"geometry": {"coordinates": [-93.094532, 44.93768], "type": "Point"}, "properties": {"name": "Harriet Island", "lon": -93.094532, "status": "CLOSED", "stands": 19, "bikes": 0, "update": "2015-11-05T12:04:17", "lat": 44.93768, "address": "Harriet Island"}, "type": "Feature"}, {"geometry": {"coordinates": [-93.09227, 44.943846], "type": "Point"}, "properties": {"name": "Kellogg Blvd & Wabasha Street", "lon": -93.09227, "status": "CLOSED", "stands": 19, "bikes": 0, "update": "2015-11-04T12:03:37", "lat": 44.943846, "address": "Kellogg Blvd & Wabasha Street"}, "type": "Feature"}, {"geometry": {"coordinates": [-93.084497, 44.934503], "type": "Point"}, "properties": {"name": "Wabasha Street S & Cesar Chavez Street", "lon": -93.084497, "status": "CLOSED", "stands": 15, "bikes": 0, "update": "2015-11-04T12:04:05", "lat": 44.934503, "address": "Wabasha Street S & Cesar Chavez Street"}, "type": "Feature"}, {"geometry": {"coordinates": [-93.098712, 44.940902], "type": "Point"}, "properties": {"name": "Upper Landing", "lon": -93.098712, "status": "CLOSED", "stands": 19, "bikes": 0, "update": "2015-11-05T12:03:25", "lat": 44.940902, "address": "Upper Landing"}, "type": "Feature"}, {"geometry": {"coordinates": [-93.10624, 44.94144], "type": "Point"}, "properties": {"name": "7th Street W & Grand Ave", "lon": -93.10624, "status": "CLOSED", "stands": 19, "bikes": 0, "update": "2015-11-04T12:03:01", "lat": 44.94144, "address": "7th Street W & Grand Ave"}, "type": "Feature"}, {"geometry": {"coordinates": [-93.097836, 44.942846], "type": "Point"}, "properties": {"name": "Science Museum of Minnesota", "lon": -93.097836, "status": "CLOSED", "stands": 19, "bikes": 0, "update": "2015-11-04T12:01:57", "lat": 44.942846, "address": "Science Museum of Minnesota"}, "type": "Feature"}, {"geometry": {"coordinates": [-93.1151, 44.9467], "type": "Point"}, "properties": {"name": "Selby Ave & Virginia Street", "lon": -93.1151, "status": "CLOSED", "stands": 19, "bikes": 0, "update": "2015-11-03T18:15:40", "lat": 44.9467, "address": "Selby Ave & Virginia Street"}, "type": "Feature"}, {"geometry": {"coordinates": [-93.11665, 44.95562], "type": "Point"}, "properties": {"name": "University Ave & Western Ave", "lon": -93.11665, "status": "CLOSED", "stands": 15, "bikes": 0, "update": "2015-11-04T12:02:32", "lat": 44.95562, "address": "University Ave & Western Ave"}, "type": "Feature"}, {"geometry": {"coordinates": [-93.097817, 44.954697], "type": "Point"}, "properties": {"name": "E 14th Street & N Robert Street ", "lon": -93.097817, "status": "CLOSED", "stands": 17, "bikes": 0, "update": "2015-11-04T12:02:31", "lat": 44.954697, "address": "E 14th Street & N Robert Street "}, "type": "Feature"}, {"geometry": {"coordinates": [-93.10955, 44.95476], "type": "Point"}, "properties": {"name": "N Marion Street & University Ave W", "lon": -93.10955, "status": "CLOSED", "stands": 15, "bikes": 0, "update": "2015-11-04T12:02:24", "lat": 44.95476, "address": "N Marion Street & University Ave W"}, "type": "Feature"}, {"geometry": {"coordinates": [-93.094545, 44.951132], "type": "Point"}, "properties": {"name": "N Robert Street & E 10th Street", "lon": -93.094545, "status": "CLOSED", "stands": 19, "bikes": 0, "update": "2015-11-04T12:04:03", "lat": 44.951132, "address": "N Robert Street & E 10th Street"}, "type": "Feature"}, {"geometry": {"coordinates": [-93.277505, 44.977128], "type": "Point"}, "properties": {"name": "9th Street N & Hawthorne Ave", "lon": -93.277505, "status": "CLOSED", "stands": 25, "bikes": 0, "update": "2015-11-02T12:01:01", "lat": 44.977128, "address": "9th Street N & Hawthorne Ave"}, "type": "Feature"}, {"geometry": {"coordinates": [-93.256736, 44.977521], "type": "Point"}, "properties": {"name": "Chicago Ave & Washington Ave S", "lon": -93.256736, "status": "CLOSED", "stands": 19, "bikes": 0, "update": "2015-11-02T16:37:18", "lat": 44.977521, "address": "Chicago Ave & Washington Ave S"}, "type": "Feature"}, {"geometry": {"coordinates": [-93.269087, 44.988461], "type": "Point"}, "properties": {"name": "N 4th Ave & W River Parkway", "lon": -93.269087, "status": "CLOSED", "stands": 15, "bikes": 0, "update": "2015-11-03T16:29:31", "lat": 44.988461, "address": "N 4th Ave & W River Parkway"}, "type": "Feature"}, {"geometry": {"coordinates": [-93.277037, 45.00095], "type": "Point"}, "properties": {"name": "Minneapolis Park & Recreation Board", "lon": -93.277037, "status": "CLOSED", "stands": 15, "bikes": 0, "update": "2015-11-03T12:03:13", "lat": 45.00095, "address": "Minneapolis Park & Recreation Board"}, "type": "Feature"}, {"geometry": {"coordinates": [-93.29065, 45.033069], "type": "Point"}, "properties": {"name": "Webber Park", "lon": -93.29065, "status": "CLOSED", "stands": 15, "bikes": 0, "update": "2015-11-06T12:02:49", "lat": 45.033069, "address": "Webber Park"}, "type": "Feature"}, {"geometry": {"coordinates": [-93.187381, 44.894044], "type": "Point"}, "properties": {"name": "Fort Snelling Visitor Center", "lon": -93.187381, "status": "CLOSED", "stands": 19, "bikes": 0, "update": "2015-11-05T12:04:20", "lat": 44.894044, "address": "Fort Snelling Visitor Center"}, "type": "Feature"}, {"geometry": {"coordinates": [-93.213587, 44.916906], "type": "Point"}, "properties": {"name": "Minnehaha Park", "lon": -93.213587, "status": "CLOSED", "stands": 27, "bikes": 0, "update": "2015-11-02T16:12:46", "lat": 44.916906, "address": "Minnehaha Park"}, "type": "Feature"}, {"geometry": {"coordinates": [-93.30713, 44.92936], "type": "Point"}, "properties": {"name": "Lake Harriet Bandshell", "lon": -93.30713, "status": "CLOSED", "stands": 25, "bikes": 0, "update": "2015-11-05T12:03:34", "lat": 44.92936, "address": "Lake Harriet Bandshell"}, "type": "Feature"}, {"geometry": {"coordinates": [-93.242761, 44.915957], "type": "Point"}, "properties": {"name": "Lake Nokomis", "lon": -93.242761, "status": "CLOSED", "stands": 23, "bikes": 0, "update": "2015-11-06T12:03:51", "lat": 44.915957, "address": "Lake Nokomis"}, "type": "Feature"}, {"geometry": {"coordinates": [-93.2125, 44.9342], "type": "Point"}, "properties": {"name": "E 38th Street & 42nd Ave S", "lon": -93.2125, "status": "CLOSED", "stands": 15, "bikes": 0, "update": "2015-11-02T15:40:24", "lat": 44.9342, "address": "E 38th Street & 42nd Ave S"}, "type": "Feature"}, {"geometry": {"coordinates": [-93.320212, 44.937817], "type": "Point"}, "properties": {"name": "W 36th Street & W Calhoun Parkway", "lon": -93.320212, "status": "CLOSED", "stands": 19, "bikes": 0, "update": "2015-11-05T12:00:59", "lat": 44.937817, "address": "W 36th Street & W Calhoun Parkway"}, "type": "Feature"}, {"geometry": {"coordinates": [-93.206201, 44.948452], "type": "Point"}, "properties": {"name": "Lake Street & West River Parkway", "lon": -93.206201, "status": "CLOSED", "stands": 15, "bikes": 0, "update": "2015-11-02T15:48:18", "lat": 44.948452, "address": "Lake Street & West River Parkway"}, "type": "Feature"}, {"geometry": {"coordinates": [-93.293129, 44.949699], "type": "Point"}, "properties": {"name": "Dupont Ave S & W 29th Street", "lon": -93.293129, "status": "CLOSED", "stands": 15, "bikes": 0, "update": "2015-11-02T18:14:58", "lat": 44.949699, "address": "Dupont Ave S & W 29th Street"}, "type": "Feature"}, {"geometry": {"coordinates": [-93.314597, 44.92515], "type": "Point"}, "properties": {"name": "Upton Ave S & Sheridan Ave S", "lon": -93.314597, "status": "CLOSED", "stands": 19, "bikes": 0, "update": "2015-11-05T12:05:16", "lat": 44.92515, "address": "Upton Ave S & Sheridan Ave S"}, "type": "Feature"}, {"geometry": {"coordinates": [-93.233092, 44.947329], "type": "Point"}, "properties": {"name": "27th Ave S & Minnehaha Ave", "lon": -93.233092, "status": "CLOSED", "stands": 15, "bikes": 0, "update": "2015-11-02T16:50:22", "lat": 44.947329, "address": "27th Ave S & Minnehaha Ave"}, "type": "Feature"}, {"geometry": {"coordinates": [-93.198283, 44.905043], "type": "Point"}, "properties": {"name": "Coldwater Spring", "lon": -93.198283, "status": "CLOSED", "stands": 15, "bikes": 0, "update": "2015-11-05T12:05:02", "lat": 44.905043, "address": "Coldwater Spring"}, "type": "Feature"}, {"geometry": {"coordinates": [-93.21953, 44.920466], "type": "Point"}, "properties": {"name": "46th Street Light Rail Station", "lon": -93.21953, "status": "CLOSED", "stands": 19, "bikes": 0, "update": "2015-11-02T16:19:56", "lat": 44.920466, "address": "46th Street Light Rail Station"}, "type": "Feature"}, {"geometry": {"coordinates": [-93.229338, 44.93434], "type": "Point"}, "properties": {"name": "38th Street Light Rail Station", "lon": -93.229338, "status": "CLOSED", "stands": 15, "bikes": 0, "update": "2015-11-02T15:27:48", "lat": 44.93434, "address": "38th Street Light Rail Station"}, "type": "Feature"}, {"geometry": {"coordinates": [-93.187264, 44.919593], "type": "Point"}, "properties": {"name": "Cleveland Ave S & Highland Parkway", "lon": -93.187264, "status": "CLOSED", "stands": 15, "bikes": 0, "update": "2015-11-02T16:05:44", "lat": 44.919593, "address": "Cleveland Ave S & Highland Parkway"}, "type": "Feature"}, {"geometry": {"coordinates": [-93.252189, 44.97673], "type": "Point"}, "properties": {"name": "11th Ave S & S 2nd Street", "lon": -93.252189, "status": "CLOSED", "stands": 3, "bikes": 0, "update": "2015-11-02T16:04:48", "lat": 44.97673, "address": "11th Ave S & S 2nd Street"}, "type": "Feature"}, {"geometry": {"coordinates": [-93.268633, 44.998613], "type": "Point"}, "properties": {"name": "Broadway & Marshall Street NE", "lon": -93.268633, "status": "CLOSED", "stands": 15, "bikes": 0, "update": "2015-11-03T15:28:19", "lat": 44.998613, "address": "Broadway & Marshall Street NE"}, "type": "Feature"}, {"geometry": {"coordinates": [-93.271571, 45.006229], "type": "Point"}, "properties": {"name": "Marshall Street NE & 18th Ave NE", "lon": -93.271571, "status": "CLOSED", "stands": 15, "bikes": 0, "update": "2015-11-03T12:03:59", "lat": 45.006229, "address": "Marshall Street NE & 18th Ave NE"}, "type": "Feature"}, {"geometry": {"coordinates": [-93.270256, 44.99254], "type": "Point"}, "properties": {"name": "Boom Island Park", "lon": -93.270256, "status": "CLOSED", "stands": 15, "bikes": 0, "update": "2015-11-03T12:01:31", "lat": 44.99254, "address": "Boom Island Park"}, "type": "Feature"}, {"geometry": {"coordinates": [-93.197997, 44.940288], "type": "Point"}, "properties": {"name": "Mississippi River Blvd & Summit Ave", "lon": -93.197997, "status": "CLOSED", "stands": 15, "bikes": 0, "update": "2015-11-03T20:34:25", "lat": 44.940288, "address": "Mississippi River Blvd & Summit Ave"}, "type": "Feature"}, {"geometry": {"coordinates": [-93.191837, 44.943017], "type": "Point"}, "properties": {"name": "University of St. Thomas", "lon": -93.191837, "status": "CLOSED", "stands": 19, "bikes": 0, "update": "2015-11-02T15:47:39", "lat": 44.943017, "address": "University of St. Thomas"}, "type": "Feature"}, {"geometry": {"coordinates": [-93.18237, 44.890527], "type": "Point"}, "properties": {"name": "Fort Snelling State Park", "lon": -93.18237, "status": "CLOSED", "stands": 19, "bikes": 0, "update": "2015-11-05T12:01:43", "lat": 44.890527, "address": "Fort Snelling State Park"}, "type": "Feature"}, {"geometry": {"coordinates": [-93.27166, 45.01312], "type": "Point"}, "properties": {"name": "Marshall Street NE & Lowry Ave", "lon": -93.27166, "status": "CLOSED", "stands": 15, "bikes": 0, "update": "2015-11-03T12:02:07", "lat": 45.01312, "address": "Marshall Street NE & Lowry Ave"}, "type": "Feature"}, {"geometry": {"coordinates": [-93.278133, 44.96995], "type": "Point"}, "properties": {"name": "Nicollet Mall & Grant Street", "lon": -93.278133, "status": "CLOSED", "stands": 15, "bikes": 0, "update": "2015-11-05T12:03:50", "lat": 44.96995, "address": "Nicollet Mall & Grant Street"}, "type": "Feature"}, {"geometry": {"coordinates": [-93.305209, 44.9485], "type": "Point"}, "properties": {"name": "Lake Street & Knox Ave S", "lon": -93.305209, "status": "CLOSED", "stands": 33, "bikes": 0, "update": "2015-11-02T20:20:28", "lat": 44.9485, "address": "Lake Street & Knox Ave S"}, "type": "Feature"}, {"geometry": {"coordinates": [-93.26145, 44.985388], "type": "Point"}, "properties": {"name": "Nicollet Island", "lon": -93.26145, "status": "CLOSED", "stands": 15, "bikes": 0, "update": "2015-11-03T12:02:55", "lat": 44.985388, "address": "Nicollet Island"}, "type": "Feature"}, {"geometry": {"coordinates": [-93.270503282547, 44.978665179559], "type": "Point"}, "properties": {"name": "5th Street & Nicollet Mall", "lon": -93.270503282547, "status": "CLOSED", "stands": 19, "bikes": 0, "update": "2015-11-03T18:09:34", "lat": 44.978665179559, "address": "5th Street & Nicollet Mall"}, "type": "Feature"}, {"geometry": {"coordinates": [-93.270649, 44.974795], "type": "Point"}, "properties": {"name": "8th Street & 2nd Ave S", "lon": -93.270649, "status": "CLOSED", "stands": 19, "bikes": 0, "update": "2015-11-03T12:03:29", "lat": 44.974795, "address": "8th Street & 2nd Ave S"}, "type": "Feature"}, {"geometry": {"coordinates": [-93.252102, 44.985465], "type": "Point"}, "properties": {"name": "SE 3rd Ave & University Ave SE", "lon": -93.252102, "status": "CLOSED", "stands": 15, "bikes": 0, "update": "2015-11-03T12:04:08", "lat": 44.985465, "address": "SE 3rd Ave & University Ave SE"}, "type": "Feature"}, {"geometry": {"coordinates": [-93.249653, 44.983321], "type": "Point"}, "properties": {"name": "2nd Street SE & 5th Ave SE", "lon": -93.249653, "status": "CLOSED", "stands": 15, "bikes": 0, "update": "2015-11-03T12:03:05", "lat": 44.983321, "address": "2nd Street SE & 5th Ave SE"}, "type": "Feature"}, {"geometry": {"coordinates": [-93.240282, 44.980831], "type": "Point"}, "properties": {"name": "Sanford Hall", "lon": -93.240282, "status": "CLOSED", "stands": 23, "bikes": 0, "update": "2015-11-04T12:03:03", "lat": 44.980831, "address": "Sanford Hall"}, "type": "Feature"}, {"geometry": {"coordinates": [-93.221021, 44.972128], "type": "Point"}, "properties": {"name": "Delaware St SE & 26th Ave SE", "lon": -93.221021, "status": "CLOSED", "stands": 19, "bikes": 0, "update": "2015-11-05T12:02:07", "lat": 44.972128, "address": "Delaware St SE & 26th Ave SE"}, "type": "Feature"}, {"geometry": {"coordinates": [-93.237254, 44.973607], "type": "Point"}, "properties": {"name": "Weisman Art Museum", "lon": -93.237254, "status": "CLOSED", "stands": 18, "bikes": 0, "update": "2015-11-05T12:04:15", "lat": 44.973607, "address": "Weisman Art Museum"}, "type": "Feature"}, {"geometry": {"coordinates": [-93.268604, 44.983902], "type": "Point"}, "properties": {"name": "1st Ave N & 2nd Street N", "lon": -93.268604, "status": "CLOSED", "stands": 19, "bikes": 0, "update": "2015-11-03T18:43:18", "lat": 44.983902, "address": "1st Ave N & 2nd Street N"}, "type": "Feature"}, {"geometry": {"coordinates": [-93.279854, 44.987996], "type": "Point"}, "properties": {"name": "3rd Street N & 8th Ave N", "lon": -93.279854, "status": "CLOSED", "stands": 19, "bikes": 0, "update": "2015-11-03T15:53:41", "lat": 44.987996, "address": "3rd Street N & 8th Ave N"}, "type": "Feature"}, {"geometry": {"coordinates": [-93.277234, 44.98446], "type": "Point"}, "properties": {"name": "5th Ave N & 4th Street N", "lon": -93.277234, "status": "CLOSED", "stands": 19, "bikes": 0, "update": "2015-11-03T15:39:25", "lat": 44.98446, "address": "5th Ave N & 4th Street N"}, "type": "Feature"}, {"geometry": {"coordinates": [-93.274031, 44.985406], "type": "Point"}, "properties": {"name": "Washington Ave N & Cedar Lake Trail", "lon": -93.274031, "status": "CLOSED", "stands": 19, "bikes": 0, "update": "2015-11-03T15:42:20", "lat": 44.985406, "address": "Washington Ave N & Cedar Lake Trail"}, "type": "Feature"}, {"geometry": {"coordinates": [-93.269195, 44.981895], "type": "Point"}, "properties": {"name": "Hennepin Ave & S Washington Ave", "lon": -93.269195, "status": "OPEN", "stands": 23, "bikes": 0, "update": "2015-10-28T15:26:35", "lat": 44.981895, "address": "Hennepin Ave & S Washington Ave"}, "type": "Feature"}, {"geometry": {"coordinates": [-93.286294, 44.966145], "type": "Point"}, "properties": {"name": "Groveland Ave & Clifton Place", "lon": -93.286294, "status": "CLOSED", "stands": 18, "bikes": 0, "update": "2015-11-02T19:09:19", "lat": 44.966145, "address": "Groveland Ave & Clifton Place"}, "type": "Feature"}, {"geometry": {"coordinates": [-93.254295, 44.990328], "type": "Point"}, "properties": {"name": "5th Street NE & 1st Ave NE", "lon": -93.254295, "status": "CLOSED", "stands": 15, "bikes": 0, "update": "2015-11-03T17:08:39", "lat": 44.990328, "address": "5th Street NE & 1st Ave NE"}, "type": "Feature"}, {"geometry": {"coordinates": [-93.255558, 44.991821], "type": "Point"}, "properties": {"name": "5th Street NE & 3rd Ave NE", "lon": -93.255558, "status": "CLOSED", "stands": 14, "bikes": 0, "update": "2015-11-02T23:27:35", "lat": 44.991821, "address": "5th Street NE & 3rd Ave NE"}, "type": "Feature"}, {"geometry": {"coordinates": [-93.264573, 45.01304], "type": "Point"}, "properties": {"name": "3rd Street NE & Lowry Ave NE", "lon": -93.264573, "status": "CLOSED", "stands": 15, "bikes": 0, "update": "2015-11-03T12:00:49", "lat": 45.01304, "address": "3rd Street NE & Lowry Ave NE"}, "type": "Feature"}, {"geometry": {"coordinates": [-93.268598, 45.010119], "type": "Point"}, "properties": {"name": "22nd Ave NE & California Street NE", "lon": -93.268598, "status": "CLOSED", "stands": 15, "bikes": 0, "update": "2015-11-03T12:01:01", "lat": 45.010119, "address": "22nd Ave NE & California Street NE"}, "type": "Feature"}, {"geometry": {"coordinates": [-93.19782, 44.892483], "type": "Point"}, "properties": {"name": "Fort Snelling LRT Station", "lon": -93.19782, "status": "CLOSED", "stands": 15, "bikes": 0, "update": "2015-11-06T16:04:11", "lat": 44.892483, "address": "Fort Snelling LRT Station"}, "type": "Feature"}, {"geometry": {"coordinates": [-93.266553, 45.006321], "type": "Point"}, "properties": {"name": "18th Ave Trail & 2nd Street NE", "lon": -93.266553, "status": "CLOSED", "stands": 15, "bikes": 0, "update": "2015-11-03T12:05:17", "lat": 45.006321, "address": "18th Ave Trail & 2nd Street NE"}, "type": "Feature"}, {"geometry": {"coordinates": [-93.220066, 44.953566], "type": "Point"}, "properties": {"name": "Nice Ride World Headquarters", "lon": -93.220066, "status": "CLOSED", "stands": 3, "bikes": 0, "update": "2015-11-04T00:00:56", "lat": 44.953566, "address": "Nice Ride World Headquarters"}, "type": "Feature"}], "type": "FeatureCollection"}