{"features": [{"properties": {"stands": 27, "address": "100 Main Street SE", "bikes": 0, "lon": -93.256551, "status": "CLOSED", "update": "2015-11-04T12:04:04", "name": "100 Main Street SE", "lat": 44.984892}, "type": "Feature", "geometry": {"type": "Point", "coordinates": [-93.256551, 44.984892]}}, {"properties": {"stands": 15, "address": "25th Street & 33rd Ave S", "bikes": 0, "lon": -93.223374, "status": "CLOSED", "update": "2015-11-02T15:35:25", "name": "25th Street & 33rd Ave S", "lat": 44.957341}, "type": "Feature", "geometry": {"type": "Point", "coordinates": [-93.223374, 44.957341]}}, {"properties": {"stands": 15, "address": "Riverside Ave & 23rd Ave S", "bikes": 0, "lon": -93.240149, "status": "CLOSED", "update": "2015-11-02T17:49:24", "name": "Riverside Ave & 23rd Ave S", "lat": 44.967115}, "type": "Feature", "geometry": {"type": "Point", "coordinates": [-93.240149, 44.967115]}}, {"properties": {"stands": 15, "address": "Plymouth Ave N &  N Oliver Ave", "bikes": 0, "lon": -93.306269, "status": "CLOSED", "update": "2015-11-03T12:02:28", "name": "Plymouth Ave N &  N Oliver Ave", "lat": 44.991412}, "type": "Feature", "geometry": {"type": "Point", "coordinates": [-93.306269, 44.991412]}}, {"properties": {"stands": 23, "address": "11th Street & Hennepin", "bikes": 0, "lon": -93.27869, "status": "CLOSED", "update": "2015-11-02T20:11:46", "name": "11th Street & Hennepin", "lat": 44.97534}, "type": "Feature", "geometry": {"type": "Point", "coordinates": [-93.27869, 44.97534]}}, {"properties": {"stands": 15, "address": "Hennepin & Central Avenue NE", "bikes": 0, "lon": -93.25392, "status": "CLOSED", "update": "2015-11-03T12:02:59", "name": "Hennepin & Central Avenue NE", "lat": 44.98889}, "type": "Feature", "geometry": {"type": "Point", "coordinates": [-93.25392, 44.98889]}}, {"properties": {"stands": 23, "address": "YWCA Downtown", "bikes": 0, "lon": -93.276435, "status": "CLOSED", "update": "2015-11-05T12:03:53", "name": "YWCA Downtown", "lat": 44.972217}, "type": "Feature", "geometry": {"type": "Point", "coordinates": [-93.276435, 44.972217]}}, {"properties": {"stands": 19, "address": "9th Street & 4th Ave", "bikes": 0, "lon": -93.26872, "status": "CLOSED", "update": "2015-11-02T17:36:26", "name": "9th Street & 4th Ave", "lat": 44.97265}, "type": "Feature", "geometry": {"type": "Point", "coordinates": [-93.26872, 44.97265]}}, {"properties": {"stands": 19, "address": "Midtown Exchange", "bikes": 0, "lon": -93.2602, "status": "CLOSED", "update": "2015-11-02T16:50:41", "name": "Midtown Exchange", "lat": 44.94859}, "type": "Feature", "geometry": {"type": "Point", "coordinates": [-93.2602, 44.94859]}}, {"properties": {"stands": 19, "address": "4th Street & 13th Ave SE", "bikes": 0, "lon": -93.23746, "status": "CLOSED", "update": "2015-11-04T12:04:16", "name": "4th Street & 13th Ave SE", "lat": 44.98102}, "type": "Feature", "geometry": {"type": "Point", "coordinates": [-93.23746, 44.98102]}}, {"properties": {"stands": 15, "address": "Hennepin & Laurel Ave", "bikes": 0, "lon": -93.28305, "status": "CLOSED", "update": "2015-11-02T20:06:54", "name": "Hennepin & Laurel Ave", "lat": 44.97391}, "type": "Feature", "geometry": {"type": "Point", "coordinates": [-93.28305, 44.97391]}}, {"properties": {"stands": 19, "address": "North 2nd Street & 4th Ave N", "bikes": 0, "lon": -93.272459, "status": "CLOSED", "update": "2015-11-03T16:25:14", "name": "North 2nd Street & 4th Ave N", "lat": 44.986087}, "type": "Feature", "geometry": {"type": "Point", "coordinates": [-93.272459, 44.986087]}}, {"properties": {"stands": 19, "address": "Mpls Convention Center", "bikes": 0, "lon": -93.275861, "status": "CLOSED", "update": "2015-11-03T12:02:31", "name": "Mpls Convention Center", "lat": 44.970041}, "type": "Feature", "geometry": {"type": "Point", "coordinates": [-93.275861, 44.970041]}}, {"properties": {"stands": 19, "address": "Lyndale Ave S & W 29th Street", "bikes": 0, "lon": -93.288227319717, "status": "CLOSED", "update": "2015-11-03T12:00:33", "name": "Lyndale Ave S & W 29th Street", "lat": 44.949484653766}, "type": "Feature", "geometry": {"type": "Point", "coordinates": [-93.288227319717, 44.949484653766]}}, {"properties": {"stands": 15, "address": "22nd Ave S & Franklin Ave", "bikes": 0, "lon": -93.241042, "status": "CLOSED", "update": "2015-11-02T17:04:42", "name": "22nd Ave S & Franklin Ave", "lat": 44.96293}, "type": "Feature", "geometry": {"type": "Point", "coordinates": [-93.241042, 44.96293]}}, {"properties": {"stands": 20, "address": "Washington & Cedar", "bikes": 0, "lon": -93.24748, "status": "CLOSED", "update": "2015-11-02T12:03:06", "name": "Washington & Cedar", "lat": 44.97344}, "type": "Feature", "geometry": {"type": "Point", "coordinates": [-93.24748, 44.97344]}}, {"properties": {"stands": 17, "address": "Walker Art Center", "bikes": 0, "lon": -93.28848, "status": "CLOSED", "update": "2015-11-04T18:12:24", "name": "Walker Art Center", "lat": 44.96746}, "type": "Feature", "geometry": {"type": "Point", "coordinates": [-93.28848, 44.96746]}}, {"properties": {"stands": 19, "address": "Lyndale Ave S & 22nd Street ", "bikes": 0, "lon": -93.28815, "status": "CLOSED", "update": "2015-11-02T18:36:19", "name": "Lyndale Ave S & 22nd Street ", "lat": 44.960744}, "type": "Feature", "geometry": {"type": "Point", "coordinates": [-93.28815, 44.960744]}}, {"properties": {"stands": 17, "address": "MCAD", "bikes": 0, "lon": -93.274981, "status": "CLOSED", "update": "2015-11-04T18:44:19", "name": "MCAD", "lat": 44.957214}, "type": "Feature", "geometry": {"type": "Point", "coordinates": [-93.274981, 44.957214]}}, {"properties": {"stands": 28, "address": "Social Sciences", "bikes": 0, "lon": -93.243754, "status": "CLOSED", "update": "2015-11-04T12:01:02", "name": "Social Sciences", "lat": 44.971359}, "type": "Feature", "geometry": {"type": "Point", "coordinates": [-93.243754, 44.971359]}}, {"properties": {"stands": 19, "address": "YWCA Uptown", "bikes": 0, "lon": -93.29853, "status": "CLOSED", "update": "2015-11-03T12:00:35", "name": "YWCA Uptown", "lat": 44.95131}, "type": "Feature", "geometry": {"type": "Point", "coordinates": [-93.29853, 44.95131]}}, {"properties": {"stands": 19, "address": "Washington & 2nd Ave N", "bikes": 0, "lon": -93.27099, "status": "CLOSED", "update": "2015-11-03T17:01:37", "name": "Washington & 2nd Ave N", "lat": 44.98383}, "type": "Feature", "geometry": {"type": "Point", "coordinates": [-93.27099, 44.98383]}}, {"properties": {"stands": 15, "address": "26th Street & Lyndale", "bikes": 0, "lon": -93.28775, "status": "CLOSED", "update": "2015-11-02T20:50:58", "name": "26th Street & Lyndale", "lat": 44.95548}, "type": "Feature", "geometry": {"type": "Point", "coordinates": [-93.28775, 44.95548]}}, {"properties": {"stands": 15, "address": "Chicago & 27th Street", "bikes": 0, "lon": -93.26259, "status": "CLOSED", "update": "2015-11-02T16:57:05", "name": "Chicago & 27th Street", "lat": 44.95355}, "type": "Feature", "geometry": {"type": "Point", "coordinates": [-93.26259, 44.95355]}}, {"properties": {"stands": 3, "address": "Coffman Union", "bikes": 0, "lon": -93.234762, "status": "CLOSED", "update": "2015-11-03T19:21:58", "name": "Coffman Union", "lat": 44.973378}, "type": "Feature", "geometry": {"type": "Point", "coordinates": [-93.234762, 44.973378]}}, {"properties": {"stands": 25, "address": "Williamson Hall", "bikes": 0, "lon": -93.234911, "status": "CLOSED", "update": "2015-11-04T12:01:44", "name": "Williamson Hall", "lat": 44.977406}, "type": "Feature", "geometry": {"type": "Point", "coordinates": [-93.234911, 44.977406]}}, {"properties": {"stands": 25, "address": "Mayo Memorial Building", "bikes": 0, "lon": -93.23206, "status": "CLOSED", "update": "2015-11-04T12:02:17", "name": "Mayo Memorial Building", "lat": 44.97209}, "type": "Feature", "geometry": {"type": "Point", "coordinates": [-93.23206, 44.97209]}}, {"properties": {"stands": 19, "address": "4th Street S & 19th Ave", "bikes": 0, "lon": -93.24519, "status": "CLOSED", "update": "2015-11-02T12:02:53", "name": "4th Street S & 19th Ave", "lat": 44.97003}, "type": "Feature", "geometry": {"type": "Point", "coordinates": [-93.24519, 44.97003]}}, {"properties": {"stands": 19, "address": "Washington & Marquette", "bikes": 0, "lon": -93.266925215721, "status": "CLOSED", "update": "2015-11-03T15:58:52", "name": "Washington & Marquette", "lat": 44.980873610847}, "type": "Feature", "geometry": {"type": "Point", "coordinates": [-93.266925215721, 44.980873610847]}}, {"properties": {"stands": 27, "address": "Hennepin County Government Center", "bikes": 0, "lon": -93.266701, "status": "CLOSED", "update": "2015-11-02T12:01:15", "name": "Hennepin County Government Center", "lat": 44.976602}, "type": "Feature", "geometry": {"type": "Point", "coordinates": [-93.266701, 44.976602]}}, {"properties": {"stands": 15, "address": "Franklin & 11th Ave", "bikes": 0, "lon": -93.2583, "status": "CLOSED", "update": "2015-11-02T17:18:16", "name": "Franklin & 11th Ave", "lat": 44.96251}, "type": "Feature", "geometry": {"type": "Point", "coordinates": [-93.2583, 44.96251]}}, {"properties": {"stands": 23, "address": "Oak Street Ramp", "bikes": 0, "lon": -93.22697, "status": "CLOSED", "update": "2015-11-04T12:03:19", "name": "Oak Street Ramp", "lat": 44.97202}, "type": "Feature", "geometry": {"type": "Point", "coordinates": [-93.22697, 44.97202]}}, {"properties": {"stands": 27, "address": "South 2nd Street & 3rd Ave S", "bikes": 0, "lon": -93.263454437256, "status": "CLOSED", "update": "2015-11-03T16:03:17", "name": "South 2nd Street & 3rd Ave S", "lat": 44.980926733576}, "type": "Feature", "geometry": {"type": "Point", "coordinates": [-93.263454437256, 44.980926733576]}}, {"properties": {"stands": 18, "address": "23rd Ave SE & 6th Street SE", "bikes": 0, "lon": -93.221639, "status": "CLOSED", "update": "2015-11-03T12:00:54", "name": "23rd Ave SE & 6th Street SE", "lat": 44.977028}, "type": "Feature", "geometry": {"type": "Point", "coordinates": [-93.221639, 44.977028]}}, {"properties": {"stands": 15, "address": "4th Street & 17th Ave SE", "bikes": 0, "lon": -93.23189, "status": "CLOSED", "update": "2015-11-03T17:25:28", "name": "4th Street & 17th Ave SE", "lat": 44.97913}, "type": "Feature", "geometry": {"type": "Point", "coordinates": [-93.23189, 44.97913]}}, {"properties": {"stands": 15, "address": "Loring Park", "bikes": 0, "lon": -93.284927, "status": "CLOSED", "update": "2015-11-02T20:02:54", "name": "Loring Park", "lat": 44.9715}, "type": "Feature", "geometry": {"type": "Point", "coordinates": [-93.284927, 44.9715]}}, {"properties": {"stands": 31, "address": "Downtown Library", "bikes": 0, "lon": -93.269217, "status": "CLOSED", "update": "2015-11-03T19:45:55", "name": "Downtown Library", "lat": 44.980199}, "type": "Feature", "geometry": {"type": "Point", "coordinates": [-93.269217, 44.980199]}}, {"properties": {"stands": 15, "address": "Currie Park", "bikes": 0, "lon": -93.251136, "status": "CLOSED", "update": "2015-11-02T17:57:24", "name": "Currie Park", "lat": 44.969225}, "type": "Feature", "geometry": {"type": "Point", "coordinates": [-93.251136, 44.969225]}}, {"properties": {"stands": 15, "address": "E Franklin Ave & Bloomington Ave S", "bikes": 0, "lon": -93.252269, "status": "CLOSED", "update": "2015-11-02T17:05:18", "name": "E Franklin Ave & Bloomington Ave S", "lat": 44.96285}, "type": "Feature", "geometry": {"type": "Point", "coordinates": [-93.252269, 44.96285]}}, {"properties": {"stands": 0, "address": "10th Street & Nicollet Mall", "bikes": 0, "lon": -93.274544, "status": "CLOSED", "update": "1970-01-01T01:00:00", "name": "10th Street & Nicollet Mall", "lat": 44.973839}, "type": "Feature", "geometry": {"type": "Point", "coordinates": [-93.274544, 44.973839]}}, {"properties": {"stands": 19, "address": "11th Street & Marquette", "bikes": 0, "lon": -93.27405, "status": "CLOSED", "update": "2015-11-05T12:03:12", "name": "11th Street & Marquette", "lat": 44.97265}, "type": "Feature", "geometry": {"type": "Point", "coordinates": [-93.27405, 44.97265]}}, {"properties": {"stands": 15, "address": "Franklin & Portland", "bikes": 0, "lon": -93.267526, "status": "CLOSED", "update": "2015-11-02T17:40:32", "name": "Franklin & Portland", "lat": 44.962846}, "type": "Feature", "geometry": {"type": "Point", "coordinates": [-93.267526, 44.962846]}}, {"properties": {"stands": 23, "address": "IDS Center", "bikes": 0, "lon": -93.272185, "status": "CLOSED", "update": "2015-11-02T20:53:36", "name": "IDS Center", "lat": 44.975641}, "type": "Feature", "geometry": {"type": "Point", "coordinates": [-93.272185, 44.975641]}}, {"properties": {"stands": 19, "address": "Lake Street & Humboldt", "bikes": 0, "lon": -93.30077, "status": "CLOSED", "update": "2015-11-02T21:04:39", "name": "Lake Street & Humboldt", "lat": 44.94865}, "type": "Feature", "geometry": {"type": "Point", "coordinates": [-93.30077, 44.94865]}}, {"properties": {"stands": 15, "address": "26th Street & Hennepin", "bikes": 0, "lon": -93.29714298, "status": "CLOSED", "update": "2015-11-02T18:20:24", "name": "26th Street & Hennepin", "lat": 44.9554734}, "type": "Feature", "geometry": {"type": "Point", "coordinates": [-93.29714298, 44.9554734]}}, {"properties": {"stands": 19, "address": "Franklin & 28th Ave", "bikes": 0, "lon": -93.230893, "status": "CLOSED", "update": "2015-11-02T17:38:37", "name": "Franklin & 28th Ave", "lat": 44.962701}, "type": "Feature", "geometry": {"type": "Point", "coordinates": [-93.230893, 44.962701]}}, {"properties": {"stands": 19, "address": "University & Bank Street SE", "bikes": 0, "lon": -93.25576, "status": "CLOSED", "update": "2015-11-03T12:03:42", "name": "University & Bank Street SE", "lat": 44.98717}, "type": "Feature", "geometry": {"type": "Point", "coordinates": [-93.25576, 44.98717]}}, {"properties": {"stands": 15, "address": "Dupont Ave & 22nd Street", "bikes": 0, "lon": -93.29303, "status": "CLOSED", "update": "2015-11-02T18:28:18", "name": "Dupont Ave & 22nd Street", "lat": 44.96146}, "type": "Feature", "geometry": {"type": "Point", "coordinates": [-93.29303, 44.96146]}}, {"properties": {"stands": 27, "address": "3rd Street S & 2nd Ave S", "bikes": 0, "lon": -93.26599, "status": "CLOSED", "update": "2015-11-03T18:51:46", "name": "3rd Street S & 2nd Ave S", "lat": 44.97974}, "type": "Feature", "geometry": {"type": "Point", "coordinates": [-93.26599, 44.97974]}}, {"properties": {"stands": 23, "address": "2nd Ave N & N 6th Street", "bikes": 0, "lon": -93.275626, "status": "CLOSED", "update": "2015-11-03T12:03:18", "name": "2nd Ave N & N 6th Street", "lat": 44.980536}, "type": "Feature", "geometry": {"type": "Point", "coordinates": [-93.275626, 44.980536]}}, {"properties": {"stands": 19, "address": "Washington Ave S & 10th Ave S", "bikes": 0, "lon": -93.25535, "status": "CLOSED", "update": "2015-11-02T16:16:45", "name": "Washington Ave S & 10th Ave S", "lat": 44.97654}, "type": "Feature", "geometry": {"type": "Point", "coordinates": [-93.25535, 44.97654]}}, {"properties": {"stands": 15, "address": "Nicollet Ave & W 26th Street", "bikes": 0, "lon": -93.27796, "status": "CLOSED", "update": "2015-11-02T17:50:41", "name": "Nicollet Ave & W 26th Street", "lat": 44.95618}, "type": "Feature", "geometry": {"type": "Point", "coordinates": [-93.27796, 44.95618]}}, {"properties": {"stands": 15, "address": "7th Street & 4th Ave. S", "bikes": 0, "lon": -93.266684, "status": "CLOSED", "update": "2015-11-02T17:27:25", "name": "7th Street & 4th Ave. S", "lat": 44.97497}, "type": "Feature", "geometry": {"type": "Point", "coordinates": [-93.266684, 44.97497]}}, {"properties": {"stands": 23, "address": "Target Field Station", "bikes": 0, "lon": -93.279038071632, "status": "CLOSED", "update": "2015-11-05T12:02:24", "name": "Target Field Station", "lat": 44.984125390044}, "type": "Feature", "geometry": {"type": "Point", "coordinates": [-93.279038071632, 44.984125390044]}}, {"properties": {"stands": 15, "address": "Midtown Greenway & 5th Ave S", "bikes": 0, "lon": -93.269278, "status": "CLOSED", "update": "2015-11-04T17:23:01", "name": "Midtown Greenway & 5th Ave S", "lat": 44.950371}, "type": "Feature", "geometry": {"type": "Point", "coordinates": [-93.269278, 44.950371]}}, {"properties": {"stands": 23, "address": "Malcolm Ave SE & 5th Street SE", "bikes": 0, "lon": -93.211264014244, "status": "CLOSED", "update": "2015-11-05T12:01:45", "name": "Malcolm Ave SE & 5th Street SE", "lat": 44.973371428374}, "type": "Feature", "geometry": {"type": "Point", "coordinates": [-93.211264014244, 44.973371428374]}}, {"properties": {"stands": 19, "address": "McNamara Center", "bikes": 0, "lon": -93.22854, "status": "CLOSED", "update": "2015-11-04T12:00:53", "name": "McNamara Center", "lat": 44.9743}, "type": "Feature", "geometry": {"type": "Point", "coordinates": [-93.22854, 44.9743]}}, {"properties": {"stands": 14, "address": "Elliot Hall", "bikes": 0, "lon": -93.23818, "status": "CLOSED", "update": "2015-11-03T16:36:45", "name": "Elliot Hall", "lat": 44.97685}, "type": "Feature", "geometry": {"type": "Point", "coordinates": [-93.23818, 44.97685]}}, {"properties": {"stands": 15, "address": "Elliot Park", "bikes": 0, "lon": -93.26079, "status": "CLOSED", "update": "2015-11-02T17:48:39", "name": "Elliot Park", "lat": 44.970553}, "type": "Feature", "geometry": {"type": "Point", "coordinates": [-93.26079, 44.970553]}}, {"properties": {"stands": 19, "address": "W 31st Street & Hennepin Ave S", "bikes": 0, "lon": -93.29736, "status": "CLOSED", "update": "2015-11-02T19:23:51", "name": "W 31st Street & Hennepin Ave S", "lat": 44.946687}, "type": "Feature", "geometry": {"type": "Point", "coordinates": [-93.29736, 44.946687]}}, {"properties": {"stands": 23, "address": "Nicollet & Franklin", "bikes": 0, "lon": -93.277939, "status": "CLOSED", "update": "2015-11-02T17:46:41", "name": "Nicollet & Franklin", "lat": 44.96342}, "type": "Feature", "geometry": {"type": "Point", "coordinates": [-93.277939, 44.96342]}}, {"properties": {"stands": 15, "address": "28th Street & Nicollet Ave. S", "bikes": 0, "lon": -93.27831, "status": "CLOSED", "update": "2015-11-02T17:55:02", "name": "28th Street & Nicollet Ave. S", "lat": 44.9519}, "type": "Feature", "geometry": {"type": "Point", "coordinates": [-93.27831, 44.9519]}}, {"properties": {"stands": 14, "address": "Glenwood Ave & N Morgan Ave.", "bikes": 0, "lon": -93.304427, "status": "CLOSED", "update": "2015-11-03T12:01:17", "name": "Glenwood Ave & N Morgan Ave.", "lat": 44.981147}, "type": "Feature", "geometry": {"type": "Point", "coordinates": [-93.304427, 44.981147]}}, {"properties": {"stands": 15, "address": "Minneapolis Farmers Market", "bikes": 0, "lon": -93.28542, "status": "CLOSED", "update": "2015-11-03T12:03:36", "name": "Minneapolis Farmers Market", "lat": 44.98052}, "type": "Feature", "geometry": {"type": "Point", "coordinates": [-93.28542, 44.98052]}}, {"properties": {"stands": 15, "address": "Washington Ave N & 9th Ave N", "bikes": 0, "lon": -93.279783725739, "status": "CLOSED", "update": "2015-11-03T15:59:36", "name": "Washington Ave N & 9th Ave N", "lat": 44.989879107463}, "type": "Feature", "geometry": {"type": "Point", "coordinates": [-93.279783725739, 44.989879107463]}}, {"properties": {"stands": 15, "address": "Wirth Beach", "bikes": 0, "lon": -93.322066, "status": "CLOSED", "update": "2015-11-06T12:02:56", "name": "Wirth Beach", "lat": 44.9798}, "type": "Feature", "geometry": {"type": "Point", "coordinates": [-93.322066, 44.9798]}}, {"properties": {"stands": 10, "address": "Bryant Ave N & West Broadway", "bikes": 0, "lon": -93.290941, "status": "CLOSED", "update": "2015-11-03T16:15:20", "name": "Bryant Ave N & West Broadway", "lat": 44.999341}, "type": "Feature", "geometry": {"type": "Point", "coordinates": [-93.290941, 44.999341]}}, {"properties": {"stands": 15, "address": "Girard Ave N & W Broadway Ave", "bikes": 0, "lon": -93.297071, "status": "CLOSED", "update": "2015-11-03T15:48:24", "name": "Girard Ave N & W Broadway Ave", "lat": 44.99957}, "type": "Feature", "geometry": {"type": "Point", "coordinates": [-93.297071, 44.99957]}}, {"properties": {"stands": 15, "address": "Farview Park", "bikes": 0, "lon": -93.287559, "status": "CLOSED", "update": "2015-11-03T12:03:54", "name": "Farview Park", "lat": 45.005994}, "type": "Feature", "geometry": {"type": "Point", "coordinates": [-93.287559, 45.005994]}}, {"properties": {"stands": 15, "address": "West Broadway & Logan Ave N", "bikes": 0, "lon": -93.305857, "status": "CLOSED", "update": "2015-11-03T15:42:46", "name": "West Broadway & Logan Ave N", "lat": 45.002448}, "type": "Feature", "geometry": {"type": "Point", "coordinates": [-93.305857, 45.002448]}}, {"properties": {"stands": 15, "address": "Lowry Ave N & Penn Ave", "bikes": 0, "lon": -93.307798, "status": "CLOSED", "update": "2015-11-03T12:01:37", "name": "Lowry Ave N & Penn Ave", "lat": 45.013318}, "type": "Feature", "geometry": {"type": "Point", "coordinates": [-93.307798, 45.013318]}}, {"properties": {"stands": 19, "address": "West 34th Street  & Hennepin Ave S", "bikes": 0, "lon": -93.298634, "status": "CLOSED", "update": "2015-11-02T18:50:10", "name": "West 34th Street  & Hennepin Ave S", "lat": 44.941388}, "type": "Feature", "geometry": {"type": "Point", "coordinates": [-93.298634, 44.941388]}}, {"properties": {"stands": 15, "address": "27th Ave SE & University Ave.", "bikes": 0, "lon": -93.218919, "status": "CLOSED", "update": "2015-11-03T12:01:32", "name": "27th Ave SE & University Ave.", "lat": 44.97259}, "type": "Feature", "geometry": {"type": "Point", "coordinates": [-93.218919, 44.97259]}}, {"properties": {"stands": 15, "address": "Curfew Street & Ellis Ave.", "bikes": 0, "lon": -93.20525, "status": "CLOSED", "update": "2015-11-03T12:03:26", "name": "Curfew Street & Ellis Ave.", "lat": 44.96616}, "type": "Feature", "geometry": {"type": "Point", "coordinates": [-93.20525, 44.96616]}}, {"properties": {"stands": 14, "address": "Carleton Street & University Ave ", "bikes": 0, "lon": -93.195906, "status": "CLOSED", "update": "2015-11-03T16:21:07", "name": "Carleton Street & University Ave ", "lat": 44.963549}, "type": "Feature", "geometry": {"type": "Point", "coordinates": [-93.195906, 44.963549]}}, {"properties": {"stands": 15, "address": "Fairview Ave. & University Ave.", "bikes": 0, "lon": -93.17706, "status": "CLOSED", "update": "2015-11-04T12:04:18", "name": "Fairview Ave. & University Ave.", "lat": 44.95665}, "type": "Feature", "geometry": {"type": "Point", "coordinates": [-93.17706, 44.95665]}}, {"properties": {"stands": 15, "address": "Hamline University", "bikes": 0, "lon": -93.165868, "status": "CLOSED", "update": "2015-11-04T12:03:44", "name": "Hamline University", "lat": 44.964172}, "type": "Feature", "geometry": {"type": "Point", "coordinates": [-93.165868, 44.964172]}}, {"properties": {"stands": 15, "address": "Sherburne Ave & Snelling Ave N", "bikes": 0, "lon": -93.16734, "status": "CLOSED", "update": "2015-11-04T12:01:44", "name": "Sherburne Ave & Snelling Ave N", "lat": 44.956624}, "type": "Feature", "geometry": {"type": "Point", "coordinates": [-93.16734, 44.956624]}}, {"properties": {"stands": 15, "address": "Midtown YWCA", "bikes": 0, "lon": -93.24054, "status": "CLOSED", "update": "2015-11-04T12:01:34", "name": "Midtown YWCA", "lat": 44.94823}, "type": "Feature", "geometry": {"type": "Point", "coordinates": [-93.24054, 44.94823]}}, {"properties": {"stands": 15, "address": "East Lake Street & 36th Ave S", "bikes": 0, "lon": -93.22106, "status": "CLOSED", "update": "2015-11-02T16:20:50", "name": "East Lake Street & 36th Ave S", "lat": 44.94826}, "type": "Feature", "geometry": {"type": "Point", "coordinates": [-93.22106, 44.94826]}}, {"properties": {"stands": 15, "address": "N Victoria Street & University Ave ", "bikes": 0, "lon": -93.136556, "status": "CLOSED", "update": "2015-11-04T12:02:17", "name": "N Victoria Street & University Ave ", "lat": 44.956052}, "type": "Feature", "geometry": {"type": "Point", "coordinates": [-93.136556, 44.956052]}}, {"properties": {"stands": 15, "address": "Wilder Street & Marshall Ave", "bikes": 0, "lon": -93.185819, "status": "CLOSED", "update": "2015-11-02T15:41:52", "name": "Wilder Street & Marshall Ave", "lat": 44.948147}, "type": "Feature", "geometry": {"type": "Point", "coordinates": [-93.185819, 44.948147]}}, {"properties": {"stands": 15, "address": "Grand Ave & Fairview Ave", "bikes": 0, "lon": -93.177093, "status": "CLOSED", "update": "2015-11-02T12:02:44", "name": "Grand Ave & Fairview Ave", "lat": 44.940513}, "type": "Feature", "geometry": {"type": "Point", "coordinates": [-93.177093, 44.940513]}}, {"properties": {"stands": 15, "address": "Macalester College", "bikes": 0, "lon": -93.17022, "status": "CLOSED", "update": "2015-11-02T15:55:41", "name": "Macalester College", "lat": 44.940218}, "type": "Feature", "geometry": {"type": "Point", "coordinates": [-93.17022, 44.940218]}}, {"properties": {"stands": 15, "address": "Grant Street & Portland Ave", "bikes": 0, "lon": -93.2669, "status": "CLOSED", "update": "2015-11-02T17:44:02", "name": "Grant Street & Portland Ave", "lat": 44.96954}, "type": "Feature", "geometry": {"type": "Point", "coordinates": [-93.2669, 44.96954]}}, {"properties": {"stands": 23, "address": "6th Ave. SE & University Ave.", "bikes": 0, "lon": -93.24812, "status": "CLOSED", "update": "2015-11-06T12:01:22", "name": "6th Ave. SE & University Ave.", "lat": 44.983281}, "type": "Feature", "geometry": {"type": "Point", "coordinates": [-93.24812, 44.983281]}}, {"properties": {"stands": 27, "address": "Lake Calhoun Center", "bikes": 0, "lon": -93.317294418812, "status": "CLOSED", "update": "2015-11-02T19:37:02", "name": "Lake Calhoun Center", "lat": 44.948467166877}, "type": "Feature", "geometry": {"type": "Point", "coordinates": [-93.317294418812, 44.948467166877]}}, {"properties": {"stands": 19, "address": "Portland Ave. & Washington Ave.", "bikes": 0, "lon": -93.26023, "status": "CLOSED", "update": "2015-11-02T16:53:04", "name": "Portland Ave. & Washington Ave.", "lat": 44.978068}, "type": "Feature", "geometry": {"type": "Point", "coordinates": [-93.26023, 44.978068]}}, {"properties": {"stands": 15, "address": "Gateway Park", "bikes": 0, "lon": -93.2675139, "status": "CLOSED", "update": "2015-11-03T17:18:46", "name": "Gateway Park", "lat": 44.9825943}, "type": "Feature", "geometry": {"type": "Point", "coordinates": [-93.2675139, 44.9825943]}}, {"properties": {"stands": 15, "address": "Marshall Street NE & 8th Ave. NE", "bikes": 0, "lon": -93.266854, "status": "CLOSED", "update": "2015-11-03T12:03:08", "name": "Marshall Street NE & 8th Ave. NE", "lat": 44.995348}, "type": "Feature", "geometry": {"type": "Point", "coordinates": [-93.266854, 44.995348]}}, {"properties": {"stands": 19, "address": "2nd Street N & 8th Ave. N", "bikes": 0, "lon": -93.27651, "status": "CLOSED", "update": "2015-11-03T20:46:37", "name": "2nd Street N & 8th Ave. N", "lat": 44.989166}, "type": "Feature", "geometry": {"type": "Point", "coordinates": [-93.27651, 44.989166]}}, {"properties": {"stands": 15, "address": "University Ave. NE & 12th Ave. NE", "bikes": 0, "lon": -93.26296, "status": "CLOSED", "update": "2015-11-03T15:32:37", "name": "University Ave. NE & 12th Ave. NE", "lat": 44.999894}, "type": "Feature", "geometry": {"type": "Point", "coordinates": [-93.26296, 44.999894]}}, {"properties": {"stands": 15, "address": "Pleasant Ave S &  Lake Street", "bikes": 0, "lon": -93.283163, "status": "CLOSED", "update": "2015-11-03T12:03:10", "name": "Pleasant Ave S &  Lake Street", "lat": 44.948556}, "type": "Feature", "geometry": {"type": "Point", "coordinates": [-93.283163, 44.948556]}}, {"properties": {"stands": 15, "address": "West 32nd Street & Bryant Ave S", "bikes": 0, "lon": -93.29038, "status": "CLOSED", "update": "2015-11-02T18:36:48", "name": "West 32nd Street & Bryant Ave S", "lat": 44.94478}, "type": "Feature", "geometry": {"type": "Point", "coordinates": [-93.29038, 44.94478]}}, {"properties": {"stands": 15, "address": "West 36th Street & Bryant Ave S", "bikes": 0, "lon": -93.2912, "status": "CLOSED", "update": "2015-11-02T18:43:35", "name": "West 36th Street & Bryant Ave S", "lat": 44.93775}, "type": "Feature", "geometry": {"type": "Point", "coordinates": [-93.2912, 44.93775]}}, {"properties": {"stands": 19, "address": "West 15th Street & Willow", "bikes": 0, "lon": -93.281991, "status": "CLOSED", "update": "2015-11-02T19:21:53", "name": "West 15th Street & Willow", "lat": 44.968237}, "type": "Feature", "geometry": {"type": "Point", "coordinates": [-93.281991, 44.968237]}}, {"properties": {"stands": 15, "address": "Grand Ave & Cretin Ave", "bikes": 0, "lon": -93.192758, "status": "CLOSED", "update": "2015-11-04T12:01:54", "name": "Grand Ave & Cretin Ave", "lat": 44.939936}, "type": "Feature", "geometry": {"type": "Point", "coordinates": [-93.192758, 44.939936]}}, {"properties": {"stands": 15, "address": "Kowalski's Market", "bikes": 0, "lon": -93.1529, "status": "CLOSED", "update": "2015-11-03T20:24:25", "name": "Kowalski's Market", "lat": 44.94016}, "type": "Feature", "geometry": {"type": "Point", "coordinates": [-93.1529, 44.94016]}}, {"properties": {"stands": 15, "address": "N Milton Street & Summit Ave", "bikes": 0, "lon": -93.138832, "status": "CLOSED", "update": "2015-11-05T12:04:33", "name": "N Milton Street & Summit Ave", "lat": 44.941599}, "type": "Feature", "geometry": {"type": "Point", "coordinates": [-93.138832, 44.941599]}}, {"properties": {"stands": 19, "address": "Como Park Conservatory", "bikes": 0, "lon": -93.1517, "status": "CLOSED", "update": "2015-11-06T12:04:33", "name": "Como Park Conservatory", "lat": 44.98115}, "type": "Feature", "geometry": {"type": "Point", "coordinates": [-93.1517, 44.98115]}}, {"properties": {"stands": 15, "address": "Hague Ave & Dale Street", "bikes": 0, "lon": -93.12661, "status": "CLOSED", "update": "2015-11-03T18:23:22", "name": "Hague Ave & Dale Street", "lat": 44.945736}, "type": "Feature", "geometry": {"type": "Point", "coordinates": [-93.12661, 44.945736]}}, {"properties": {"stands": 15, "address": "Logan Park", "bikes": 0, "lon": -93.25276, "status": "CLOSED", "update": "2015-11-03T15:38:39", "name": "Logan Park", "lat": 44.99882}, "type": "Feature", "geometry": {"type": "Point", "coordinates": [-93.25276, 44.99882]}}, {"properties": {"stands": 15, "address": "Lexington Pkwy & University Ave", "bikes": 0, "lon": -93.146379, "status": "CLOSED", "update": "2015-11-04T12:02:43", "name": "Lexington Pkwy & University Ave", "lat": 44.955363}, "type": "Feature", "geometry": {"type": "Point", "coordinates": [-93.146379, 44.955363]}}, {"properties": {"stands": 15, "address": "Dale Street N & University Ave", "bikes": 0, "lon": -93.126088, "status": "CLOSED", "update": "2015-11-04T12:04:35", "name": "Dale Street N & University Ave", "lat": 44.956066}, "type": "Feature", "geometry": {"type": "Point", "coordinates": [-93.126088, 44.956066]}}, {"properties": {"stands": 15, "address": "University Ave SE & 29th Ave SE", "bikes": 0, "lon": -93.214864, "status": "CLOSED", "update": "2015-11-03T12:04:29", "name": "University Ave SE & 29th Ave SE", "lat": 44.971012}, "type": "Feature", "geometry": {"type": "Point", "coordinates": [-93.214864, 44.971012]}}, {"properties": {"stands": 14, "address": "Como Ave. SE & 29th Ave. SE", "bikes": 0, "lon": -93.212892, "status": "CLOSED", "update": "2015-11-04T12:02:02", "name": "Como Ave. SE & 29th Ave. SE", "lat": 44.987934}, "type": "Feature", "geometry": {"type": "Point", "coordinates": [-93.212892, 44.987934]}}, {"properties": {"stands": 15, "address": "15th Ave. SE & Como Ave. SE", "bikes": 0, "lon": -93.230469, "status": "CLOSED", "update": "2015-11-04T12:03:43", "name": "15th Ave. SE & Como Ave. SE", "lat": 44.987517}, "type": "Feature", "geometry": {"type": "Point", "coordinates": [-93.230469, 44.987517]}}, {"properties": {"stands": 23, "address": "Lake Como Pavilion", "bikes": 0, "lon": -93.143383, "status": "CLOSED", "update": "2015-11-06T12:03:30", "name": "Lake Como Pavilion", "lat": 44.981914}, "type": "Feature", "geometry": {"type": "Point", "coordinates": [-93.143383, 44.981914]}}, {"properties": {"stands": 14, "address": "Dale Street & Grand Ave.", "bikes": 0, "lon": -93.126261, "status": "CLOSED", "update": "2015-11-03T20:18:08", "name": "Dale Street & Grand Ave.", "lat": 44.939779}, "type": "Feature", "geometry": {"type": "Point", "coordinates": [-93.126261, 44.939779]}}, {"properties": {"stands": 14, "address": "St. Paul Police Western District", "bikes": 0, "lon": -93.156984, "status": "CLOSED", "update": "2015-11-04T12:01:33", "name": "St. Paul Police Western District", "lat": 44.953527}, "type": "Feature", "geometry": {"type": "Point", "coordinates": [-93.156984, 44.953527]}}, {"properties": {"stands": 15, "address": "Central Ave. NE & 22nd Ave NE", "bikes": 0, "lon": -93.247114, "status": "CLOSED", "update": "2015-11-02T22:12:16", "name": "Central Ave. NE & 22nd Ave NE", "lat": 45.00994}, "type": "Feature", "geometry": {"type": "Point", "coordinates": [-93.247114, 45.00994]}}, {"properties": {"stands": 15, "address": "U of M St. Paul Student Center", "bikes": 0, "lon": -93.185029, "status": "CLOSED", "update": "2015-11-04T12:03:09", "name": "U of M St. Paul Student Center", "lat": 44.984527}, "type": "Feature", "geometry": {"type": "Point", "coordinates": [-93.185029, 44.984527]}}, {"properties": {"stands": 15, "address": "Cleveland Ave N & Laurel Ave", "bikes": 0, "lon": -93.1873, "status": "CLOSED", "update": "2015-11-02T12:00:26", "name": "Cleveland Ave N & Laurel Ave", "lat": 44.945367}, "type": "Feature", "geometry": {"type": "Point", "coordinates": [-93.1873, 44.945367]}}, {"properties": {"stands": 27, "address": "Washington Ave SE & Union Street SE", "bikes": 0, "lon": -93.2321, "status": "CLOSED", "update": "2015-11-04T12:04:39", "name": "Washington Ave SE & Union Street SE", "lat": 44.97394}, "type": "Feature", "geometry": {"type": "Point", "coordinates": [-93.2321, 44.97394]}}, {"properties": {"stands": 15, "address": "Minnesota History Center", "bikes": 0, "lon": -93.10673, "status": "CLOSED", "update": "2015-11-04T12:03:00", "name": "Minnesota History Center", "lat": 44.949053}, "type": "Feature", "geometry": {"type": "Point", "coordinates": [-93.10673, 44.949053]}}, {"properties": {"stands": 15, "address": "10th Street E & Cedar Street", "bikes": 0, "lon": -93.09759, "status": "CLOSED", "update": "2015-11-04T12:05:03", "name": "10th Street E & Cedar Street", "lat": 44.950189}, "type": "Feature", "geometry": {"type": "Point", "coordinates": [-93.09759, 44.950189]}}, {"properties": {"stands": 14, "address": "7th Place & Jackson Street", "bikes": 0, "lon": -93.091207, "status": "CLOSED", "update": "2015-11-04T12:01:19", "name": "7th Place & Jackson Street", "lat": 44.949433}, "type": "Feature", "geometry": {"type": "Point", "coordinates": [-93.091207, 44.949433]}}, {"properties": {"stands": 23, "address": "Union Depot", "bikes": 0, "lon": -93.086584, "status": "CLOSED", "update": "2015-11-04T12:03:51", "name": "Union Depot", "lat": 44.948399}, "type": "Feature", "geometry": {"type": "Point", "coordinates": [-93.086584, 44.948399]}}, {"properties": {"stands": 19, "address": "Kellogg Blvd E & Jackson Street", "bikes": 0, "lon": -93.088802, "status": "CLOSED", "update": "2015-11-04T12:00:48", "name": "Kellogg Blvd E & Jackson Street", "lat": 44.946191}, "type": "Feature", "geometry": {"type": "Point", "coordinates": [-93.088802, 44.946191]}}, {"properties": {"stands": 15, "address": "7th Street E & Wacouta Street", "bikes": 0, "lon": -93.089245, "status": "CLOSED", "update": "2015-11-04T12:02:09", "name": "7th Street E & Wacouta Street", "lat": 44.950766}, "type": "Feature", "geometry": {"type": "Point", "coordinates": [-93.089245, 44.950766]}}, {"properties": {"stands": 19, "address": "Broadway Street N & 4th Street E", "bikes": 0, "lon": -93.0845, "status": "CLOSED", "update": "2015-11-04T12:03:15", "name": "Broadway Street N & 4th Street E", "lat": 44.94965}, "type": "Feature", "geometry": {"type": "Point", "coordinates": [-93.0845, 44.94965]}}, {"properties": {"stands": 15, "address": "Minnesota Dept. of Transportation", "bikes": 0, "lon": -93.10445, "status": "CLOSED", "update": "2015-11-04T12:04:25", "name": "Minnesota Dept. of Transportation", "lat": 44.95385}, "type": "Feature", "geometry": {"type": "Point", "coordinates": [-93.10445, 44.95385]}}, {"properties": {"stands": 15, "address": "Kellogg Blvd W & Smith Ave", "bikes": 0, "lon": -93.103863, "status": "CLOSED", "update": "2015-11-04T12:02:06", "name": "Kellogg Blvd W & Smith Ave", "lat": 44.945173}, "type": "Feature", "geometry": {"type": "Point", "coordinates": [-93.103863, 44.945173]}}, {"properties": {"stands": 18, "address": "Lafayette Road & Grove Street", "bikes": 0, "lon": -93.08465, "status": "CLOSED", "update": "2015-11-04T12:04:28", "name": "Lafayette Road & Grove Street", "lat": 44.956028}, "type": "Feature", "geometry": {"type": "Point", "coordinates": [-93.08465, 44.956028]}}, {"properties": {"stands": 19, "address": "5th Street E & Minnesota Street N", "bikes": 0, "lon": -93.09231, "status": "CLOSED", "update": "2015-11-04T12:02:56", "name": "5th Street E & Minnesota Street N", "lat": 44.94683}, "type": "Feature", "geometry": {"type": "Point", "coordinates": [-93.09231, 44.94683]}}, {"properties": {"stands": 19, "address": "Landmark Plaza", "bikes": 0, "lon": -93.096114, "status": "CLOSED", "update": "2015-11-04T12:01:10", "name": "Landmark Plaza", "lat": 44.945267}, "type": "Feature", "geometry": {"type": "Point", "coordinates": [-93.096114, 44.945267]}}, {"properties": {"stands": 19, "address": "Wells Fargo Place", "bikes": 0, "lon": -93.09663, "status": "CLOSED", "update": "2015-11-04T12:02:05", "name": "Wells Fargo Place", "lat": 44.94813}, "type": "Feature", "geometry": {"type": "Point", "coordinates": [-93.09663, 44.94813]}}, {"properties": {"stands": 15, "address": "State Street & Cesar Chavez Street", "bikes": 0, "lon": -93.0779, "status": "CLOSED", "update": "2015-11-04T12:04:24", "name": "State Street & Cesar Chavez Street", "lat": 44.93002}, "type": "Feature", "geometry": {"type": "Point", "coordinates": [-93.0779, 44.93002]}}, {"properties": {"stands": 15, "address": "Wabasha Street S & E Fillmore Ave", "bikes": 0, "lon": -93.089031, "status": "CLOSED", "update": "2015-11-04T12:01:14", "name": "Wabasha Street S & E Fillmore Ave", "lat": 44.939047}, "type": "Feature", "geometry": {"type": "Point", "coordinates": [-93.089031, 44.939047]}}, {"properties": {"stands": 19, "address": "Harriet Island", "bikes": 0, "lon": -93.094532, "status": "CLOSED", "update": "2015-11-05T12:04:17", "name": "Harriet Island", "lat": 44.93768}, "type": "Feature", "geometry": {"type": "Point", "coordinates": [-93.094532, 44.93768]}}, {"properties": {"stands": 19, "address": "Kellogg Blvd & Wabasha Street", "bikes": 0, "lon": -93.09227, "status": "CLOSED", "update": "2015-11-04T12:03:37", "name": "Kellogg Blvd & Wabasha Street", "lat": 44.943846}, "type": "Feature", "geometry": {"type": "Point", "coordinates": [-93.09227, 44.943846]}}, {"properties": {"stands": 15, "address": "Wabasha Street S & Cesar Chavez Street", "bikes": 0, "lon": -93.084497, "status": "CLOSED", "update": "2015-11-04T12:04:05", "name": "Wabasha Street S & Cesar Chavez Street", "lat": 44.934503}, "type": "Feature", "geometry": {"type": "Point", "coordinates": [-93.084497, 44.934503]}}, {"properties": {"stands": 19, "address": "Upper Landing", "bikes": 0, "lon": -93.098712, "status": "CLOSED", "update": "2015-11-05T12:03:25", "name": "Upper Landing", "lat": 44.940902}, "type": "Feature", "geometry": {"type": "Point", "coordinates": [-93.098712, 44.940902]}}, {"properties": {"stands": 19, "address": "7th Street W & Grand Ave", "bikes": 0, "lon": -93.10624, "status": "CLOSED", "update": "2015-11-04T12:03:01", "name": "7th Street W & Grand Ave", "lat": 44.94144}, "type": "Feature", "geometry": {"type": "Point", "coordinates": [-93.10624, 44.94144]}}, {"properties": {"stands": 19, "address": "Science Museum of Minnesota", "bikes": 0, "lon": -93.097836, "status": "CLOSED", "update": "2015-11-04T12:01:57", "name": "Science Museum of Minnesota", "lat": 44.942846}, "type": "Feature", "geometry": {"type": "Point", "coordinates": [-93.097836, 44.942846]}}, {"properties": {"stands": 19, "address": "Selby Ave & Virginia Street", "bikes": 0, "lon": -93.1151, "status": "CLOSED", "update": "2015-11-03T18:15:40", "name": "Selby Ave & Virginia Street", "lat": 44.9467}, "type": "Feature", "geometry": {"type": "Point", "coordinates": [-93.1151, 44.9467]}}, {"properties": {"stands": 15, "address": "University Ave & Western Ave", "bikes": 0, "lon": -93.11665, "status": "CLOSED", "update": "2015-11-04T12:02:32", "name": "University Ave & Western Ave", "lat": 44.95562}, "type": "Feature", "geometry": {"type": "Point", "coordinates": [-93.11665, 44.95562]}}, {"properties": {"stands": 17, "address": "E 14th Street & N Robert Street ", "bikes": 0, "lon": -93.097817, "status": "CLOSED", "update": "2015-11-04T12:02:31", "name": "E 14th Street & N Robert Street ", "lat": 44.954697}, "type": "Feature", "geometry": {"type": "Point", "coordinates": [-93.097817, 44.954697]}}, {"properties": {"stands": 15, "address": "N Marion Street & University Ave W", "bikes": 0, "lon": -93.10955, "status": "CLOSED", "update": "2015-11-04T12:02:24", "name": "N Marion Street & University Ave W", "lat": 44.95476}, "type": "Feature", "geometry": {"type": "Point", "coordinates": [-93.10955, 44.95476]}}, {"properties": {"stands": 19, "address": "N Robert Street & E 10th Street", "bikes": 0, "lon": -93.094545, "status": "CLOSED", "update": "2015-11-04T12:04:03", "name": "N Robert Street & E 10th Street", "lat": 44.951132}, "type": "Feature", "geometry": {"type": "Point", "coordinates": [-93.094545, 44.951132]}}, {"properties": {"stands": 25, "address": "9th Street N & Hawthorne Ave", "bikes": 0, "lon": -93.277505, "status": "CLOSED", "update": "2015-11-02T12:01:01", "name": "9th Street N & Hawthorne Ave", "lat": 44.977128}, "type": "Feature", "geometry": {"type": "Point", "coordinates": [-93.277505, 44.977128]}}, {"properties": {"stands": 19, "address": "Chicago Ave & Washington Ave S", "bikes": 0, "lon": -93.256736, "status": "CLOSED", "update": "2015-11-02T16:37:18", "name": "Chicago Ave & Washington Ave S", "lat": 44.977521}, "type": "Feature", "geometry": {"type": "Point", "coordinates": [-93.256736, 44.977521]}}, {"properties": {"stands": 15, "address": "N 4th Ave & W River Parkway", "bikes": 0, "lon": -93.269087, "status": "CLOSED", "update": "2015-11-03T16:29:31", "name": "N 4th Ave & W River Parkway", "lat": 44.988461}, "type": "Feature", "geometry": {"type": "Point", "coordinates": [-93.269087, 44.988461]}}, {"properties": {"stands": 15, "address": "Minneapolis Park & Recreation Board", "bikes": 0, "lon": -93.277037, "status": "CLOSED", "update": "2015-11-03T12:03:13", "name": "Minneapolis Park & Recreation Board", "lat": 45.00095}, "type": "Feature", "geometry": {"type": "Point", "coordinates": [-93.277037, 45.00095]}}, {"properties": {"stands": 15, "address": "Webber Park", "bikes": 0, "lon": -93.29065, "status": "CLOSED", "update": "2015-11-06T12:02:49", "name": "Webber Park", "lat": 45.033069}, "type": "Feature", "geometry": {"type": "Point", "coordinates": [-93.29065, 45.033069]}}, {"properties": {"stands": 19, "address": "Fort Snelling Visitor Center", "bikes": 0, "lon": -93.187381, "status": "CLOSED", "update": "2015-11-05T12:04:20", "name": "Fort Snelling Visitor Center", "lat": 44.894044}, "type": "Feature", "geometry": {"type": "Point", "coordinates": [-93.187381, 44.894044]}}, {"properties": {"stands": 27, "address": "Minnehaha Park", "bikes": 0, "lon": -93.213587, "status": "CLOSED", "update": "2015-11-02T16:12:46", "name": "Minnehaha Park", "lat": 44.916906}, "type": "Feature", "geometry": {"type": "Point", "coordinates": [-93.213587, 44.916906]}}, {"properties": {"stands": 25, "address": "Lake Harriet Bandshell", "bikes": 0, "lon": -93.30713, "status": "CLOSED", "update": "2015-11-05T12:03:34", "name": "Lake Harriet Bandshell", "lat": 44.92936}, "type": "Feature", "geometry": {"type": "Point", "coordinates": [-93.30713, 44.92936]}}, {"properties": {"stands": 23, "address": "Lake Nokomis", "bikes": 0, "lon": -93.242761, "status": "CLOSED", "update": "2015-11-06T12:03:51", "name": "Lake Nokomis", "lat": 44.915957}, "type": "Feature", "geometry": {"type": "Point", "coordinates": [-93.242761, 44.915957]}}, {"properties": {"stands": 15, "address": "E 38th Street & 42nd Ave S", "bikes": 0, "lon": -93.2125, "status": "CLOSED", "update": "2015-11-02T15:40:24", "name": "E 38th Street & 42nd Ave S", "lat": 44.9342}, "type": "Feature", "geometry": {"type": "Point", "coordinates": [-93.2125, 44.9342]}}, {"properties": {"stands": 19, "address": "W 36th Street & W Calhoun Parkway", "bikes": 0, "lon": -93.320212, "status": "CLOSED", "update": "2015-11-05T12:00:59", "name": "W 36th Street & W Calhoun Parkway", "lat": 44.937817}, "type": "Feature", "geometry": {"type": "Point", "coordinates": [-93.320212, 44.937817]}}, {"properties": {"stands": 15, "address": "Lake Street & West River Parkway", "bikes": 0, "lon": -93.206201, "status": "CLOSED", "update": "2015-11-02T15:48:18", "name": "Lake Street & West River Parkway", "lat": 44.948452}, "type": "Feature", "geometry": {"type": "Point", "coordinates": [-93.206201, 44.948452]}}, {"properties": {"stands": 15, "address": "Dupont Ave S & W 29th Street", "bikes": 0, "lon": -93.293129, "status": "CLOSED", "update": "2015-11-02T18:14:58", "name": "Dupont Ave S & W 29th Street", "lat": 44.949699}, "type": "Feature", "geometry": {"type": "Point", "coordinates": [-93.293129, 44.949699]}}, {"properties": {"stands": 19, "address": "Upton Ave S & Sheridan Ave S", "bikes": 0, "lon": -93.314597, "status": "CLOSED", "update": "2015-11-05T12:05:16", "name": "Upton Ave S & Sheridan Ave S", "lat": 44.92515}, "type": "Feature", "geometry": {"type": "Point", "coordinates": [-93.314597, 44.92515]}}, {"properties": {"stands": 15, "address": "27th Ave S & Minnehaha Ave", "bikes": 0, "lon": -93.233092, "status": "CLOSED", "update": "2015-11-02T16:50:22", "name": "27th Ave S & Minnehaha Ave", "lat": 44.947329}, "type": "Feature", "geometry": {"type": "Point", "coordinates": [-93.233092, 44.947329]}}, {"properties": {"stands": 15, "address": "Coldwater Spring", "bikes": 0, "lon": -93.198283, "status": "CLOSED", "update": "2015-11-05T12:05:02", "name": "Coldwater Spring", "lat": 44.905043}, "type": "Feature", "geometry": {"type": "Point", "coordinates": [-93.198283, 44.905043]}}, {"properties": {"stands": 19, "address": "46th Street Light Rail Station", "bikes": 0, "lon": -93.21953, "status": "CLOSED", "update": "2015-11-02T16:19:56", "name": "46th Street Light Rail Station", "lat": 44.920466}, "type": "Feature", "geometry": {"type": "Point", "coordinates": [-93.21953, 44.920466]}}, {"properties": {"stands": 15, "address": "38th Street Light Rail Station", "bikes": 0, "lon": -93.229338, "status": "CLOSED", "update": "2015-11-02T15:27:48", "name": "38th Street Light Rail Station", "lat": 44.93434}, "type": "Feature", "geometry": {"type": "Point", "coordinates": [-93.229338, 44.93434]}}, {"properties": {"stands": 15, "address": "Cleveland Ave S & Highland Parkway", "bikes": 0, "lon": -93.187264, "status": "CLOSED", "update": "2015-11-02T16:05:44", "name": "Cleveland Ave S & Highland Parkway", "lat": 44.919593}, "type": "Feature", "geometry": {"type": "Point", "coordinates": [-93.187264, 44.919593]}}, {"properties": {"stands": 3, "address": "11th Ave S & S 2nd Street", "bikes": 0, "lon": -93.252189, "status": "CLOSED", "update": "2015-11-02T16:04:48", "name": "11th Ave S & S 2nd Street", "lat": 44.97673}, "type": "Feature", "geometry": {"type": "Point", "coordinates": [-93.252189, 44.97673]}}, {"properties": {"stands": 15, "address": "Broadway & Marshall Street NE", "bikes": 0, "lon": -93.268633, "status": "CLOSED", "update": "2015-11-03T15:28:19", "name": "Broadway & Marshall Street NE", "lat": 44.998613}, "type": "Feature", "geometry": {"type": "Point", "coordinates": [-93.268633, 44.998613]}}, {"properties": {"stands": 15, "address": "Marshall Street NE & 18th Ave NE", "bikes": 0, "lon": -93.271571, "status": "CLOSED", "update": "2015-11-03T12:03:59", "name": "Marshall Street NE & 18th Ave NE", "lat": 45.006229}, "type": "Feature", "geometry": {"type": "Point", "coordinates": [-93.271571, 45.006229]}}, {"properties": {"stands": 15, "address": "Boom Island Park", "bikes": 0, "lon": -93.270256, "status": "CLOSED", "update": "2015-11-03T12:01:31", "name": "Boom Island Park", "lat": 44.99254}, "type": "Feature", "geometry": {"type": "Point", "coordinates": [-93.270256, 44.99254]}}, {"properties": {"stands": 15, "address": "Mississippi River Blvd & Summit Ave", "bikes": 0, "lon": -93.197997, "status": "CLOSED", "update": "2015-11-03T20:34:25", "name": "Mississippi River Blvd & Summit Ave", "lat": 44.940288}, "type": "Feature", "geometry": {"type": "Point", "coordinates": [-93.197997, 44.940288]}}, {"properties": {"stands": 19, "address": "University of St. Thomas", "bikes": 0, "lon": -93.191837, "status": "CLOSED", "update": "2015-11-02T15:47:39", "name": "University of St. Thomas", "lat": 44.943017}, "type": "Feature", "geometry": {"type": "Point", "coordinates": [-93.191837, 44.943017]}}, {"properties": {"stands": 19, "address": "Fort Snelling State Park", "bikes": 0, "lon": -93.18237, "status": "CLOSED", "update": "2015-11-05T12:01:43", "name": "Fort Snelling State Park", "lat": 44.890527}, "type": "Feature", "geometry": {"type": "Point", "coordinates": [-93.18237, 44.890527]}}, {"properties": {"stands": 15, "address": "Marshall Street NE & Lowry Ave", "bikes": 0, "lon": -93.27166, "status": "CLOSED", "update": "2015-11-03T12:02:07", "name": "Marshall Street NE & Lowry Ave", "lat": 45.01312}, "type": "Feature", "geometry": {"type": "Point", "coordinates": [-93.27166, 45.01312]}}, {"properties": {"stands": 15, "address": "Nicollet Mall & Grant Street", "bikes": 0, "lon": -93.278133, "status": "CLOSED", "update": "2015-11-05T12:03:50", "name": "Nicollet Mall & Grant Street", "lat": 44.96995}, "type": "Feature", "geometry": {"type": "Point", "coordinates": [-93.278133, 44.96995]}}, {"properties": {"stands": 33, "address": "Lake Street & Knox Ave S", "bikes": 0, "lon": -93.305209, "status": "CLOSED", "update": "2015-11-02T20:20:28", "name": "Lake Street & Knox Ave S", "lat": 44.9485}, "type": "Feature", "geometry": {"type": "Point", "coordinates": [-93.305209, 44.9485]}}, {"properties": {"stands": 15, "address": "Nicollet Island", "bikes": 0, "lon": -93.26145, "status": "CLOSED", "update": "2015-11-03T12:02:55", "name": "Nicollet Island", "lat": 44.985388}, "type": "Feature", "geometry": {"type": "Point", "coordinates": [-93.26145, 44.985388]}}, {"properties": {"stands": 19, "address": "5th Street & Nicollet Mall", "bikes": 0, "lon": -93.270503282547, "status": "CLOSED", "update": "2015-11-03T18:09:34", "name": "5th Street & Nicollet Mall", "lat": 44.978665179559}, "type": "Feature", "geometry": {"type": "Point", "coordinates": [-93.270503282547, 44.978665179559]}}, {"properties": {"stands": 19, "address": "8th Street & 2nd Ave S", "bikes": 0, "lon": -93.270649, "status": "CLOSED", "update": "2015-11-03T12:03:29", "name": "8th Street & 2nd Ave S", "lat": 44.974795}, "type": "Feature", "geometry": {"type": "Point", "coordinates": [-93.270649, 44.974795]}}, {"properties": {"stands": 15, "address": "SE 3rd Ave & University Ave SE", "bikes": 0, "lon": -93.252102, "status": "CLOSED", "update": "2015-11-03T12:04:08", "name": "SE 3rd Ave & University Ave SE", "lat": 44.985465}, "type": "Feature", "geometry": {"type": "Point", "coordinates": [-93.252102, 44.985465]}}, {"properties": {"stands": 15, "address": "2nd Street SE & 5th Ave SE", "bikes": 0, "lon": -93.249653, "status": "CLOSED", "update": "2015-11-03T12:03:05", "name": "2nd Street SE & 5th Ave SE", "lat": 44.983321}, "type": "Feature", "geometry": {"type": "Point", "coordinates": [-93.249653, 44.983321]}}, {"properties": {"stands": 23, "address": "Sanford Hall", "bikes": 0, "lon": -93.240282, "status": "CLOSED", "update": "2015-11-04T12:03:03", "name": "Sanford Hall", "lat": 44.980831}, "type": "Feature", "geometry": {"type": "Point", "coordinates": [-93.240282, 44.980831]}}, {"properties": {"stands": 19, "address": "Delaware St SE & 26th Ave SE", "bikes": 0, "lon": -93.221021, "status": "CLOSED", "update": "2015-11-05T12:02:07", "name": "Delaware St SE & 26th Ave SE", "lat": 44.972128}, "type": "Feature", "geometry": {"type": "Point", "coordinates": [-93.221021, 44.972128]}}, {"properties": {"stands": 18, "address": "Weisman Art Museum", "bikes": 0, "lon": -93.237254, "status": "CLOSED", "update": "2015-11-05T12:04:15", "name": "Weisman Art Museum", "lat": 44.973607}, "type": "Feature", "geometry": {"type": "Point", "coordinates": [-93.237254, 44.973607]}}, {"properties": {"stands": 19, "address": "1st Ave N & 2nd Street N", "bikes": 0, "lon": -93.268604, "status": "CLOSED", "update": "2015-11-03T18:43:18", "name": "1st Ave N & 2nd Street N", "lat": 44.983902}, "type": "Feature", "geometry": {"type": "Point", "coordinates": [-93.268604, 44.983902]}}, {"properties": {"stands": 19, "address": "3rd Street N & 8th Ave N", "bikes": 0, "lon": -93.279854, "status": "CLOSED", "update": "2015-11-03T15:53:41", "name": "3rd Street N & 8th Ave N", "lat": 44.987996}, "type": "Feature", "geometry": {"type": "Point", "coordinates": [-93.279854, 44.987996]}}, {"properties": {"stands": 19, "address": "5th Ave N & 4th Street N", "bikes": 0, "lon": -93.277234, "status": "CLOSED", "update": "2015-11-03T15:39:25", "name": "5th Ave N & 4th Street N", "lat": 44.98446}, "type": "Feature", "geometry": {"type": "Point", "coordinates": [-93.277234, 44.98446]}}, {"properties": {"stands": 19, "address": "Washington Ave N & Cedar Lake Trail", "bikes": 0, "lon": -93.274031, "status": "CLOSED", "update": "2015-11-03T15:42:20", "name": "Washington Ave N & Cedar Lake Trail", "lat": 44.985406}, "type": "Feature", "geometry": {"type": "Point", "coordinates": [-93.274031, 44.985406]}}, {"properties": {"stands": 23, "address": "Hennepin Ave & S Washington Ave", "bikes": 0, "lon": -93.269195, "status": "OPEN", "update": "2015-10-28T15:26:35", "name": "Hennepin Ave & S Washington Ave", "lat": 44.981895}, "type": "Feature", "geometry": {"type": "Point", "coordinates": [-93.269195, 44.981895]}}, {"properties": {"stands": 18, "address": "Groveland Ave & Clifton Place", "bikes": 0, "lon": -93.286294, "status": "CLOSED", "update": "2015-11-02T19:09:19", "name": "Groveland Ave & Clifton Place", "lat": 44.966145}, "type": "Feature", "geometry": {"type": "Point", "coordinates": [-93.286294, 44.966145]}}, {"properties": {"stands": 15, "address": "5th Street NE & 1st Ave NE", "bikes": 0, "lon": -93.254295, "status": "CLOSED", "update": "2015-11-03T17:08:39", "name": "5th Street NE & 1st Ave NE", "lat": 44.990328}, "type": "Feature", "geometry": {"type": "Point", "coordinates": [-93.254295, 44.990328]}}, {"properties": {"stands": 14, "address": "5th Street NE & 3rd Ave NE", "bikes": 0, "lon": -93.255558, "status": "CLOSED", "update": "2015-11-02T23:27:35", "name": "5th Street NE & 3rd Ave NE", "lat": 44.991821}, "type": "Feature", "geometry": {"type": "Point", "coordinates": [-93.255558, 44.991821]}}, {"properties": {"stands": 15, "address": "3rd Street NE & Lowry Ave NE", "bikes": 0, "lon": -93.264573, "status": "CLOSED", "update": "2015-11-03T12:00:49", "name": "3rd Street NE & Lowry Ave NE", "lat": 45.01304}, "type": "Feature", "geometry": {"type": "Point", "coordinates": [-93.264573, 45.01304]}}, {"properties": {"stands": 15, "address": "22nd Ave NE & California Street NE", "bikes": 0, "lon": -93.268598, "status": "CLOSED", "update": "2015-11-03T12:01:01", "name": "22nd Ave NE & California Street NE", "lat": 45.010119}, "type": "Feature", "geometry": {"type": "Point", "coordinates": [-93.268598, 45.010119]}}, {"properties": {"stands": 15, "address": "Fort Snelling LRT Station", "bikes": 0, "lon": -93.19782, "status": "CLOSED", "update": "2015-11-06T16:04:11", "name": "Fort Snelling LRT Station", "lat": 44.892483}, "type": "Feature", "geometry": {"type": "Point", "coordinates": [-93.19782, 44.892483]}}, {"properties": {"stands": 15, "address": "18th Ave Trail & 2nd Street NE", "bikes": 0, "lon": -93.266553, "status": "CLOSED", "update": "2015-11-03T12:05:17", "name": "18th Ave Trail & 2nd Street NE", "lat": 45.006321}, "type": "Feature", "geometry": {"type": "Point", "coordinates": [-93.266553, 45.006321]}}, {"properties": {"stands": 3, "address": "Nice Ride World Headquarters", "bikes": 0, "lon": -93.220066, "status": "CLOSED", "update": "2015-11-04T00:00:56", "name": "Nice Ride World Headquarters", "lat": 44.953566}, "type": "Feature", "geometry": {"type": "Point", "coordinates": [-93.220066, 44.953566]}}], "type": "FeatureCollection"}