<<<<<<< HEAD
{"type": "FeatureCollection", "features": [{"geometry": {"coordinates": [-73.553786, 45.508498], "type": "Point"}, "type": "Feature", "properties": {"bikes": 0, "name": "Notre Dame / Place Jacques Cartier", "address": "Notre Dame / Place Jacques Cartier", "lat": 45.508498, "status": "OPEN", "stands": 27, "lon": -73.553786}}, {"geometry": {"coordinates": [-73.541019, 45.539185], "type": "Point"}, "type": "Feature", "properties": {"bikes": 0, "name": "D\u00e9zery/Ste-Catherine", "address": "D\u00e9zery/Ste-Catherine", "lat": 45.539185, "status": "OPEN", "stands": 21, "lon": -73.541019}}, {"geometry": {"coordinates": [-73.567974, 45.511119], "type": "Point"}, "type": "Feature", "properties": {"bikes": 0, "name": "Evans/Clark", "address": "Evans/Clark", "lat": 45.511119, "status": "OPEN", "stands": 23, "lon": -73.567974}}, {"geometry": {"coordinates": [-73.553930819035, 45.512053603271], "type": "Point"}, "type": "Feature", "properties": {"bikes": 0, "name": "Berri / Saint-Antoine", "address": "Berri / Saint-Antoine", "lat": 45.512053603271, "status": "OPEN", "stands": 0, "lon": -73.553930819035}}, {"geometry": {"coordinates": [-73.5689, 45.508349], "type": "Point"}, "type": "Feature", "properties": {"bikes": 0, "name": "Pr\u00e9sident-kennedy/Jeanne Mance", "address": "Pr\u00e9sident-kennedy/Jeanne Mance", "lat": 45.508349, "status": "OPEN", "stands": 23, "lon": -73.5689}}, {"geometry": {"coordinates": [-73.577684, 45.556752], "type": "Point"}, "type": "Feature", "properties": {"bikes": 0, "name": "16e avenue/Rosemont", "address": "16e avenue/Rosemont", "lat": 45.556752, "status": "OPEN", "stands": 3, "lon": -73.577684}}, {"geometry": {"coordinates": [-73.562183976173, 45.511640093571], "type": "Point"}, "type": "Feature", "properties": {"bikes": 0, "name": "de l'H\u00f4tel-de-Ville / Sainte-Catherine", "address": "de l'H\u00f4tel-de-Ville / Sainte-Catherine", "lat": 45.511640093571, "status": "OPEN", "stands": 27, "lon": -73.562183976173}}, {"geometry": {"coordinates": [-73.561438, 45.512738], "type": "Point"}, "type": "Feature", "properties": {"bikes": 0, "name": "Sanguinet /Ste-Catherine", "address": "Sanguinet /Ste-Catherine", "lat": 45.512738, "status": "OPEN", "stands": 23, "lon": -73.561438}}, {"geometry": {"coordinates": [-73.559775352478, 45.514624813586], "type": "Point"}, "type": "Feature", "properties": {"bikes": 0, "name": "Berri / Sainte-Catherine", "address": "Berri / Sainte-Catherine", "lat": 45.514624813586, "status": "OPEN", "stands": 2, "lon": -73.559775352478}}, {"geometry": {"coordinates": [-73.560547828674, 45.513711370744], "type": "Point"}, "type": "Feature", "properties": {"bikes": 0, "name": "Sainte-Catherine / Saint-Denis", "address": "Sainte-Catherine / Saint-Denis", "lat": 45.513711370744, "status": "OPEN", "stands": 39, "lon": -73.560547828674}}, {"geometry": {"coordinates": [-73.552439, 45.514076], "type": "Point"}, "type": "Feature", "properties": {"bikes": 0, "name": "Saint-Andr\u00e9 / Saint-Antoine", "address": "Saint-Andr\u00e9 / Saint-Antoine", "lat": 45.514076, "status": "OPEN", "stands": 15, "lon": -73.552439}}, {"geometry": {"coordinates": [-73.56497, 45.51066], "type": "Point"}, "type": "Feature", "properties": {"bikes": 0, "name": "M\u00e9tro Saint-Laurent (Maisonneuve / St-Laurent)", "address": "M\u00e9tro Saint-Laurent (Maisonneuve / St-Laurent)", "lat": 45.51066, "status": "OPEN", "stands": 48, "lon": -73.56497}}, {"geometry": {"coordinates": [-73.56255, 45.51339], "type": "Point"}, "type": "Feature", "properties": {"bikes": 0, "name": "Sanguinet / de Maisonneuve", "address": "Sanguinet / de Maisonneuve", "lat": 45.51339, "status": "OPEN", "stands": 7, "lon": -73.56255}}, {"geometry": {"coordinates": [-73.562152, 45.514649], "type": "Point"}, "type": "Feature", "properties": {"bikes": 0, "name": "St-Denis / de Maisonneuve", "address": "St-Denis / de Maisonneuve", "lat": 45.514649, "status": "OPEN", "stands": 0, "lon": -73.562152}}, {"geometry": {"coordinates": [-73.561273, 45.515299], "type": "Point"}, "type": "Feature", "properties": {"bikes": 0, "name": "Berri / de Maisonneuve", "address": "Berri / de Maisonneuve", "lat": 45.515299, "status": "OPEN", "stands": 27, "lon": -73.561273}}, {"geometry": {"coordinates": [-73.539285, 45.472503], "type": "Point"}, "type": "Feature", "properties": {"bikes": 0, "name": "Jacques Le Ber/Ch Pointe Nord", "address": "Jacques Le Ber/Ch Pointe Nord", "lat": 45.472503, "status": "OPEN", "stands": 2, "lon": -73.539285}}, {"geometry": {"coordinates": [-73.5637571, 45.52106924], "type": "Point"}, "type": "Feature", "properties": {"bikes": 0, "name": "Square Ahmerst/Wolfe", "address": "Square Ahmerst/Wolfe", "lat": 45.52106924, "status": "OPEN", "stands": 14, "lon": -73.5637571}}, {"geometry": {"coordinates": [-73.56353, 45.51889], "type": "Point"}, "type": "Feature", "properties": {"bikes": 0, "name": "Saint-Andr\u00e9 / Ontario", "address": "Saint-Andr\u00e9 / Ontario", "lat": 45.51889, "status": "OPEN", "stands": 17, "lon": -73.56353}}, {"geometry": {"coordinates": [-73.567205, 45.517836], "type": "Point"}, "type": "Feature", "properties": {"bikes": 0, "name": "Berri / Sherbrooke", "address": "Berri / Sherbrooke", "lat": 45.517836, "status": "OPEN", "stands": 27, "lon": -73.567205}}, {"geometry": {"coordinates": [-73.565338, 45.514784], "type": "Point"}, "type": "Feature", "properties": {"bikes": 0, "name": "Sanguinet / Ontario", "address": "Sanguinet / Ontario", "lat": 45.514784, "status": "OPEN", "stands": 23, "lon": -73.565338}}, {"geometry": {"coordinates": [-73.562441, 45.521165], "type": "Point"}, "type": "Feature", "properties": {"bikes": 0, "name": "Montcalm/Ontario", "address": "Montcalm/Ontario", "lat": 45.521165, "status": "OPEN", "stands": 19, "lon": -73.562441}}, {"geometry": {"coordinates": [-73.54983, 45.51086], "type": "Point"}, "type": "Feature", "properties": {"bikes": 0, "name": "de la Commune / Berri", "address": "de la Commune / Berri", "lat": 45.51086, "status": "OPEN", "stands": 36, "lon": -73.54983}}, {"geometry": {"coordinates": [-73.562624, 45.531367], "type": "Point"}, "type": "Feature", "properties": {"bikes": 0, "name": "Des \u00c9rables/ Sherbrooke", "address": "Des \u00c9rables/ Sherbrooke", "lat": 45.531367, "status": "OPEN", "stands": 15, "lon": -73.562624}}, {"geometry": {"coordinates": [-73.555119037628, 45.507143919284], "type": "Point"}, "type": "Feature", "properties": {"bikes": 0, "name": "Notre-Dame / Saint-Gabriel", "address": "Notre-Dame / Saint-Gabriel", "lat": 45.507143919284, "status": "OPEN", "stands": 0, "lon": -73.555119037628}}, {"geometry": {"coordinates": [-73.552007675171, 45.507192792674], "type": "Point"}, "type": "Feature", "properties": {"bikes": 0, "name": "de la Commune / Place Jacques-Cartier", "address": "de la Commune / Place Jacques-Cartier", "lat": 45.507192792674, "status": "OPEN", "stands": 54, "lon": -73.552007675171}}, {"geometry": {"coordinates": [-73.584352, 45.482843], "type": "Point"}, "type": "Feature", "properties": {"bikes": 0, "name": "Belair/St-Antoine", "address": "Belair/St-Antoine", "lat": 45.482843, "status": "OPEN", "stands": 23, "lon": -73.584352}}, {"geometry": {"coordinates": [-73.5592, 45.50449], "type": "Point"}, "type": "Feature", "properties": {"bikes": 0, "name": "Saint-Antoine / Saint-Fran\u00e7ois-Xavier", "address": "Saint-Antoine / Saint-Fran\u00e7ois-Xavier", "lat": 45.50449, "status": "OPEN", "stands": 15, "lon": -73.5592}}, {"geometry": {"coordinates": [-73.55976, 45.50623], "type": "Point"}, "type": "Feature", "properties": {"bikes": 0, "name": "M\u00e9tro Place-d'Armes (Viger/St-Urbain)", "address": "M\u00e9tro Place-d'Armes (Viger/St-Urbain)", "lat": 45.50623, "status": "OPEN", "stands": 0, "lon": -73.55976}}, {"geometry": {"coordinates": [-73.582429, 45.559761], "type": "Point"}, "type": "Feature", "properties": {"bikes": 0, "name": "18e av/beaubien", "address": "18e av/beaubien", "lat": 45.559761, "status": "OPEN", "stands": 27, "lon": -73.582429}}, {"geometry": {"coordinates": [-73.563112, 45.5079], "type": "Point"}, "type": "Feature", "properties": {"bikes": 0, "name": "Saint-Urbain / Ren\u00e9-L\u00e9vesque", "address": "Saint-Urbain / Ren\u00e9-L\u00e9vesque", "lat": 45.5079, "status": "OPEN", "stands": 39, "lon": -73.563112}}, {"geometry": {"coordinates": [-73.5612, 45.504803], "type": "Point"}, "type": "Feature", "properties": {"bikes": 0, "name": "Viger/Jeanne Mance", "address": "Viger/Jeanne Mance", "lat": 45.504803, "status": "OPEN", "stands": 3, "lon": -73.5612}}, {"geometry": {"coordinates": [-73.553606271744, 45.504068569843], "type": "Point"}, "type": "Feature", "properties": {"bikes": 0, "name": "de la Commune / Saint-Sulpice", "address": "de la Commune / Saint-Sulpice", "lat": 45.504068569843, "status": "OPEN", "stands": 43, "lon": -73.553606271744}}, {"geometry": {"coordinates": [-73.555156588554, 45.501974378779], "type": "Point"}, "type": "Feature", "properties": {"bikes": 0, "name": "Saint-Nicolas / Place d'Youville", "address": "Saint-Nicolas / Place d'Youville", "lat": 45.501974378779, "status": "OPEN", "stands": 14, "lon": -73.555156588554}}, {"geometry": {"coordinates": [-73.55566, 45.49975], "type": "Point"}, "type": "Feature", "properties": {"bikes": 0, "name": "McGill / d'Youville", "address": "McGill / d'Youville", "lat": 45.49975, "status": "OPEN", "stands": 23, "lon": -73.55566}}, {"geometry": {"coordinates": [-73.558826, 45.500779], "type": "Point"}, "type": "Feature", "properties": {"bikes": 0, "name": "McGill / des R\u00e9collets", "address": "McGill / des R\u00e9collets", "lat": 45.500779, "status": "OPEN", "stands": 12, "lon": -73.558826}}, {"geometry": {"coordinates": [-73.55917, 45.5028], "type": "Point"}, "type": "Feature", "properties": {"bikes": 0, "name": "Saint-Jacques / Saint-Pierre", "address": "Saint-Jacques / Saint-Pierre", "lat": 45.5028, "status": "OPEN", "stands": 22, "lon": -73.55917}}, {"geometry": {"coordinates": [-73.561082, 45.500674], "type": "Point"}, "type": "Feature", "properties": {"bikes": 0, "name": "Saint-Jacques / Gauvin", "address": "Saint-Jacques / Gauvin", "lat": 45.500674, "status": "OPEN", "stands": 10, "lon": -73.561082}}, {"geometry": {"coordinates": [-73.565354, 45.500675], "type": "Point"}, "type": "Feature", "properties": {"bikes": 0, "name": "de la Gaucheti\u00e8re / University", "address": "de la Gaucheti\u00e8re / University", "lat": 45.500675, "status": "OPEN", "stands": 3, "lon": -73.565354}}, {"geometry": {"coordinates": [-73.56295, 45.50206], "type": "Point"}, "type": "Feature", "properties": {"bikes": 0, "name": "Square Victoria", "address": "Square Victoria", "lat": 45.50206, "status": "OPEN", "stands": 1, "lon": -73.56295}}, {"geometry": {"coordinates": [-73.570209, 45.52169], "type": "Point"}, "type": "Feature", "properties": {"bikes": 0, "name": "Rue St-Andr\u00e9 / Roy", "address": "Rue St-Andr\u00e9 / Roy", "lat": 45.52169, "status": "OPEN", "stands": 15, "lon": -73.570209}}, {"geometry": {"coordinates": [-73.56671, 45.49871], "type": "Point"}, "type": "Feature", "properties": {"bikes": 0, "name": "de la Gaucheti\u00e8re / Mansfield", "address": "de la Gaucheti\u00e8re / Mansfield", "lat": 45.49871, "status": "OPEN", "stands": 0, "lon": -73.56671}}, {"geometry": {"coordinates": [-73.574707, 45.508231], "type": "Point"}, "type": "Feature", "properties": {"bikes": 0, "name": "Milton / Durocher", "address": "Milton / Durocher", "lat": 45.508231, "status": "OPEN", "stands": 31, "lon": -73.574707}}, {"geometry": {"coordinates": [-73.55488, 45.4982], "type": "Point"}, "type": "Feature", "properties": {"bikes": 0, "name": "King / Wellington", "address": "King / Wellington", "lat": 45.4982, "status": "OPEN", "stands": 0, "lon": -73.55488}}, {"geometry": {"coordinates": [-73.55232, 45.49886], "type": "Point"}, "type": "Feature", "properties": {"bikes": 0, "name": "de la Commune / McGill", "address": "de la Commune / McGill", "lat": 45.49886, "status": "OPEN", "stands": 0, "lon": -73.55232}}, {"geometry": {"coordinates": [-73.601728, 45.529686], "type": "Point"}, "type": "Feature", "properties": {"bikes": 0, "name": "De Gasp\u00e9 / Marmier", "address": "De Gasp\u00e9 / Marmier", "lat": 45.529686, "status": "OPEN", "stands": 3, "lon": -73.601728}}, {"geometry": {"coordinates": [-73.552802, 45.497438], "type": "Point"}, "type": "Feature", "properties": {"bikes": 0, "name": "De la Commune / King", "address": "De la Commune / King", "lat": 45.497438, "status": "OPEN", "stands": 39, "lon": -73.552802}}, {"geometry": {"coordinates": [-73.565138, 45.502326], "type": "Point"}, "type": "Feature", "properties": {"bikes": 0, "name": "Belmont / Beaver Hall", "address": "Belmont / Beaver Hall", "lat": 45.502326, "status": "OPEN", "stands": 16, "lon": -73.565138}}, {"geometry": {"coordinates": [-73.568646, 45.497697], "type": "Point"}, "type": "Feature", "properties": {"bikes": 0, "name": "Peel / ave des Canadiens de Montr\u00e9al", "address": "Peel / ave des Canadiens de Montr\u00e9al", "lat": 45.497697, "status": "OPEN", "stands": 0, "lon": -73.568646}}, {"geometry": {"coordinates": [-73.571384, 45.497196], "type": "Point"}, "type": "Feature", "properties": {"bikes": 0, "name": "Drummond / Rene Levesque", "address": "Drummond / Rene Levesque", "lat": 45.497196, "status": "OPEN", "stands": 0, "lon": -73.571384}}, {"geometry": {"coordinates": [-73.572156429291, 45.500684739422], "type": "Point"}, "type": "Feature", "properties": {"bikes": 0, "name": "Metcalfe / Sainte-Catherine", "address": "Metcalfe / Sainte-Catherine", "lat": 45.500684739422, "status": "OPEN", "stands": 31, "lon": -73.572156429291}}, {"geometry": {"coordinates": [-73.56928, 45.50015], "type": "Point"}, "type": "Feature", "properties": {"bikes": 0, "name": "Mansfield / Ren\u00e9-L\u00e9vesque", "address": "Mansfield / Ren\u00e9-L\u00e9vesque", "lat": 45.50015, "status": "OPEN", "stands": 6, "lon": -73.56928}}, {"geometry": {"coordinates": [-73.57128, 45.50176], "type": "Point"}, "type": "Feature", "properties": {"bikes": 0, "name": "Sainte-Catherine / McGill College", "address": "Sainte-Catherine / McGill College", "lat": 45.50176, "status": "OPEN", "stands": 0, "lon": -73.57128}}, {"geometry": {"coordinates": [-73.57422709465, 45.498639303304], "type": "Point"}, "type": "Feature", "properties": {"bikes": 0, "name": "Drummond / Sainte-Catherine", "address": "Drummond / Sainte-Catherine", "lat": 45.498639303304, "status": "OPEN", "stands": 0, "lon": -73.57422709465}}, {"geometry": {"coordinates": [-73.57591, 45.49947], "type": "Point"}, "type": "Feature", "properties": {"bikes": 0, "name": "Drummond / de Maisonneuve", "address": "Drummond / de Maisonneuve", "lat": 45.49947, "status": "OPEN", "stands": 0, "lon": -73.57591}}, {"geometry": {"coordinates": [-73.57507, 45.50038], "type": "Point"}, "type": "Feature", "properties": {"bikes": 0, "name": "de Maisonneuve / Stanley", "address": "de Maisonneuve / Stanley", "lat": 45.50038, "status": "OPEN", "stands": 41, "lon": -73.57507}}, {"geometry": {"coordinates": [-73.57869, 45.499532], "type": "Point"}, "type": "Feature", "properties": {"bikes": 0, "name": "de la montagne / Sherbrooke", "address": "de la montagne / Sherbrooke", "lat": 45.499532, "status": "OPEN", "stands": 18, "lon": -73.57869}}, {"geometry": {"coordinates": [-73.572103, 45.503475], "type": "Point"}, "type": "Feature", "properties": {"bikes": 0, "name": "de Maisonneuve / University", "address": "de Maisonneuve / University", "lat": 45.503475, "status": "OPEN", "stands": 23, "lon": -73.572103}}, {"geometry": {"coordinates": [-73.57505, 45.50297], "type": "Point"}, "type": "Feature", "properties": {"bikes": 0, "name": "Mansfield / Sherbrooke", "address": "Mansfield / Sherbrooke", "lat": 45.50297, "status": "OPEN", "stands": 12, "lon": -73.57505}}, {"geometry": {"coordinates": [-73.57622, 45.50624], "type": "Point"}, "type": "Feature", "properties": {"bikes": 0, "name": "University / Milton", "address": "University / Milton", "lat": 45.50624, "status": "OPEN", "stands": 0, "lon": -73.57622}}, {"geometry": {"coordinates": [-73.57069, 45.50501], "type": "Point"}, "type": "Feature", "properties": {"bikes": 0, "name": "de Maisonneuve / Aylmer", "address": "de Maisonneuve / Aylmer", "lat": 45.50501, "status": "OPEN", "stands": 0, "lon": -73.57069}}, {"geometry": {"coordinates": [-73.530067, 45.556225], "type": "Point"}, "type": "Feature", "properties": {"bikes": 0, "name": "St-Cl\u00e9ment/Ste-Catherine", "address": "St-Cl\u00e9ment/Ste-Catherine", "lat": 45.556225, "status": "OPEN", "stands": 18, "lon": -73.530067}}, {"geometry": {"coordinates": [-73.56917, 45.50708], "type": "Point"}, "type": "Feature", "properties": {"bikes": 0, "name": "de Maisonneuve / de Bleury", "address": "de Maisonneuve / de Bleury", "lat": 45.50708, "status": "OPEN", "stands": 68, "lon": -73.56917}}, {"geometry": {"coordinates": [-73.57417345047, 45.494499323782], "type": "Point"}, "type": "Feature", "properties": {"bikes": 0, "name": "Mackay / Ren\u00e9-L\u00e9vesque", "address": "Mackay / Ren\u00e9-L\u00e9vesque", "lat": 45.494499323782, "status": "OPEN", "stands": 3, "lon": -73.57417345047}}, {"geometry": {"coordinates": [-73.5676195, 45.50537693], "type": "Point"}, "type": "Feature", "properties": {"bikes": 0, "name": "  Saint-Alexandre / Sainte-Catherine", "address": "  Saint-Alexandre / Sainte-Catherine", "lat": 45.50537693, "status": "OPEN", "stands": 33, "lon": -73.5676195}}, {"geometry": {"coordinates": [-73.582883, 45.550613], "type": "Point"}, "type": "Feature", "properties": {"bikes": 0, "name": "6e avenue/Rosemont", "address": "6e avenue/Rosemont", "lat": 45.550613, "status": "OPEN", "stands": 13, "lon": -73.582883}}, {"geometry": {"coordinates": [-73.5686929, 45.5041581], "type": "Point"}, "type": "Feature", "properties": {"bikes": 0, "name": "Square Phillips", "address": "Square Phillips", "lat": 45.5041581, "status": "OPEN", "stands": 31, "lon": -73.5686929}}, {"geometry": {"coordinates": [-73.582445, 45.489609], "type": "Point"}, "type": "Feature", "properties": {"bikes": 0, "name": "Lambert-Closse / Tupper", "address": "Lambert-Closse / Tupper", "lat": 45.489609, "status": "OPEN", "stands": 19, "lon": -73.582445}}, {"geometry": {"coordinates": [-73.56328, 45.4952], "type": "Point"}, "type": "Feature", "properties": {"bikes": 0, "name": "Notre-Dame / Peel", "address": "Notre-Dame / Peel", "lat": 45.4952, "status": "OPEN", "stands": 38, "lon": -73.56328}}, {"geometry": {"coordinates": [-73.57015, 45.49138], "type": "Point"}, "type": "Feature", "properties": {"bikes": 0, "name": "Saint-Jacques / Guy", "address": "Saint-Jacques / Guy", "lat": 45.49138, "status": "OPEN", "stands": 15, "lon": -73.57015}}, {"geometry": {"coordinates": [-73.57108, 45.49486], "type": "Point"}, "type": "Feature", "properties": {"bikes": 0, "name": "M\u00e9tro Lucien-L'Allier  (Lucien l'Allier/Argyle)", "address": "M\u00e9tro Lucien-L'Allier  (Lucien l'Allier/Argyle)", "lat": 45.49486, "status": "OPEN", "stands": 17, "lon": -73.57108}}, {"geometry": {"coordinates": [-73.576453, 45.492147], "type": "Point"}, "type": "Feature", "properties": {"bikes": 0, "name": "Joseph Manceau / Ren\u00e9-L\u00e9vesque", "address": "Joseph Manceau / Ren\u00e9-L\u00e9vesque", "lat": 45.492147, "status": "OPEN", "stands": 0, "lon": -73.576453}}, {"geometry": {"coordinates": [-73.57348, 45.49606], "type": "Point"}, "type": "Feature", "properties": {"bikes": 0, "name": "Crescent / Ren\u00e9-L\u00e9vesque", "address": "Crescent / Ren\u00e9-L\u00e9vesque", "lat": 45.49606, "status": "OPEN", "stands": 0, "lon": -73.57348}}, {"geometry": {"coordinates": [-73.603522, 45.535431], "type": "Point"}, "type": "Feature", "properties": {"bikes": 0, "name": "Chateaubriand / Beaubien", "address": "Chateaubriand / Beaubien", "lat": 45.535431, "status": "OPEN", "stands": 27, "lon": -73.603522}}, {"geometry": {"coordinates": [-73.585962, 45.489904], "type": "Point"}, "type": "Feature", "properties": {"bikes": 0, "name": "M\u00e9tro Atwater (Atwater / Maisonneuve)", "address": "M\u00e9tro Atwater (Atwater / Maisonneuve)", "lat": 45.489904, "status": "OPEN", "stands": 15, "lon": -73.585962}}, {"geometry": {"coordinates": [-73.5838, 45.49156], "type": "Point"}, "type": "Feature", "properties": {"bikes": 0, "name": "Chomedey / de Maisonneuve", "address": "Chomedey / de Maisonneuve", "lat": 45.49156, "status": "OPEN", "stands": 19, "lon": -73.5838}}, {"geometry": {"coordinates": [-73.5684255, 45.49352163], "type": "Point"}, "type": "Feature", "properties": {"bikes": 0, "name": "Lucien L'Allier / St-Jacques", "address": "Lucien L'Allier / St-Jacques", "lat": 45.49352163, "status": "OPEN", "stands": 16, "lon": -73.5684255}}, {"geometry": {"coordinates": [-73.581088, 45.492504], "type": "Point"}, "type": "Feature", "properties": {"bikes": 0, "name": "Towers/ Ste-Catherine", "address": "Towers/ Ste-Catherine", "lat": 45.492504, "status": "OPEN", "stands": 25, "lon": -73.581088}}, {"geometry": {"coordinates": [-73.57616, 45.49642], "type": "Point"}, "type": "Feature", "properties": {"bikes": 0, "name": "Bishop / Sainte-Catherine", "address": "Bishop / Sainte-Catherine", "lat": 45.49642, "status": "OPEN", "stands": 27, "lon": -73.57616}}, {"geometry": {"coordinates": [-73.57791245, 45.49742103], "type": "Point"}, "type": "Feature", "properties": {"bikes": 0, "name": "Bishop / de Maisonneuve", "address": "Bishop / de Maisonneuve", "lat": 45.49742103, "status": "OPEN", "stands": 0, "lon": -73.57791245}}, {"geometry": {"coordinates": [-73.57851, 45.49659], "type": "Point"}, "type": "Feature", "properties": {"bikes": 0, "name": "de Maisonneuve / Mackay", "address": "de Maisonneuve / Mackay", "lat": 45.49659, "status": "OPEN", "stands": 34, "lon": -73.57851}}, {"geometry": {"coordinates": [-73.61979, 45.479483], "type": "Point"}, "type": "Feature", "properties": {"bikes": 0, "name": "Metro Villa Maria (D\u00e9carie / Monkland)", "address": "Metro Villa Maria (D\u00e9carie / Monkland)", "lat": 45.479483, "status": "OPEN", "stands": 11, "lon": -73.61979}}, {"geometry": {"coordinates": [-73.583836, 45.493034], "type": "Point"}, "type": "Feature", "properties": {"bikes": 0, "name": "Lincoln / Dufort", "address": "Lincoln / Dufort", "lat": 45.493034, "status": "OPEN", "stands": 15, "lon": -73.583836}}, {"geometry": {"coordinates": [-73.552496, 45.538799], "type": "Point"}, "type": "Feature", "properties": {"bikes": 0, "name": "Lesp\u00e9rance/Rouen", "address": "Lesp\u00e9rance/Rouen", "lat": 45.538799, "status": "OPEN", "stands": 19, "lon": -73.552496}}, {"geometry": {"coordinates": [-73.554174900055, 45.516872646827], "type": "Point"}, "type": "Feature", "properties": {"bikes": 0, "name": "Wolfe / Ren\u00e9-L\u00e9vesque", "address": "Wolfe / Ren\u00e9-L\u00e9vesque", "lat": 45.516872646827, "status": "OPEN", "stands": 12, "lon": -73.554174900055}}, {"geometry": {"coordinates": [-73.552, 45.51954], "type": "Point"}, "type": "Feature", "properties": {"bikes": 0, "name": "Plessis / Ren\u00e9-L\u00e9vesque", "address": "Plessis / Ren\u00e9-L\u00e9vesque", "lat": 45.51954, "status": "OPEN", "stands": 19, "lon": -73.552}}, {"geometry": {"coordinates": [-73.54926, 45.52114], "type": "Point"}, "type": "Feature", "properties": {"bikes": 0, "name": "Ren\u00e9-L\u00e9vesque / Papineau", "address": "Ren\u00e9-L\u00e9vesque / Papineau", "lat": 45.52114, "status": "OPEN", "stands": 4, "lon": -73.54926}}, {"geometry": {"coordinates": [-73.579186, 45.493718], "type": "Point"}, "type": "Feature", "properties": {"bikes": 0, "name": "St-Mathieu /Ste-Catherine ", "address": "St-Mathieu /Ste-Catherine ", "lat": 45.493718, "status": "OPEN", "stands": 21, "lon": -73.579186}}, {"geometry": {"coordinates": [-73.55108499527, 45.528448693514], "type": "Point"}, "type": "Feature", "properties": {"bikes": 0, "name": "Logan / Fullum", "address": "Logan / Fullum", "lat": 45.528448693514, "status": "OPEN", "stands": 19, "lon": -73.55108499527}}, {"geometry": {"coordinates": [-73.52186, 45.498293], "type": "Point"}, "type": "Feature", "properties": {"bikes": 0, "name": "Plage du parc Jean-Drapeau", "address": "Plage du parc Jean-Drapeau", "lat": 45.498293, "status": "OPEN", "stands": 15, "lon": -73.52186}}, {"geometry": {"coordinates": [-73.54641, 45.529033], "type": "Point"}, "type": "Feature", "properties": {"bikes": 0, "name": "Poupart / Sainte-Catherine", "address": "Poupart / Sainte-Catherine", "lat": 45.529033, "status": "OPEN", "stands": 14, "lon": -73.54641}}, {"geometry": {"coordinates": [-73.54933, 45.52622], "type": "Point"}, "type": "Feature", "properties": {"bikes": 0, "name": "Parthenais / Sainte-Catherine", "address": "Parthenais / Sainte-Catherine", "lat": 45.52622, "status": "OPEN", "stands": 18, "lon": -73.54933}}, {"geometry": {"coordinates": [-73.55786, 45.519157], "type": "Point"}, "type": "Feature", "properties": {"bikes": 0, "name": "Montcalm/Maisonneuve", "address": "Montcalm/Maisonneuve", "lat": 45.519157, "status": "OPEN", "stands": 19, "lon": -73.55786}}, {"geometry": {"coordinates": [-73.55534, 45.5219], "type": "Point"}, "type": "Feature", "properties": {"bikes": 0, "name": "Alexandre-DeS\u00e8ve / Maisonneuve", "address": "Alexandre-DeS\u00e8ve / Maisonneuve", "lat": 45.5219, "status": "OPEN", "stands": 19, "lon": -73.55534}}, {"geometry": {"coordinates": [-73.55199, 45.52353], "type": "Point"}, "type": "Feature", "properties": {"bikes": 0, "name": "M\u00e9tro Papineau (Cartier / Ste-Catherine)", "address": "M\u00e9tro Papineau (Cartier / Ste-Catherine)", "lat": 45.52353, "status": "OPEN", "stands": 24, "lon": -73.55199}}, {"geometry": {"coordinates": [-73.631664, 45.466965], "type": "Point"}, "type": "Feature", "properties": {"bikes": 0, "name": "Benny/ Monkland", "address": "Benny/ Monkland", "lat": 45.466965, "status": "OPEN", "stands": 15, "lon": -73.631664}}, {"geometry": {"coordinates": [-73.560941, 45.523584], "type": "Point"}, "type": "Feature", "properties": {"bikes": 0, "name": "Plessis / Ontario", "address": "Plessis / Ontario", "lat": 45.523584, "status": "OPEN", "stands": 19, "lon": -73.560941}}, {"geometry": {"coordinates": [-73.55922, 45.52087], "type": "Point"}, "type": "Feature", "properties": {"bikes": 0, "name": "Robin / de la Visitation", "address": "Robin / de la Visitation", "lat": 45.52087, "status": "OPEN", "stands": 15, "lon": -73.55922}}, {"geometry": {"coordinates": [-73.560035526752, 45.5250475373], "type": "Point"}, "type": "Feature", "properties": {"bikes": 0, "name": "Champlain / Ontario", "address": "Champlain / Ontario", "lat": 45.5250475373, "status": "OPEN", "stands": 19, "lon": -73.560035526752}}, {"geometry": {"coordinates": [-73.558021, 45.52697], "type": "Point"}, "type": "Feature", "properties": {"bikes": 0, "name": "Dorion / Ontario", "address": "Dorion / Ontario", "lat": 45.52697, "status": "OPEN", "stands": 23, "lon": -73.558021}}, {"geometry": {"coordinates": [-73.5521968, 45.5336609], "type": "Point"}, "type": "Feature", "properties": {"bikes": 0, "name": "Ontario/Du Havre", "address": "Ontario/Du Havre", "lat": 45.5336609, "status": "OPEN", "stands": 0, "lon": -73.5521968}}, {"geometry": {"coordinates": [-73.5553577, 45.53480699], "type": "Point"}, "type": "Feature", "properties": {"bikes": 0, "name": "Du havre/Rouen", "address": "Du havre/Rouen", "lat": 45.53480699, "status": "OPEN", "stands": 23, "lon": -73.5553577}}, {"geometry": {"coordinates": [-73.54913, 45.53057], "type": "Point"}, "type": "Feature", "properties": {"bikes": 0, "name": "Logan / d'Iberville", "address": "Logan / d'Iberville", "lat": 45.53057, "status": "OPEN", "stands": 13, "lon": -73.54913}}, {"geometry": {"coordinates": [-73.558187, 45.523217], "type": "Point"}, "type": "Feature", "properties": {"bikes": 0, "name": "Alexandre de S\u00e8ve / La Fontaine", "address": "Alexandre de S\u00e8ve / La Fontaine", "lat": 45.523217, "status": "OPEN", "stands": 14, "lon": -73.558187}}, {"geometry": {"coordinates": [-73.553478, 45.531834], "type": "Point"}, "type": "Feature", "properties": {"bikes": 0, "name": "Poupart/Ontario", "address": "Poupart/Ontario", "lat": 45.531834, "status": "OPEN", "stands": 23, "lon": -73.553478}}, {"geometry": {"coordinates": [-73.629298, 45.499757], "type": "Point"}, "type": "Feature", "properties": {"bikes": 0, "name": "Ellendale/C\u00f4te-Des-Neiges", "address": "Ellendale/C\u00f4te-Des-Neiges", "lat": 45.499757, "status": "OPEN", "stands": 13, "lon": -73.629298}}, {"geometry": {"coordinates": [-73.55859, 45.53217], "type": "Point"}, "type": "Feature", "properties": {"bikes": 0, "name": "Rouen / Fullum", "address": "Rouen / Fullum", "lat": 45.53217, "status": "OPEN", "stands": 0, "lon": -73.55859}}, {"geometry": {"coordinates": [-73.618323, 45.537877], "type": "Point"}, "type": "Feature", "properties": {"bikes": 0, "name": "Henri Julien/Castelneau", "address": "Henri Julien/Castelneau", "lat": 45.537877, "status": "OPEN", "stands": 11, "lon": -73.618323}}, {"geometry": {"coordinates": [-73.5502642, 45.53643778], "type": "Point"}, "type": "Feature", "properties": {"bikes": 0, "name": "Wurtele / Ontario", "address": "Wurtele / Ontario", "lat": 45.53643778, "status": "OPEN", "stands": 0, "lon": -73.5502642}}, {"geometry": {"coordinates": [-73.56081, 45.5367], "type": "Point"}, "type": "Feature", "properties": {"bikes": 0, "name": "Sherbrooke / Frontenac", "address": "Sherbrooke / Frontenac", "lat": 45.5367, "status": "OPEN", "stands": 15, "lon": -73.56081}}, {"geometry": {"coordinates": [-73.562425, 45.533924], "type": "Point"}, "type": "Feature", "properties": {"bikes": 0, "name": "Fullum / Sherbrooke ", "address": "Fullum / Sherbrooke ", "lat": 45.533924, "status": "OPEN", "stands": 35, "lon": -73.562425}}, {"geometry": {"coordinates": [-73.566014, 45.535614], "type": "Point"}, "type": "Feature", "properties": {"bikes": 0, "name": "Terasse Mercure / Fulum", "address": "Terasse Mercure / Fulum", "lat": 45.535614, "status": "OPEN", "stands": 19, "lon": -73.566014}}, {"geometry": {"coordinates": [-73.563176393509, 45.530027060788], "type": "Point"}, "type": "Feature", "properties": {"bikes": 0, "name": "de Bordeaux / Sherbrooke", "address": "de Bordeaux / Sherbrooke", "lat": 45.530027060788, "status": "OPEN", "stands": 15, "lon": -73.563176393509}}, {"geometry": {"coordinates": [-73.570654, 45.510016], "type": "Point"}, "type": "Feature", "properties": {"bikes": 0, "name": "Sainte-Famille / Sherbrooke", "address": "Sainte-Famille / Sherbrooke", "lat": 45.510016, "status": "OPEN", "stands": 23, "lon": -73.570654}}, {"geometry": {"coordinates": [-73.57845, 45.50733], "type": "Point"}, "type": "Feature", "properties": {"bikes": 0, "name": "University / Prince-Arthur", "address": "University / Prince-Arthur", "lat": 45.50733, "status": "OPEN", "stands": 39, "lon": -73.57845}}, {"geometry": {"coordinates": [-73.576105, 45.509864], "type": "Point"}, "type": "Feature", "properties": {"bikes": 0, "name": "Hutchison/ Prince Arthur", "address": "Hutchison/ Prince Arthur", "lat": 45.509864, "status": "OPEN", "stands": 0, "lon": -73.576105}}, {"geometry": {"coordinates": [-73.565258, 45.541532], "type": "Point"}, "type": "Feature", "properties": {"bikes": 0, "name": "Molson / William - Tremblay", "address": "Molson / William - Tremblay", "lat": 45.541532, "status": "OPEN", "stands": 18, "lon": -73.565258}}, {"geometry": {"coordinates": [-73.587809801102, 45.491321748861], "type": "Point"}, "type": "Feature", "properties": {"bikes": 0, "name": "Atwater / Sherbrooke", "address": "Atwater / Sherbrooke", "lat": 45.491321748861, "status": "OPEN", "stands": 22, "lon": -73.587809801102}}, {"geometry": {"coordinates": [-73.605834, 45.533348], "type": "Point"}, "type": "Feature", "properties": {"bikes": 0, "name": "Drolet / Beaubien", "address": "Drolet / Beaubien", "lat": 45.533348, "status": "OPEN", "stands": 19, "lon": -73.605834}}, {"geometry": {"coordinates": [-73.607339, 45.53136864], "type": "Point"}, "type": "Feature", "properties": {"bikes": 0, "name": "Casgrain/ Beaubien", "address": "Casgrain/ Beaubien", "lat": 45.53136864, "status": "OPEN", "stands": 19, "lon": -73.607339}}, {"geometry": {"coordinates": [-73.571564, 45.544513], "type": "Point"}, "type": "Feature", "properties": {"bikes": 0, "name": "Parc du P\u00e9lican (2e ave/St-Joseph)", "address": "Parc du P\u00e9lican (2e ave/St-Joseph)", "lat": 45.544513, "status": "OPEN", "stands": 19, "lon": -73.571564}}, {"geometry": {"coordinates": [-73.57711, 45.550769], "type": "Point"}, "type": "Feature", "properties": {"bikes": 0, "name": "9e Avenue / Dandurand", "address": "9e Avenue / Dandurand", "lat": 45.550769, "status": "OPEN", "stands": 11, "lon": -73.57711}}, {"geometry": {"coordinates": [-73.60760986805, 45.547356123152], "type": "Point"}, "type": "Feature", "properties": {"bikes": 0, "name": "Marquette / Jean-Talon", "address": "Marquette / Jean-Talon", "lat": 45.547356123152, "status": "OPEN", "stands": 19, "lon": -73.60760986805}}, {"geometry": {"coordinates": [-73.603001832962, 45.552442609135], "type": "Point"}, "type": "Feature", "properties": {"bikes": 0, "name": "des \u00c9cores / Jean-Talon", "address": "des \u00c9cores / Jean-Talon", "lat": 45.552442609135, "status": "OPEN", "stands": 19, "lon": -73.603001832962}}, {"geometry": {"coordinates": [-73.571226, 45.504844], "type": "Point"}, "type": "Feature", "properties": {"bikes": 0, "name": "Union/Maisonneuve", "address": "Union/Maisonneuve", "lat": 45.504844, "status": "OPEN", "stands": 31, "lon": -73.571226}}, {"geometry": {"coordinates": [-73.580498, 45.508356], "type": "Point"}, "type": "Feature", "properties": {"bikes": 0, "name": "University / des Pins", "address": "University / des Pins", "lat": 45.508356, "status": "OPEN", "stands": 0, "lon": -73.580498}}, {"geometry": {"coordinates": [-73.562643, 45.537964], "type": "Point"}, "type": "Feature", "properties": {"bikes": 0, "name": "Gascon/Rachel", "address": "Gascon/Rachel", "lat": 45.537964, "status": "OPEN", "stands": 19, "lon": -73.562643}}, {"geometry": {"coordinates": [-73.559410572052, 45.529155206246], "type": "Point"}, "type": "Feature", "properties": {"bikes": 0, "name": "Larivi\u00e8re / de Lorimier", "address": "Larivi\u00e8re / de Lorimier", "lat": 45.529155206246, "status": "OPEN", "stands": 23, "lon": -73.559410572052}}, {"geometry": {"coordinates": [-73.5891147, 45.52761627], "type": "Point"}, "type": "Feature", "properties": {"bikes": 0, "name": "M\u00e9tro Laurier (Rivard/Laurier)", "address": "M\u00e9tro Laurier (Rivard/Laurier)", "lat": 45.52761627, "status": "OPEN", "stands": 15, "lon": -73.5891147}}, {"geometry": {"coordinates": [-73.56663, 45.530202], "type": "Point"}, "type": "Feature", "properties": {"bikes": 0, "name": "Gauthier / Papineau", "address": "Gauthier / Papineau", "lat": 45.530202, "status": "OPEN", "stands": 0, "lon": -73.56663}}, {"geometry": {"coordinates": [-73.565317, 45.531818], "type": "Point"}, "type": "Feature", "properties": {"bikes": 0, "name": "Gauthier / De Lorimier", "address": "Gauthier / De Lorimier", "lat": 45.531818, "status": "OPEN", "stands": 11, "lon": -73.565317}}, {"geometry": {"coordinates": [-73.56437, 45.53237], "type": "Point"}, "type": "Feature", "properties": {"bikes": 0, "name": "Gauthier / des \u00c9rables", "address": "Gauthier / des \u00c9rables", "lat": 45.53237, "status": "OPEN", "stands": 11, "lon": -73.56437}}, {"geometry": {"coordinates": [-73.570289611816, 45.529801582461], "type": "Point"}, "type": "Feature", "properties": {"bikes": 0, "name": "Marquette / Rachel", "address": "Marquette / Rachel", "lat": 45.529801582461, "status": "OPEN", "stands": 15, "lon": -73.570289611816}}, {"geometry": {"coordinates": [-73.56828, 45.53227], "type": "Point"}, "type": "Feature", "properties": {"bikes": 0, "name": "de Bordeaux / Rachel", "address": "de Bordeaux / Rachel", "lat": 45.53227, "status": "OPEN", "stands": 27, "lon": -73.56828}}, {"geometry": {"coordinates": [-73.572056, 45.527791], "type": "Point"}, "type": "Feature", "properties": {"bikes": 0, "name": "Calixa Laval\u00e9e / Rachel", "address": "Calixa Laval\u00e9e / Rachel", "lat": 45.527791, "status": "OPEN", "stands": 31, "lon": -73.572056}}, {"geometry": {"coordinates": [-73.57264, 45.52689], "type": "Point"}, "type": "Feature", "properties": {"bikes": 0, "name": "Rachel / Br\u00e9beuf", "address": "Rachel / Br\u00e9beuf", "lat": 45.52689, "status": "OPEN", "stands": 14, "lon": -73.57264}}, {"geometry": {"coordinates": [-73.57221, 45.52469], "type": "Point"}, "type": "Feature", "properties": {"bikes": 0, "name": "du Parc-La Fontaine / Duluth", "address": "du Parc-La Fontaine / Duluth", "lat": 45.52469, "status": "OPEN", "stands": 19, "lon": -73.57221}}, {"geometry": {"coordinates": [-73.568731, 45.523084], "type": "Point"}, "type": "Feature", "properties": {"bikes": 0, "name": "du Parc-La Fontaine / Roy", "address": "du Parc-La Fontaine / Roy", "lat": 45.523084, "status": "OPEN", "stands": 19, "lon": -73.568731}}, {"geometry": {"coordinates": [-73.56545, 45.52479], "type": "Point"}, "type": "Feature", "properties": {"bikes": 0, "name": "Calixa-Lavall\u00e9e / Sherbrooke", "address": "Calixa-Lavall\u00e9e / Sherbrooke", "lat": 45.52479, "status": "OPEN", "stands": 27, "lon": -73.56545}}, {"geometry": {"coordinates": [-73.56463, 45.52729], "type": "Point"}, "type": "Feature", "properties": {"bikes": 0, "name": "\u00c9mile-Duploy\u00e9 / Sherbrooke", "address": "\u00c9mile-Duploy\u00e9 / Sherbrooke", "lat": 45.52729, "status": "OPEN", "stands": 31, "lon": -73.56463}}, {"geometry": {"coordinates": [-73.56936, 45.53867], "type": "Point"}, "type": "Feature", "properties": {"bikes": 0, "name": "Chapleau / Mont-Royal", "address": "Chapleau / Mont-Royal", "lat": 45.53867, "status": "OPEN", "stands": 27, "lon": -73.56936}}, {"geometry": {"coordinates": [-73.5710031, 45.53711414], "type": "Point"}, "type": "Feature", "properties": {"bikes": 0, "name": "Messier/Mont-Royal", "address": "Messier/Mont-Royal", "lat": 45.53711414, "status": "OPEN", "stands": 17, "lon": -73.5710031}}, {"geometry": {"coordinates": [-73.57172, 45.53565], "type": "Point"}, "type": "Feature", "properties": {"bikes": 0, "name": "des \u00c9rables / Mont-Royal", "address": "des \u00c9rables / Mont-Royal", "lat": 45.53565, "status": "OPEN", "stands": 19, "lon": -73.57172}}, {"geometry": {"coordinates": [-73.57349216938, 45.534134366108], "type": "Point"}, "type": "Feature", "properties": {"bikes": 0, "name": "Chabot / Mont-Royal", "address": "Chabot / Mont-Royal", "lat": 45.534134366108, "status": "OPEN", "stands": 1, "lon": -73.57349216938}}, {"geometry": {"coordinates": [-73.571776, 45.532674], "type": "Point"}, "type": "Feature", "properties": {"bikes": 0, "name": "Cartier/Marie-Anne", "address": "Cartier/Marie-Anne", "lat": 45.532674, "status": "OPEN", "stands": 0, "lon": -73.571776}}, {"geometry": {"coordinates": [-73.57544, 45.53229], "type": "Point"}, "type": "Feature", "properties": {"bikes": 0, "name": "Marquette / Mont-Royal", "address": "Marquette / Mont-Royal", "lat": 45.53229, "status": "OPEN", "stands": 19, "lon": -73.57544}}, {"geometry": {"coordinates": [-73.57674, 45.53092], "type": "Point"}, "type": "Feature", "properties": {"bikes": 0, "name": "Garnier / Mont-Royal", "address": "Garnier / Mont-Royal", "lat": 45.53092, "status": "OPEN", "stands": 27, "lon": -73.57674}}, {"geometry": {"coordinates": [-73.576249480247, 45.527738413791], "type": "Point"}, "type": "Feature", "properties": {"bikes": 0, "name": "Marie-Anne / de la Roche", "address": "Marie-Anne / de la Roche", "lat": 45.527738413791, "status": "OPEN", "stands": 19, "lon": -73.576249480247}}, {"geometry": {"coordinates": [-73.57828, 45.52856], "type": "Point"}, "type": "Feature", "properties": {"bikes": 0, "name": "de la Roche / Mont-Royal", "address": "de la Roche / Mont-Royal", "lat": 45.52856, "status": "OPEN", "stands": 22, "lon": -73.57828}}, {"geometry": {"coordinates": [-73.58153, 45.53073], "type": "Point"}, "type": "Feature", "properties": {"bikes": 0, "name": "Gilford / Br\u00e9beuf", "address": "Gilford / Br\u00e9beuf", "lat": 45.53073, "status": "OPEN", "stands": 19, "lon": -73.58153}}, {"geometry": {"coordinates": [-73.58118, 45.53297], "type": "Point"}, "type": "Feature", "properties": {"bikes": 0, "name": "Garnier / Saint-Joseph", "address": "Garnier / Saint-Joseph", "lat": 45.53297, "status": "OPEN", "stands": 23, "lon": -73.58118}}, {"geometry": {"coordinates": [-73.57867, 45.53576], "type": "Point"}, "type": "Feature", "properties": {"bikes": 0, "name": "Cartier / Saint-Joseph", "address": "Cartier / Saint-Joseph", "lat": 45.53576, "status": "OPEN", "stands": 18, "lon": -73.57867}}, {"geometry": {"coordinates": [-73.575158, 45.54003], "type": "Point"}, "type": "Feature", "properties": {"bikes": 0, "name": "Fullum / Saint-Joseph", "address": "Fullum / Saint-Joseph", "lat": 45.54003, "status": "OPEN", "stands": 15, "lon": -73.575158}}, {"geometry": {"coordinates": [-73.5822, 45.53543], "type": "Point"}, "type": "Feature", "properties": {"bikes": 0, "name": "Marquette / Laurier", "address": "Marquette / Laurier", "lat": 45.53543, "status": "OPEN", "stands": 23, "lon": -73.5822}}, {"geometry": {"coordinates": [-73.583717, 45.533381], "type": "Point"}, "type": "Feature", "properties": {"bikes": 0, "name": "Lanaudi\u00e8re / Laurier", "address": "Lanaudi\u00e8re / Laurier", "lat": 45.533381, "status": "OPEN", "stands": 19, "lon": -73.583717}}, {"geometry": {"coordinates": [-73.58507, 45.53248], "type": "Point"}, "type": "Feature", "properties": {"bikes": 0, "name": "Br\u00e9beuf / Laurier", "address": "Br\u00e9beuf / Laurier", "lat": 45.53248, "status": "OPEN", "stands": 35, "lon": -73.58507}}, {"geometry": {"coordinates": [-73.58852, 45.5341], "type": "Point"}, "type": "Feature", "properties": {"bikes": 0, "name": "Br\u00e9beuf / Saint-Gr\u00e9goire", "address": "Br\u00e9beuf / Saint-Gr\u00e9goire", "lat": 45.5341, "status": "OPEN", "stands": 26, "lon": -73.58852}}, {"geometry": {"coordinates": [-73.58584, 45.53703], "type": "Point"}, "type": "Feature", "properties": {"bikes": 0, "name": "Marquette / Saint-Gr\u00e9goire", "address": "Marquette / Saint-Gr\u00e9goire", "lat": 45.53703, "status": "OPEN", "stands": 11, "lon": -73.58584}}, {"geometry": {"coordinates": [-73.5571602, 45.50938453], "type": "Point"}, "type": "Feature", "properties": {"bikes": 0, "name": "Hotel de ville/Viger", "address": "Hotel de ville/Viger", "lat": 45.50938453, "status": "OPEN", "stands": 23, "lon": -73.5571602}}, {"geometry": {"coordinates": [-73.587479, 45.529511], "type": "Point"}, "type": "Feature", "properties": {"bikes": 0, "name": "St-Andr\u00e9/Laurier", "address": "St-Andr\u00e9/Laurier", "lat": 45.529511, "status": "OPEN", "stands": 15, "lon": -73.587479}}, {"geometry": {"coordinates": [-73.58677, 45.530046], "type": "Point"}, "type": "Feature", "properties": {"bikes": 0, "name": "de Mentana / Laurier", "address": "de Mentana / Laurier", "lat": 45.530046, "status": "OPEN", "stands": 19, "lon": -73.58677}}, {"geometry": {"coordinates": [-73.560269, 45.5195], "type": "Point"}, "type": "Feature", "properties": {"bikes": 0, "name": "Wolfe/Robin", "address": "Wolfe/Robin", "lat": 45.5195, "status": "OPEN", "stands": 27, "lon": -73.560269}}, {"geometry": {"coordinates": [-73.5692414, 45.5191458], "type": "Point"}, "type": "Feature", "properties": {"bikes": 0, "name": "Cherrier / Berri", "address": "Cherrier / Berri", "lat": 45.5191458, "status": "OPEN", "stands": 35, "lon": -73.5692414}}, {"geometry": {"coordinates": [-73.5727, 45.51908], "type": "Point"}, "type": "Feature", "properties": {"bikes": 0, "name": "Roy / Saint-Denis", "address": "Roy / Saint-Denis", "lat": 45.51908, "status": "OPEN", "stands": 22, "lon": -73.5727}}, {"geometry": {"coordinates": [-73.567733, 45.520578], "type": "Point"}, "type": "Feature", "properties": {"bikes": 0, "name": "St-Andr\u00e9/Cherrier", "address": "St-Andr\u00e9/Cherrier", "lat": 45.520578, "status": "OPEN", "stands": 22, "lon": -73.567733}}, {"geometry": {"coordinates": [-73.573431, 45.523171], "type": "Point"}, "type": "Feature", "properties": {"bikes": 0, "name": "St-Andr\u00e9 / Duluth", "address": "St-Andr\u00e9 / Duluth", "lat": 45.523171, "status": "OPEN", "stands": 19, "lon": -73.573431}}, {"geometry": {"coordinates": [-73.575771, 45.524222], "type": "Point"}, "type": "Feature", "properties": {"bikes": 0, "name": "Saint-Andr\u00e9 / Rachel", "address": "Saint-Andr\u00e9 / Rachel", "lat": 45.524222, "status": "OPEN", "stands": 0, "lon": -73.575771}}, {"geometry": {"coordinates": [-73.5775906, 45.5222776], "type": "Point"}, "type": "Feature", "properties": {"bikes": 0, "name": "Rivard /Rachel", "address": "Rivard /Rachel", "lat": 45.5222776, "status": "OPEN", "stands": 18, "lon": -73.5775906}}, {"geometry": {"coordinates": [-73.575871, 45.520655], "type": "Point"}, "type": "Feature", "properties": {"bikes": 0, "name": "Duluth/St-Denis", "address": "Duluth/St-Denis", "lat": 45.520655, "status": "OPEN", "stands": 6, "lon": -73.575871}}, {"geometry": {"coordinates": [-73.561976, 45.50965], "type": "Point"}, "type": "Feature", "properties": {"bikes": 0, "name": "Place de la paix (St-Dominique/place du march\u00e9)", "address": "Place de la paix (St-Dominique/place du march\u00e9)", "lat": 45.50965, "status": "OPEN", "stands": 18, "lon": -73.561976}}, {"geometry": {"coordinates": [-73.582648, 45.516853], "type": "Point"}, "type": "Feature", "properties": {"bikes": 0, "name": "Clark/Rachel", "address": "Clark/Rachel", "lat": 45.516853, "status": "OPEN", "stands": 23, "lon": -73.582648}}, {"geometry": {"coordinates": [-73.5851, 45.5215], "type": "Point"}, "type": "Feature", "properties": {"bikes": 0, "name": "Bullion / Mont-Royal", "address": "Bullion / Mont-Royal", "lat": 45.5215, "status": "OPEN", "stands": 11, "lon": -73.5851}}, {"geometry": {"coordinates": [-73.584129810333, 45.522412909217], "type": "Point"}, "type": "Feature", "properties": {"bikes": 0, "name": "Laval / Mont-Royal", "address": "Laval / Mont-Royal", "lat": 45.522412909217, "status": "OPEN", "stands": 23, "lon": -73.584129810333}}, {"geometry": {"coordinates": [-73.58255, 45.524673], "type": "Point"}, "type": "Feature", "properties": {"bikes": 0, "name": "M\u00e9tro Mont-Royal (Rivard/Mont-Royal)", "address": "M\u00e9tro Mont-Royal (Rivard/Mont-Royal)", "lat": 45.524673, "status": "OPEN", "stands": 35, "lon": -73.58255}}, {"geometry": {"coordinates": [-73.601006, 45.549286], "type": "Point"}, "type": "Feature", "properties": {"bikes": 0, "name": "Des \u00e9rables/B\u00e9langer", "address": "Des \u00e9rables/B\u00e9langer", "lat": 45.549286, "status": "OPEN", "stands": 15, "lon": -73.601006}}, {"geometry": {"coordinates": [-73.58002, 45.52743], "type": "Point"}, "type": "Feature", "properties": {"bikes": 0, "name": "Boyer / Mont-Royal", "address": "Boyer / Mont-Royal", "lat": 45.52743, "status": "OPEN", "stands": 27, "lon": -73.58002}}, {"geometry": {"coordinates": [-73.580927, 45.526466], "type": "Point"}, "type": "Feature", "properties": {"bikes": 0, "name": "St-Andr\u00e9/ Mont-Royal", "address": "St-Andr\u00e9/ Mont-Royal", "lat": 45.526466, "status": "OPEN", "stands": 3, "lon": -73.580927}}, {"geometry": {"coordinates": [-73.577808, 45.525983], "type": "Point"}, "type": "Feature", "properties": {"bikes": 0, "name": "Mentana / Marie-Anne", "address": "Mentana / Marie-Anne", "lat": 45.525983, "status": "OPEN", "stands": 23, "lon": -73.577808}}, {"geometry": {"coordinates": [-73.609477, 45.550634], "type": "Point"}, "type": "Feature", "properties": {"bikes": 0, "name": "Chabot/Everett", "address": "Chabot/Everett", "lat": 45.550634, "status": "OPEN", "stands": 11, "lon": -73.609477}}, {"geometry": {"coordinates": [-73.585852, 45.527008], "type": "Point"}, "type": "Feature", "properties": {"bikes": 0, "name": "Pontiac/Gilford", "address": "Pontiac/Gilford", "lat": 45.527008, "status": "OPEN", "stands": 15, "lon": -73.585852}}, {"geometry": {"coordinates": [-73.612674, 45.531401], "type": "Point"}, "type": "Feature", "properties": {"bikes": 0, "name": "St-Zotique/Clark", "address": "St-Zotique/Clark", "lat": 45.531401, "status": "OPEN", "stands": 0, "lon": -73.612674}}, {"geometry": {"coordinates": [-73.591766, 45.529802], "type": "Point"}, "type": "Feature", "properties": {"bikes": 0, "name": "Berri/St-Gr\u00e9goire", "address": "Berri/St-Gr\u00e9goire", "lat": 45.529802, "status": "OPEN", "stands": 19, "lon": -73.591766}}, {"geometry": {"coordinates": [-73.596758, 45.521495], "type": "Point"}, "type": "Feature", "properties": {"bikes": 0, "name": "Esplanade/Fairmount", "address": "Esplanade/Fairmount", "lat": 45.521495, "status": "OPEN", "stands": 19, "lon": -73.596758}}, {"geometry": {"coordinates": [-73.593016, 45.525669], "type": "Point"}, "type": "Feature", "properties": {"bikes": 0, "name": "Gasp\u00e9 / Fairmount ", "address": "Gasp\u00e9 / Fairmount ", "lat": 45.525669, "status": "OPEN", "stands": 19, "lon": -73.593016}}, {"geometry": {"coordinates": [-73.58978, 45.52377], "type": "Point"}, "type": "Feature", "properties": {"bikes": 0, "name": "de Bullion / Boul. Saint-Joseph", "address": "de Bullion / Boul. Saint-Joseph", "lat": 45.52377, "status": "OPEN", "stands": 19, "lon": -73.58978}}, {"geometry": {"coordinates": [-73.58918, 45.52157], "type": "Point"}, "type": "Feature", "properties": {"bikes": 0, "name": "Villeneuve/St-Laurent", "address": "Villeneuve/St-Laurent", "lat": 45.52157, "status": "OPEN", "stands": 19, "lon": -73.58918}}, {"geometry": {"coordinates": [-73.583502, 45.537985], "type": "Point"}, "type": "Feature", "properties": {"bikes": 0, "name": "Cartier/Masson", "address": "Cartier/Masson", "lat": 45.537985, "status": "OPEN", "stands": 19, "lon": -73.583502}}, {"geometry": {"coordinates": [-73.59527, 45.52974], "type": "Point"}, "type": "Feature", "properties": {"bikes": 0, "name": "H\u00e9l\u00e8ne-Baillargeon / Saint-Denis", "address": "H\u00e9l\u00e8ne-Baillargeon / Saint-Denis", "lat": 45.52974, "status": "OPEN", "stands": 4, "lon": -73.59527}}, {"geometry": {"coordinates": [-73.599375486374, 45.525171560973], "type": "Point"}, "type": "Feature", "properties": {"bikes": 0, "name": "Clark / Saint-Viateur", "address": "Clark / Saint-Viateur", "lat": 45.525171560973, "status": "OPEN", "stands": 19, "lon": -73.599375486374}}, {"geometry": {"coordinates": [-73.59588, 45.52457], "type": "Point"}, "type": "Feature", "properties": {"bikes": 0, "name": "Maguire / Saint-Laurent", "address": "Maguire / Saint-Laurent", "lat": 45.52457, "status": "OPEN", "stands": 7, "lon": -73.59588}}, {"geometry": {"coordinates": [-73.587509393692, 45.52352540631], "type": "Point"}, "type": "Feature", "properties": {"bikes": 0, "name": "Villeneuve / de l'H\u00f4tel-de-Ville", "address": "Villeneuve / de l'H\u00f4tel-de-Ville", "lat": 45.52352540631, "status": "OPEN", "stands": 23, "lon": -73.587509393692}}, {"geometry": {"coordinates": [-73.57208, 45.50781], "type": "Point"}, "type": "Feature", "properties": {"bikes": 0, "name": "Hutchison / Sherbrooke", "address": "Hutchison / Sherbrooke", "lat": 45.50781, "status": "OPEN", "stands": 3, "lon": -73.57208}}, {"geometry": {"coordinates": [-73.57354, 45.50971], "type": "Point"}, "type": "Feature", "properties": {"bikes": 0, "name": "Milton / du Parc", "address": "Milton / du Parc", "lat": 45.50971, "status": "OPEN", "stands": 31, "lon": -73.57354}}, {"geometry": {"coordinates": [-73.57547, 45.51059], "type": "Point"}, "type": "Feature", "properties": {"bikes": 0, "name": "Prince-Arthur / du Parc", "address": "Prince-Arthur / du Parc", "lat": 45.51059, "status": "OPEN", "stands": 0, "lon": -73.57547}}, {"geometry": {"coordinates": [-73.577016592026, 45.512812949535], "type": "Point"}, "type": "Feature", "properties": {"bikes": 0, "name": "Sainte-Famille / des Pins", "address": "Sainte-Famille / des Pins", "lat": 45.512812949535, "status": "OPEN", "stands": 15, "lon": -73.577016592026}}, {"geometry": {"coordinates": [-73.57805, 45.51069], "type": "Point"}, "type": "Feature", "properties": {"bikes": 0, "name": "Hutchison / des Pins", "address": "Hutchison / des Pins", "lat": 45.51069, "status": "OPEN", "stands": 19, "lon": -73.57805}}, {"geometry": {"coordinates": [-73.57062, 45.51252], "type": "Point"}, "type": "Feature", "properties": {"bikes": 0, "name": "Milton / Clark", "address": "Milton / Clark", "lat": 45.51252, "status": "OPEN", "stands": 23, "lon": -73.57062}}, {"geometry": {"coordinates": [-73.656, 45.5509], "type": "Point"}, "type": "Feature", "properties": {"bikes": 0, "name": "Metro  Sauv\u00e9 (Sauv\u00e9/Berri)", "address": "Metro  Sauv\u00e9 (Sauv\u00e9/Berri)", "lat": 45.5509, "status": "OPEN", "stands": 15, "lon": -73.656}}, {"geometry": {"coordinates": [-73.57569, 45.51561], "type": "Point"}, "type": "Feature", "properties": {"bikes": 0, "name": "Roy / Saint-Laurent", "address": "Roy / Saint-Laurent", "lat": 45.51561, "status": "OPEN", "stands": 23, "lon": -73.57569}}, {"geometry": {"coordinates": [-73.581394, 45.515201], "type": "Point"}, "type": "Feature", "properties": {"bikes": 0, "name": "Duluth/Esplanade", "address": "Duluth/Esplanade", "lat": 45.515201, "status": "OPEN", "stands": 14, "lon": -73.581394}}, {"geometry": {"coordinates": [-73.57921, 45.5171], "type": "Point"}, "type": "Feature", "properties": {"bikes": 0, "name": "Duluth / Saint-Laurent", "address": "Duluth / Saint-Laurent", "lat": 45.5171, "status": "OPEN", "stands": 15, "lon": -73.57921}}, {"geometry": {"coordinates": [-73.56906, 45.51735], "type": "Point"}, "type": "Feature", "properties": {"bikes": 0, "name": "Square Saint-Louis", "address": "Square Saint-Louis", "lat": 45.51735, "status": "OPEN", "stands": 9, "lon": -73.56906}}, {"geometry": {"coordinates": [-73.57821, 45.51494], "type": "Point"}, "type": "Feature", "properties": {"bikes": 0, "name": "Saint-Cuthbert / Saint-Urbain", "address": "Saint-Cuthbert / Saint-Urbain", "lat": 45.51494, "status": "OPEN", "stands": 19, "lon": -73.57821}}, {"geometry": {"coordinates": [-73.58503, 45.51496], "type": "Point"}, "type": "Feature", "properties": {"bikes": 0, "name": "Parc du Mont-Royal", "address": "Parc du Mont-Royal", "lat": 45.51496, "status": "OPEN", "stands": 34, "lon": -73.58503}}, {"geometry": {"coordinates": [-73.583618, 45.519523], "type": "Point"}, "type": "Feature", "properties": {"bikes": 0, "name": "Marie-Anne/St-Dominique", "address": "Marie-Anne/St-Dominique", "lat": 45.519523, "status": "OPEN", "stands": 23, "lon": -73.583618}}, {"geometry": {"coordinates": [-73.574361, 45.51725], "type": "Point"}, "type": "Feature", "properties": {"bikes": 0, "name": "H\u00f4tel de Ville/Roy ", "address": "H\u00f4tel de Ville/Roy ", "lat": 45.51725, "status": "OPEN", "stands": 0, "lon": -73.574361}}, {"geometry": {"coordinates": [-73.577215075493, 45.519236909648], "type": "Point"}, "type": "Feature", "properties": {"bikes": 0, "name": "Laval / Duluth", "address": "Laval / Duluth", "lat": 45.519236909648, "status": "OPEN", "stands": 15, "lon": -73.577215075493}}, {"geometry": {"coordinates": [-73.58685, 45.51941], "type": "Point"}, "type": "Feature", "properties": {"bikes": 0, "name": "Mont-Royal / Clark", "address": "Mont-Royal / Clark", "lat": 45.51941, "status": "OPEN", "stands": 23, "lon": -73.58685}}, {"geometry": {"coordinates": [-73.5889283, 45.5176432], "type": "Point"}, "type": "Feature", "properties": {"bikes": 0, "name": "Jeanne Mance / Mont-Royal", "address": "Jeanne Mance / Mont-Royal", "lat": 45.5176432, "status": "OPEN", "stands": 11, "lon": -73.5889283}}, {"geometry": {"coordinates": [-73.589, 45.517], "type": "Point"}, "type": "Feature", "properties": {"bikes": 0, "name": "Mont-Royal / du Parc", "address": "Mont-Royal / du Parc", "lat": 45.517, "status": "OPEN", "stands": 33, "lon": -73.589}}, {"geometry": {"coordinates": [-73.59235, 45.51829], "type": "Point"}, "type": "Feature", "properties": {"bikes": 0, "name": "Villeneuve/ Parc", "address": "Villeneuve/ Parc", "lat": 45.51829, "status": "OPEN", "stands": 15, "lon": -73.59235}}, {"geometry": {"coordinates": [-73.590559, 45.520188], "type": "Point"}, "type": "Feature", "properties": {"bikes": 0, "name": "Villeneuve / St-Urbain", "address": "Villeneuve / St-Urbain", "lat": 45.520188, "status": "OPEN", "stands": 11, "lon": -73.590559}}, {"geometry": {"coordinates": [-73.561562, 45.575707], "type": "Point"}, "type": "Feature", "properties": {"bikes": 0, "name": "Hopital Maisonneuve Rosemont (Rosemont/Chatelain)", "address": "Hopital Maisonneuve Rosemont (Rosemont/Chatelain)", "lat": 45.575707, "status": "OPEN", "stands": 19, "lon": -73.561562}}, {"geometry": {"coordinates": [-73.594499, 45.520906], "type": "Point"}, "type": "Feature", "properties": {"bikes": 0, "name": "Esplanade/Laurier", "address": "Esplanade/Laurier", "lat": 45.520906, "status": "OPEN", "stands": 23, "lon": -73.594499}}, {"geometry": {"coordinates": [-73.585514, 45.52102], "type": "Point"}, "type": "Feature", "properties": {"bikes": 0, "name": "Coloniale/ Mont-Royal", "address": "Coloniale/ Mont-Royal", "lat": 45.52102, "status": "OPEN", "stands": 15, "lon": -73.585514}}, {"geometry": {"coordinates": [-73.60042154789, 45.524025271152], "type": "Point"}, "type": "Feature", "properties": {"bikes": 0, "name": "Waverly / Saint-Viateur", "address": "Waverly / Saint-Viateur", "lat": 45.524025271152, "status": "OPEN", "stands": 15, "lon": -73.60042154789}}, {"geometry": {"coordinates": [-73.6019, 45.52246], "type": "Point"}, "type": "Feature", "properties": {"bikes": 0, "name": "Saint-Viateur / du Parc", "address": "Saint-Viateur / du Parc", "lat": 45.52246, "status": "OPEN", "stands": 23, "lon": -73.6019}}, {"geometry": {"coordinates": [-73.60261, 45.52697], "type": "Point"}, "type": "Feature", "properties": {"bikes": 0, "name": "Bernard / Clark", "address": "Bernard / Clark", "lat": 45.52697, "status": "OPEN", "stands": 23, "lon": -73.60261}}, {"geometry": {"coordinates": [-73.598232865334, 45.52654331973], "type": "Point"}, "type": "Feature", "properties": {"bikes": 0, "name": "Saint-Dominique / Saint-Viateur", "address": "Saint-Dominique / Saint-Viateur", "lat": 45.52654331973, "status": "OPEN", "stands": 19, "lon": -73.598232865334}}, {"geometry": {"coordinates": [-73.579291, 45.537456], "type": "Point"}, "type": "Feature", "properties": {"bikes": 0, "name": " Bordeaux/Laurier", "address": " Bordeaux/Laurier", "lat": 45.537456, "status": "OPEN", "stands": 31, "lon": -73.579291}}, {"geometry": {"coordinates": [-73.580541, 45.532013], "type": "Point"}, "type": "Feature", "properties": {"bikes": 0, "name": "Gilford/Lanaudi\u00e8re", "address": "Gilford/Lanaudi\u00e8re", "lat": 45.532013, "status": "OPEN", "stands": 14, "lon": -73.580541}}, {"geometry": {"coordinates": [-73.577784, 45.516777], "type": "Point"}, "type": "Feature", "properties": {"bikes": 0, "name": "Napoleon/St-Dominique", "address": "Napoleon/St-Dominique", "lat": 45.516777, "status": "OPEN", "stands": 23, "lon": -73.577784}}, {"geometry": {"coordinates": [-73.6055123806, 45.549704078239], "type": "Point"}, "type": "Feature", "properties": {"bikes": 0, "name": "de Bordeaux / Jean-Talon", "address": "de Bordeaux / Jean-Talon", "lat": 45.549704078239, "status": "OPEN", "stands": 15, "lon": -73.6055123806}}, {"geometry": {"coordinates": [-73.629593, 45.505973], "type": "Point"}, "type": "Feature", "properties": {"bikes": 0, "name": "Hudson/Kent", "address": "Hudson/Kent", "lat": 45.505973, "status": "OPEN", "stands": 23, "lon": -73.629593}}, {"geometry": {"coordinates": [-73.597724, 45.517345], "type": "Point"}, "type": "Feature", "properties": {"bikes": 0, "name": "Querbes / Laurier", "address": "Querbes / Laurier", "lat": 45.517345, "status": "OPEN", "stands": 15, "lon": -73.597724}}, {"geometry": {"coordinates": [-73.606786, 45.519861], "type": "Point"}, "type": "Feature", "properties": {"bikes": 0, "name": "Bloomfield / Bernard", "address": "Bloomfield / Bernard", "lat": 45.519861, "status": "OPEN", "stands": 19, "lon": -73.606786}}, {"geometry": {"coordinates": [-73.61265779, 45.5225858], "type": "Point"}, "type": "Feature", "properties": {"bikes": 0, "name": "Bloomfield / Van Horne", "address": "Bloomfield / Van Horne", "lat": 45.5225858, "status": "OPEN", "stands": 14, "lon": -73.61265779}}, {"geometry": {"coordinates": [-73.614887, 45.520265], "type": "Point"}, "type": "Feature", "properties": {"bikes": 0, "name": "M\u00e9tro Outremont (Wiseman / Van Horne)", "address": "M\u00e9tro Outremont (Wiseman / Van Horne)", "lat": 45.520265, "status": "OPEN", "stands": 20, "lon": -73.614887}}, {"geometry": {"coordinates": [-73.61108, 45.53304], "type": "Point"}, "type": "Feature", "properties": {"bikes": 0, "name": "Casgrain / Saint-Zotique", "address": "Casgrain / Saint-Zotique", "lat": 45.53304, "status": "OPEN", "stands": 15, "lon": -73.61108}}, {"geometry": {"coordinates": [-73.581566, 45.518593], "type": "Point"}, "type": "Feature", "properties": {"bikes": 0, "name": "St-Dominique/Rachel", "address": "St-Dominique/Rachel", "lat": 45.518593, "status": "OPEN", "stands": 23, "lon": -73.581566}}, {"geometry": {"coordinates": [-73.61199, 45.53696], "type": "Point"}, "type": "Feature", "properties": {"bikes": 0, "name": "B\u00e9langer / Saint-Denis", "address": "B\u00e9langer / Saint-Denis", "lat": 45.53696, "status": "OPEN", "stands": 15, "lon": -73.61199}}, {"geometry": {"coordinates": [-73.61529, 45.53707], "type": "Point"}, "type": "Feature", "properties": {"bikes": 0, "name": "Henri-Julien / Jean-Talon", "address": "Henri-Julien / Jean-Talon", "lat": 45.53707, "status": "OPEN", "stands": 23, "lon": -73.61529}}, {"geometry": {"coordinates": [-73.612278, 45.534377], "type": "Point"}, "type": "Feature", "properties": {"bikes": 0, "name": "Gasp\u00e9/Dante", "address": "Gasp\u00e9/Dante", "lat": 45.534377, "status": "OPEN", "stands": 19, "lon": -73.612278}}, {"geometry": {"coordinates": [-73.61544, 45.53318], "type": "Point"}, "type": "Feature", "properties": {"bikes": 0, "name": "Mozart / Saint-Laurent", "address": "Mozart / Saint-Laurent", "lat": 45.53318, "status": "OPEN", "stands": 2, "lon": -73.61544}}, {"geometry": {"coordinates": [-73.614256381989, 45.539736803045], "type": "Point"}, "type": "Feature", "properties": {"bikes": 0, "name": "Lajeunesse / Jean-Talon", "address": "Lajeunesse / Jean-Talon", "lat": 45.539736803045, "status": "OPEN", "stands": 15, "lon": -73.614256381989}}, {"geometry": {"coordinates": [-73.60897, 45.54006], "type": "Point"}, "type": "Feature", "properties": {"bikes": 0, "name": "Boyer / B\u00e9langer", "address": "Boyer / B\u00e9langer", "lat": 45.54006, "status": "OPEN", "stands": 19, "lon": -73.60897}}, {"geometry": {"coordinates": [-73.60556, 45.53848], "type": "Point"}, "type": "Feature", "properties": {"bikes": 0, "name": "Boyer / Saint-Zotique", "address": "Boyer / Saint-Zotique", "lat": 45.53848, "status": "OPEN", "stands": 19, "lon": -73.60556}}, {"geometry": {"coordinates": [-73.607773, 45.536299], "type": "Point"}, "type": "Feature", "properties": {"bikes": 0, "name": "Saint-Vallier / Saint-Zotique", "address": "Saint-Vallier / Saint-Zotique", "lat": 45.536299, "status": "OPEN", "stands": 15, "lon": -73.607773}}, {"geometry": {"coordinates": [-73.593126, 45.537035], "type": "Point"}, "type": "Feature", "properties": {"bikes": 0, "name": "Parc P\u00e8re-Marquette (Chambord / Rosemont)", "address": "Parc P\u00e8re-Marquette (Chambord / Rosemont)", "lat": 45.537035, "status": "OPEN", "stands": 31, "lon": -73.593126}}, {"geometry": {"coordinates": [-73.584157, 45.540881], "type": "Point"}, "type": "Feature", "properties": {"bikes": 0, "name": "Dandurand/De Lorimier", "address": "Dandurand/De Lorimier", "lat": 45.540881, "status": "OPEN", "stands": 14, "lon": -73.584157}}, {"geometry": {"coordinates": [-73.586302, 45.538589], "type": "Point"}, "type": "Feature", "properties": {"bikes": 0, "name": "Dandurand/Papineau", "address": "Dandurand/Papineau", "lat": 45.538589, "status": "OPEN", "stands": 19, "lon": -73.586302}}, {"geometry": {"coordinates": [-73.588069, 45.54458], "type": "Point"}, "type": "Feature", "properties": {"bikes": 0, "name": "Louis H\u00e9mon / Rosemont", "address": "Louis H\u00e9mon / Rosemont", "lat": 45.54458, "status": "OPEN", "stands": 19, "lon": -73.588069}}, {"geometry": {"coordinates": [-73.597884, 45.537202], "type": "Point"}, "type": "Feature", "properties": {"bikes": 0, "name": "de la Roche /  Bellechasse ", "address": "de la Roche /  Bellechasse ", "lat": 45.537202, "status": "OPEN", "stands": 1, "lon": -73.597884}}, {"geometry": {"coordinates": [-73.6266, 45.4714], "type": "Point"}, "type": "Feature", "properties": {"bikes": 0, "name": "Hampton/Monkland", "address": "Hampton/Monkland", "lat": 45.4714, "status": "OPEN", "stands": 15, "lon": -73.6266}}, {"geometry": {"coordinates": [-73.59212, 45.5427], "type": "Point"}, "type": "Feature", "properties": {"bikes": 0, "name": "Chabot / Bellechasse", "address": "Chabot / Bellechasse", "lat": 45.5427, "status": "OPEN", "stands": 15, "lon": -73.59212}}, {"geometry": {"coordinates": [-73.577338, 45.539259], "type": "Point"}, "type": "Feature", "properties": {"bikes": 0, "name": "Parthenais / Laurier", "address": "Parthenais / Laurier", "lat": 45.539259, "status": "OPEN", "stands": 19, "lon": -73.577338}}, {"geometry": {"coordinates": [-73.59268, 45.54857], "type": "Point"}, "type": "Feature", "properties": {"bikes": 0, "name": "Louis-H\u00e9bert / Beaubien", "address": "Louis-H\u00e9bert / Beaubien", "lat": 45.54857, "status": "OPEN", "stands": 19, "lon": -73.59268}}, {"geometry": {"coordinates": [-73.5949, 45.54475], "type": "Point"}, "type": "Feature", "properties": {"bikes": 0, "name": "de Bordeaux / Beaubien", "address": "de Bordeaux / Beaubien", "lat": 45.54475, "status": "OPEN", "stands": 2, "lon": -73.5949}}, {"geometry": {"coordinates": [-73.599716, 45.539964], "type": "Point"}, "type": "Feature", "properties": {"bikes": 0, "name": "Chambord / Beaubien", "address": "Chambord / Beaubien", "lat": 45.539964, "status": "OPEN", "stands": 19, "lon": -73.599716}}, {"geometry": {"coordinates": [-73.60384, 45.54083], "type": "Point"}, "type": "Feature", "properties": {"bikes": 0, "name": "de Normanville / Saint-Zotique", "address": "de Normanville / Saint-Zotique", "lat": 45.54083, "status": "OPEN", "stands": 7, "lon": -73.60384}}, {"geometry": {"coordinates": [-73.600982, 45.543541], "type": "Point"}, "type": "Feature", "properties": {"bikes": 0, "name": "Fabre / Saint-Zotique", "address": "Fabre / Saint-Zotique", "lat": 45.543541, "status": "OPEN", "stands": 19, "lon": -73.600982}}, {"geometry": {"coordinates": [-73.604214, 45.529993], "type": "Point"}, "type": "Feature", "properties": {"bikes": 0, "name": "Casgrain / de Bellechasse", "address": "Casgrain / de Bellechasse", "lat": 45.529993, "status": "OPEN", "stands": 23, "lon": -73.604214}}, {"geometry": {"coordinates": [-73.598442, 45.546526], "type": "Point"}, "type": "Feature", "properties": {"bikes": 0, "name": "Bordeaux / Saint-Zotique", "address": "Bordeaux / Saint-Zotique", "lat": 45.546526, "status": "OPEN", "stands": 15, "lon": -73.598442}}, {"geometry": {"coordinates": [-73.602616, 45.546939], "type": "Point"}, "type": "Feature", "properties": {"bikes": 0, "name": "Cartier / B\u00e9langer", "address": "Cartier / B\u00e9langer", "lat": 45.546939, "status": "OPEN", "stands": 19, "lon": -73.602616}}, {"geometry": {"coordinates": [-73.583695, 45.531164], "type": "Point"}, "type": "Feature", "properties": {"bikes": 0, "name": "De la Roche/St-Joseph", "address": "De la Roche/St-Joseph", "lat": 45.531164, "status": "OPEN", "stands": 19, "lon": -73.583695}}, {"geometry": {"coordinates": [-73.610458, 45.544828], "type": "Point"}, "type": "Feature", "properties": {"bikes": 0, "name": "Chambord / Jean-Talon", "address": "Chambord / Jean-Talon", "lat": 45.544828, "status": "OPEN", "stands": 2, "lon": -73.610458}}, {"geometry": {"coordinates": [-73.606585, 45.543077], "type": "Point"}, "type": "Feature", "properties": {"bikes": 0, "name": "Chambord / B\u00e9langer", "address": "Chambord / B\u00e9langer", "lat": 45.543077, "status": "OPEN", "stands": 15, "lon": -73.606585}}, {"geometry": {"coordinates": [-73.59576, 45.55001], "type": "Point"}, "type": "Feature", "properties": {"bikes": 0, "name": "Louis-H\u00e9bert / Saint-Zotique", "address": "Louis-H\u00e9bert / Saint-Zotique", "lat": 45.55001, "status": "OPEN", "stands": 11, "lon": -73.59576}}, {"geometry": {"coordinates": [-73.598852, 45.551457], "type": "Point"}, "type": "Feature", "properties": {"bikes": 0, "name": "Louis-H\u00e9bert / B\u00e9langer", "address": "Louis-H\u00e9bert / B\u00e9langer", "lat": 45.551457, "status": "OPEN", "stands": 15, "lon": -73.598852}}, {"geometry": {"coordinates": [-73.597793, 45.542055], "type": "Point"}, "type": "Feature", "properties": {"bikes": 0, "name": "Fabre / Beaubien", "address": "Fabre / Beaubien", "lat": 45.542055, "status": "OPEN", "stands": 15, "lon": -73.597793}}, {"geometry": {"coordinates": [-73.581018, 45.544377], "type": "Point"}, "type": "Feature", "properties": {"bikes": 0, "name": "Parc Rosemont (Dandurand/d'Iberville)", "address": "Parc Rosemont (Dandurand/d'Iberville)", "lat": 45.544377, "status": "OPEN", "stands": 19, "lon": -73.581018}}, {"geometry": {"coordinates": [-73.595666, 45.53192856], "type": "Point"}, "type": "Feature", "properties": {"bikes": 0, "name": "Chateaubriand/Des Ateliers", "address": "Chateaubriand/Des Ateliers", "lat": 45.53192856, "status": "OPEN", "stands": 23, "lon": -73.595666}}, {"geometry": {"coordinates": [-73.595478, 45.534136], "type": "Point"}, "type": "Feature", "properties": {"bikes": 0, "name": "Boyer / Rosemont", "address": "Boyer / Rosemont", "lat": 45.534136, "status": "OPEN", "stands": 23, "lon": -73.595478}}, {"geometry": {"coordinates": [-73.601221, 45.533473], "type": "Point"}, "type": "Feature", "properties": {"bikes": 0, "name": "Bellechasse/St-Valier", "address": "Bellechasse/St-Valier", "lat": 45.533473, "status": "OPEN", "stands": 19, "lon": -73.601221}}, {"geometry": {"coordinates": [-73.5634366, 45.48401829], "type": "Point"}, "type": "Feature", "properties": {"bikes": 0, "name": "Augustin-Cantin / Shearer", "address": "Augustin-Cantin / Shearer", "lat": 45.48401829, "status": "OPEN", "stands": 15, "lon": -73.5634366}}, {"geometry": {"coordinates": [-73.578755, 45.524634], "type": "Point"}, "type": "Feature", "properties": {"bikes": 0, "name": "Marie-anne/ St-Hubert", "address": "Marie-anne/ St-Hubert", "lat": 45.524634, "status": "OPEN", "stands": 15, "lon": -73.578755}}, {"geometry": {"coordinates": [-73.615085, 45.50723], "type": "Point"}, "type": "Feature", "properties": {"bikes": 0, "name": "\u00c9douard-Montpetit / Stirling", "address": "\u00c9douard-Montpetit / Stirling", "lat": 45.50723, "status": "OPEN", "stands": 19, "lon": -73.615085}}, {"geometry": {"coordinates": [-73.618105, 45.500035], "type": "Point"}, "type": "Feature", "properties": {"bikes": 0, "name": "Louis-Colin / McKenna", "address": "Louis-Colin / McKenna", "lat": 45.500035, "status": "OPEN", "stands": 23, "lon": -73.618105}}, {"geometry": {"coordinates": [-73.607723, 45.527363], "type": "Point"}, "type": "Feature", "properties": {"bikes": 0, "name": "Waverly / Van Horne", "address": "Waverly / Van Horne", "lat": 45.527363, "status": "OPEN", "stands": 11, "lon": -73.607723}}, {"geometry": {"coordinates": [-73.610737323761, 45.525021229213], "type": "Point"}, "type": "Feature", "properties": {"bikes": 0, "name": "Hutchison / Van Horne", "address": "Hutchison / Van Horne", "lat": 45.525021229213, "status": "OPEN", "stands": 19, "lon": -73.610737323761}}, {"geometry": {"coordinates": [-73.604847192764, 45.524295872823], "type": "Point"}, "type": "Feature", "properties": {"bikes": 0, "name": "Bernard / Jeanne-Mance", "address": "Bernard / Jeanne-Mance", "lat": 45.524295872823, "status": "OPEN", "stands": 27, "lon": -73.604847192764}}, {"geometry": {"coordinates": [-73.647982, 45.549949], "type": "Point"}, "type": "Feature", "properties": {"bikes": 0, "name": "Basile-Routhier / Chabanel", "address": "Basile-Routhier / Chabanel", "lat": 45.549949, "status": "OPEN", "stands": 11, "lon": -73.647982}}, {"geometry": {"coordinates": [-73.581185, 45.552649], "type": "Point"}, "type": "Feature", "properties": {"bikes": 0, "name": "10e Avenue / Rosemont", "address": "10e Avenue / Rosemont", "lat": 45.552649, "status": "OPEN", "stands": 14, "lon": -73.581185}}, {"geometry": {"coordinates": [-73.602026, 45.537041], "type": "Point"}, "type": "Feature", "properties": {"bikes": 0, "name": "Boyer / Beaubien", "address": "Boyer / Beaubien", "lat": 45.537041, "status": "OPEN", "stands": 19, "lon": -73.602026}}, {"geometry": {"coordinates": [-73.559644, 45.493962], "type": "Point"}, "type": "Feature", "properties": {"bikes": 0, "name": "Peel / Ottawa", "address": "Peel / Ottawa", "lat": 45.493962, "status": "OPEN", "stands": 6, "lon": -73.559644}}, {"geometry": {"coordinates": [-73.564817905426, 45.493029012584], "type": "Point"}, "type": "Feature", "properties": {"bikes": 0, "name": "Notre-Dame / de la Montagne ", "address": "Notre-Dame / de la Montagne ", "lat": 45.493029012584, "status": "OPEN", "stands": 26, "lon": -73.564817905426}}, {"geometry": {"coordinates": [-73.567091, 45.489951], "type": "Point"}, "type": "Feature", "properties": {"bikes": 0, "name": "Guy / Notre-Dame", "address": "Guy / Notre-Dame", "lat": 45.489951, "status": "OPEN", "stands": 19, "lon": -73.567091}}, {"geometry": {"coordinates": [-73.59353, 45.54705], "type": "Point"}, "type": "Feature", "properties": {"bikes": 0, "name": "Louis-H\u00e9mon / Beaubien", "address": "Louis-H\u00e9mon / Beaubien", "lat": 45.54705, "status": "OPEN", "stands": 15, "lon": -73.59353}}, {"geometry": {"coordinates": [-73.594059, 45.524611], "type": "Point"}, "type": "Feature", "properties": {"bikes": 0, "name": "Fairmount/St-Dominique", "address": "Fairmount/St-Dominique", "lat": 45.524611, "status": "OPEN", "stands": 15, "lon": -73.594059}}, {"geometry": {"coordinates": [-73.569651246071, 45.478227873091], "type": "Point"}, "type": "Feature", "properties": {"bikes": 0, "name": "M\u00e9tro Charlevoix (Centre / Charlevoix)", "address": "M\u00e9tro Charlevoix (Centre / Charlevoix)", "lat": 45.478227873091, "status": "OPEN", "stands": 15, "lon": -73.569651246071}}, {"geometry": {"coordinates": [-73.568868, 45.487676], "type": "Point"}, "type": "Feature", "properties": {"bikes": 0, "name": "des Seigneurs / Notre-Dame", "address": "des Seigneurs / Notre-Dame", "lat": 45.487676, "status": "OPEN", "stands": 15, "lon": -73.568868}}, {"geometry": {"coordinates": [-73.585369, 45.472743], "type": "Point"}, "type": "Feature", "properties": {"bikes": 0, "name": "Sir Georges Etienne Cartier/Ste-\u00c9milie", "address": "Sir Georges Etienne Cartier/Ste-\u00c9milie", "lat": 45.472743, "status": "OPEN", "stands": 18, "lon": -73.585369}}, {"geometry": {"coordinates": [-73.57178, 45.48501], "type": "Point"}, "type": "Feature", "properties": {"bikes": 0, "name": "Georges-Vanier / Notre-Dame", "address": "Georges-Vanier / Notre-Dame", "lat": 45.48501, "status": "OPEN", "stands": 18, "lon": -73.57178}}, {"geometry": {"coordinates": [-73.577514, 45.485889], "type": "Point"}, "type": "Feature", "properties": {"bikes": 0, "name": "Quesnel/Vinet", "address": "Quesnel/Vinet", "lat": 45.485889, "status": "OPEN", "stands": 23, "lon": -73.577514}}, {"geometry": {"coordinates": [-73.57486278, 45.48203995], "type": "Point"}, "type": "Feature", "properties": {"bikes": 0, "name": "Duvernay/charlevoix ", "address": "Duvernay/charlevoix ", "lat": 45.48203995, "status": "OPEN", "stands": 19, "lon": -73.57486278}}, {"geometry": {"coordinates": [-73.577102, 45.480359], "type": "Point"}, "type": "Feature", "properties": {"bikes": 0, "name": "March\u00e9 Atwater", "address": "March\u00e9 Atwater", "lat": 45.480359, "status": "OPEN", "stands": 33, "lon": -73.577102}}, {"geometry": {"coordinates": [-73.57731164, 45.48392802], "type": "Point"}, "type": "Feature", "properties": {"bikes": 0, "name": "M\u00e9tro Lionel-Groulx ( Lionel-Groulx /Charlevoix)", "address": "M\u00e9tro Lionel-Groulx ( Lionel-Groulx /Charlevoix)", "lat": 45.48392802, "status": "OPEN", "stands": 31, "lon": -73.57731164}}, {"geometry": {"coordinates": [-73.57656, 45.4891], "type": "Point"}, "type": "Feature", "properties": {"bikes": 0, "name": "Saint-Antoine / Canning (Metro George-Vanier)", "address": "Saint-Antoine / Canning (Metro George-Vanier)", "lat": 45.4891, "status": "OPEN", "stands": 17, "lon": -73.57656}}, {"geometry": {"coordinates": [-73.579463, 45.520018], "type": "Point"}, "type": "Feature", "properties": {"bikes": 0, "name": "Laval/Rachel", "address": "Laval/Rachel", "lat": 45.520018, "status": "OPEN", "stands": 0, "lon": -73.579463}}, {"geometry": {"coordinates": [-73.571877, 45.456049], "type": "Point"}, "type": "Feature", "properties": {"bikes": 0, "name": "5e ave/Verdun", "address": "5e ave/Verdun", "lat": 45.456049, "status": "OPEN", "stands": 19, "lon": -73.571877}}, {"geometry": {"coordinates": [-73.621215, 45.505514], "type": "Point"}, "type": "Feature", "properties": {"bikes": 0, "name": "Darlington / C\u00f4te-Sainte-Catherine", "address": "Darlington / C\u00f4te-Sainte-Catherine", "lat": 45.505514, "status": "OPEN", "stands": 31, "lon": -73.621215}}, {"geometry": {"coordinates": [-73.589848, 45.470303], "type": "Point"}, "type": "Feature", "properties": {"bikes": 0, "name": "Palm/St-Remi", "address": "Palm/St-Remi", "lat": 45.470303, "status": "OPEN", "stands": 19, "lon": -73.589848}}, {"geometry": {"coordinates": [-73.633161, 45.501302], "type": "Point"}, "type": "Feature", "properties": {"bikes": 0, "name": "Kent / C\u00f4te-Des-Neiges", "address": "Kent / C\u00f4te-Des-Neiges", "lat": 45.501302, "status": "OPEN", "stands": 23, "lon": -73.633161}}, {"geometry": {"coordinates": [-73.609546, 45.534795], "type": "Point"}, "type": "Feature", "properties": {"bikes": 0, "name": "Drolet/St-Zotique", "address": "Drolet/St-Zotique", "lat": 45.534795, "status": "OPEN", "stands": 19, "lon": -73.609546}}, {"geometry": {"coordinates": [-73.574777, 45.529219], "type": "Point"}, "type": "Feature", "properties": {"bikes": 0, "name": "De Lanaudiere/Marie-Anne", "address": "De Lanaudiere/Marie-Anne", "lat": 45.529219, "status": "OPEN", "stands": 19, "lon": -73.574777}}, {"geometry": {"coordinates": [-73.6231855, 45.49690965], "type": "Point"}, "type": "Feature", "properties": {"bikes": 0, "name": "Lacombe / C\u00f4te-des-Neiges", "address": "Lacombe / C\u00f4te-des-Neiges", "lat": 45.49690965, "status": "OPEN", "stands": 15, "lon": -73.6231855}}, {"geometry": {"coordinates": [-73.618575, 45.497011], "type": "Point"}, "type": "Feature", "properties": {"bikes": 0, "name": "Parc Jean-Brillant (Swail / Decelles)", "address": "Parc Jean-Brillant (Swail / Decelles)", "lat": 45.497011, "status": "OPEN", "stands": 27, "lon": -73.618575}}, {"geometry": {"coordinates": [-73.554902, 45.555029], "type": "Point"}, "type": "Feature", "properties": {"bikes": 0, "name": "Jardin Botanique", "address": "Jardin Botanique", "lat": 45.555029, "status": "OPEN", "stands": 3, "lon": -73.554902}}, {"geometry": {"coordinates": [-73.57641, 45.536178], "type": "Point"}, "type": "Feature", "properties": {"bikes": 0, "name": "Bordeaux/Gilford", "address": "Bordeaux/Gilford", "lat": 45.536178, "status": "OPEN", "stands": 23, "lon": -73.57641}}, {"geometry": {"coordinates": [-73.554635, 45.541814], "type": "Point"}, "type": "Feature", "properties": {"bikes": 0, "name": "M\u00e9tro Pr\u00e9fontaine (Moreau / Hochelaga)", "address": "M\u00e9tro Pr\u00e9fontaine (Moreau / Hochelaga)", "lat": 45.541814, "status": "OPEN", "stands": 21, "lon": -73.554635}}, {"geometry": {"coordinates": [-73.551739, 45.547179], "type": "Point"}, "type": "Feature", "properties": {"bikes": 0, "name": "M\u00e9tro Joliette  (joliette/Hochelaga)", "address": "M\u00e9tro Joliette  (joliette/Hochelaga)", "lat": 45.547179, "status": "OPEN", "stands": 19, "lon": -73.551739}}, {"geometry": {"coordinates": [-73.549502, 45.550668], "type": "Point"}, "type": "Feature", "properties": {"bikes": 0, "name": "D'Orl\u00e9ans / Hochelaga", "address": "D'Orl\u00e9ans / Hochelaga", "lat": 45.550668, "status": "OPEN", "stands": 11, "lon": -73.549502}}, {"geometry": {"coordinates": [-73.612441, 45.541484], "type": "Point"}, "type": "Feature", "properties": {"bikes": 0, "name": "Boyer / Jean-Talon", "address": "Boyer / Jean-Talon", "lat": 45.541484, "status": "OPEN", "stands": 15, "lon": -73.612441}}, {"geometry": {"coordinates": [-73.545609, 45.544136], "type": "Point"}, "type": "Feature", "properties": {"bikes": 0, "name": "Aylwin / Ontario", "address": "Aylwin / Ontario", "lat": 45.544136, "status": "OPEN", "stands": 13, "lon": -73.545609}}, {"geometry": {"coordinates": [-73.547407, 45.541044], "type": "Point"}, "type": "Feature", "properties": {"bikes": 0, "name": "Ontario / D\u00e9z\u00e9ry", "address": "Ontario / D\u00e9z\u00e9ry", "lat": 45.541044, "status": "OPEN", "stands": 33, "lon": -73.547407}}, {"geometry": {"coordinates": [-73.5438269, 45.54730353], "type": "Point"}, "type": "Feature", "properties": {"bikes": 0, "name": "Valois / Ontario", "address": "Valois / Ontario", "lat": 45.54730353, "status": "OPEN", "stands": 23, "lon": -73.5438269}}, {"geometry": {"coordinates": [-73.548687, 45.55896], "type": "Point"}, "type": "Feature", "properties": {"bikes": 0, "name": "Pierre-de-Coubertin / Aird", "address": "Pierre-de-Coubertin / Aird", "lat": 45.55896, "status": "OPEN", "stands": 40, "lon": -73.548687}}, {"geometry": {"coordinates": [-73.53931, 45.553491], "type": "Point"}, "type": "Feature", "properties": {"bikes": 0, "name": "March\u00e9 Maisonneuve", "address": "March\u00e9 Maisonneuve", "lat": 45.553491, "status": "OPEN", "stands": 23, "lon": -73.53931}}, {"geometry": {"coordinates": [-73.540764, 45.551119], "type": "Point"}, "type": "Feature", "properties": {"bikes": 0, "name": "Desjardins / Ontario", "address": "Desjardins / Ontario", "lat": 45.551119, "status": "OPEN", "stands": 27, "lon": -73.540764}}, {"geometry": {"coordinates": [-73.634319, 45.539964], "type": "Point"}, "type": "Feature", "properties": {"bikes": 0, "name": "Guizot / Saint-Laurent", "address": "Guizot / Saint-Laurent", "lat": 45.539964, "status": "OPEN", "stands": 15, "lon": -73.634319}}, {"geometry": {"coordinates": [-73.62038255, 45.53985704], "type": "Point"}, "type": "Feature", "properties": {"bikes": 0, "name": "Faillon / Saint-Denis", "address": "Faillon / Saint-Denis", "lat": 45.53985704, "status": "OPEN", "stands": 15, "lon": -73.62038255}}, {"geometry": {"coordinates": [-73.625894, 45.541791], "type": "Point"}, "type": "Feature", "properties": {"bikes": 0, "name": "Gounod / Saint-Denis", "address": "Gounod / Saint-Denis", "lat": 45.541791, "status": "OPEN", "stands": 15, "lon": -73.625894}}, {"geometry": {"coordinates": [-73.630089, 45.540627], "type": "Point"}, "type": "Feature", "properties": {"bikes": 0, "name": "De Gasp\u00e9 / Jarry", "address": "De Gasp\u00e9 / Jarry", "lat": 45.540627, "status": "OPEN", "stands": 15, "lon": -73.630089}}, {"geometry": {"coordinates": [-73.632267, 45.543376], "type": "Point"}, "type": "Feature", "properties": {"bikes": 0, "name": "Guizot / Saint-Denis", "address": "Guizot / Saint-Denis", "lat": 45.543376, "status": "OPEN", "stands": 0, "lon": -73.632267}}, {"geometry": {"coordinates": [-73.636557, 45.542579], "type": "Point"}, "type": "Feature", "properties": {"bikes": 0, "name": "De Gasp\u00e9 / De Li\u00e8ge", "address": "De Gasp\u00e9 / De Li\u00e8ge", "lat": 45.542579, "status": "OPEN", "stands": 15, "lon": -73.636557}}, {"geometry": {"coordinates": [-73.631103, 45.547218], "type": "Point"}, "type": "Feature", "properties": {"bikes": 0, "name": "Leman/Chateaubriand", "address": "Leman/Chateaubriand", "lat": 45.547218, "status": "OPEN", "stands": 15, "lon": -73.631103}}, {"geometry": {"coordinates": [-73.6284, 45.543583], "type": "Point"}, "type": "Feature", "properties": {"bikes": 0, "name": "Lajeunesse / Jarry", "address": "Lajeunesse / Jarry", "lat": 45.543583, "status": "OPEN", "stands": 19, "lon": -73.6284}}, {"geometry": {"coordinates": [-73.621581, 45.54467], "type": "Point"}, "type": "Feature", "properties": {"bikes": 0, "name": "Du Rosaire / Saint-Hubert", "address": "Du Rosaire / Saint-Hubert", "lat": 45.54467, "status": "OPEN", "stands": 15, "lon": -73.621581}}, {"geometry": {"coordinates": [-73.617822, 45.542892], "type": "Point"}, "type": "Feature", "properties": {"bikes": 0, "name": "Faillon / Saint-Hubert", "address": "Faillon / Saint-Hubert", "lat": 45.542892, "status": "OPEN", "stands": 19, "lon": -73.617822}}, {"geometry": {"coordinates": [-73.625377, 45.547283], "type": "Point"}, "type": "Feature", "properties": {"bikes": 0, "name": "Boyer / Jarry", "address": "Boyer / Jarry", "lat": 45.547283, "status": "OPEN", "stands": 14, "lon": -73.625377}}, {"geometry": {"coordinates": [-73.6237, 45.4743], "type": "Point"}, "type": "Feature", "properties": {"bikes": 0, "name": "Harvard/Monkland", "address": "Harvard/Monkland", "lat": 45.4743, "status": "OPEN", "stands": 15, "lon": -73.6237}}, {"geometry": {"coordinates": [-73.614841, 45.544867], "type": "Point"}, "type": "Feature", "properties": {"bikes": 0, "name": "De La Roche / Everett", "address": "De La Roche / Everett", "lat": 45.544867, "status": "OPEN", "stands": 18, "lon": -73.614841}}, {"geometry": {"coordinates": [-73.570769, 45.467369], "type": "Point"}, "type": "Feature", "properties": {"bikes": 0, "name": "Regina / Verdun", "address": "Regina / Verdun", "lat": 45.467369, "status": "OPEN", "stands": 15, "lon": -73.570769}}, {"geometry": {"coordinates": [-73.615021, 45.550551], "type": "Point"}, "type": "Feature", "properties": {"bikes": 0, "name": "Marquette / Villeray", "address": "Marquette / Villeray", "lat": 45.550551, "status": "OPEN", "stands": 1, "lon": -73.615021}}, {"geometry": {"coordinates": [-73.610711, 45.554931], "type": "Point"}, "type": "Feature", "properties": {"bikes": 0, "name": "Louis-H\u00e9mon / Villeray", "address": "Louis-H\u00e9mon / Villeray", "lat": 45.554931, "status": "OPEN", "stands": 15, "lon": -73.610711}}, {"geometry": {"coordinates": [-73.537669, 45.545409], "type": "Point"}, "type": "Feature", "properties": {"bikes": 0, "name": "Valois/Ste-Catherine", "address": "Valois/Ste-Catherine", "lat": 45.545409, "status": "OPEN", "stands": 3, "lon": -73.537669}}, {"geometry": {"coordinates": [-73.599658, 45.559199], "type": "Point"}, "type": "Feature", "properties": {"bikes": 0, "name": "M\u00e9tro St-Michel ( Shaughnessy/St-Michel)", "address": "M\u00e9tro St-Michel ( Shaughnessy/St-Michel)", "lat": 45.559199, "status": "OPEN", "stands": 11, "lon": -73.599658}}, {"geometry": {"coordinates": [-73.5646007, 45.4757434], "type": "Point"}, "type": "Feature", "properties": {"bikes": 0, "name": "Ryde/Charlevoix", "address": "Ryde/Charlevoix", "lat": 45.4757434, "status": "OPEN", "stands": 19, "lon": -73.5646007}}, {"geometry": {"coordinates": [-73.5644, 45.4815], "type": "Point"}, "type": "Feature", "properties": {"bikes": 0, "name": "Island/Centre", "address": "Island/Centre", "lat": 45.4815, "status": "OPEN", "stands": 22, "lon": -73.5644}}, {"geometry": {"coordinates": [-73.624872, 45.537813], "type": "Point"}, "type": "Feature", "properties": {"bikes": 0, "name": "St-Dominique / Villeray", "address": "St-Dominique / Villeray", "lat": 45.537813, "status": "OPEN", "stands": 15, "lon": -73.624872}}, {"geometry": {"coordinates": [-73.634748458862, 45.545541556277], "type": "Point"}, "type": "Feature", "properties": {"bikes": 0, "name": "de Li\u00e8ge / Lajeunesse", "address": "de Li\u00e8ge / Lajeunesse", "lat": 45.545541556277, "status": "OPEN", "stands": 15, "lon": -73.634748458862}}, {"geometry": {"coordinates": [-73.6234, 45.5401], "type": "Point"}, "type": "Feature", "properties": {"bikes": 0, "name": "Drolet / Villeray", "address": "Drolet / Villeray", "lat": 45.5401, "status": "OPEN", "stands": 11, "lon": -73.6234}}, {"geometry": {"coordinates": [-73.613924, 45.471743], "type": "Point"}, "type": "Feature", "properties": {"bikes": 0, "name": "Marcil/Sherbrooke", "address": "Marcil/Sherbrooke", "lat": 45.471743, "status": "OPEN", "stands": 2, "lon": -73.613924}}, {"geometry": {"coordinates": [-73.5373, 45.5566], "type": "Point"}, "type": "Feature", "properties": {"bikes": 0, "name": "Sicard/Ontario", "address": "Sicard/Ontario", "lat": 45.5566, "status": "OPEN", "stands": 19, "lon": -73.5373}}, {"geometry": {"coordinates": [-73.6212, 45.4771], "type": "Point"}, "type": "Feature", "properties": {"bikes": 0, "name": "Monkland/Girouard", "address": "Monkland/Girouard", "lat": 45.4771, "status": "OPEN", "stands": 15, "lon": -73.6212}}, {"geometry": {"coordinates": [-73.58925, 45.556905], "type": "Point"}, "type": "Feature", "properties": {"bikes": 0, "name": "12e Avenue / Saint-Zotique", "address": "12e Avenue / Saint-Zotique", "lat": 45.556905, "status": "OPEN", "stands": 15, "lon": -73.58925}}, {"geometry": {"coordinates": [-73.592336, 45.553243], "type": "Point"}, "type": "Feature", "properties": {"bikes": 0, "name": "6e avenue /St-Zotique", "address": "6e avenue /St-Zotique", "lat": 45.553243, "status": "OPEN", "stands": 19, "lon": -73.592336}}, {"geometry": {"coordinates": [-73.55653, 45.510499], "type": "Point"}, "type": "Feature", "properties": {"bikes": 0, "name": "M\u00e9tro Champs-de-Mars (Viger/Sanguinet)", "address": "M\u00e9tro Champs-de-Mars (Viger/Sanguinet)", "lat": 45.510499, "status": "OPEN", "stands": 25, "lon": -73.55653}}, {"geometry": {"coordinates": [-73.58752, 45.553215], "type": "Point"}, "type": "Feature", "properties": {"bikes": 0, "name": "8e Avenue / Beaubien", "address": "8e Avenue / Beaubien", "lat": 45.553215, "status": "OPEN", "stands": 4, "lon": -73.58752}}, {"geometry": {"coordinates": [-73.590446, 45.550476], "type": "Point"}, "type": "Feature", "properties": {"bikes": 0, "name": "1ere Avenue / Beaubien", "address": "1ere Avenue / Beaubien", "lat": 45.550476, "status": "OPEN", "stands": 15, "lon": -73.590446}}, {"geometry": {"coordinates": [-73.58523, 45.547997], "type": "Point"}, "type": "Feature", "properties": {"bikes": 0, "name": "1ere Avenue / Rosemont", "address": "1ere Avenue / Rosemont", "lat": 45.547997, "status": "OPEN", "stands": 19, "lon": -73.58523}}, {"geometry": {"coordinates": [-73.6198, 45.4688], "type": "Point"}, "type": "Feature", "properties": {"bikes": 0, "name": "C\u00f4te St-Antoine/Royal", "address": "C\u00f4te St-Antoine/Royal", "lat": 45.4688, "status": "OPEN", "stands": 15, "lon": -73.6198}}, {"geometry": {"coordinates": [-73.558292, 45.549639], "type": "Point"}, "type": "Feature", "properties": {"bikes": 0, "name": "Chambly / Rachel", "address": "Chambly / Rachel", "lat": 45.549639, "status": "OPEN", "stands": 15, "lon": -73.558292}}, {"geometry": {"coordinates": [-73.624835, 45.510042], "type": "Point"}, "type": "Feature", "properties": {"bikes": 0, "name": "Wilderton  / Van Horne", "address": "Wilderton  / Van Horne", "lat": 45.510042, "status": "OPEN", "stands": 15, "lon": -73.624835}}, {"geometry": {"coordinates": [-73.579221, 45.547362], "type": "Point"}, "type": "Feature", "properties": {"bikes": 0, "name": "3e Avenue / Dandurand", "address": "3e Avenue / Dandurand", "lat": 45.547362, "status": "OPEN", "stands": 15, "lon": -73.579221}}, {"geometry": {"coordinates": [-73.573755, 45.550321], "type": "Point"}, "type": "Feature", "properties": {"bikes": 0, "name": "10e Avenue / Masson", "address": "10e Avenue / Masson", "lat": 45.550321, "status": "OPEN", "stands": 19, "lon": -73.573755}}, {"geometry": {"coordinates": [-73.6402148, 45.45639046], "type": "Point"}, "type": "Feature", "properties": {"bikes": 0, "name": "West Broadway/Sherbrooke", "address": "West Broadway/Sherbrooke", "lat": 45.45639046, "status": "OPEN", "stands": 9, "lon": -73.6402148}}, {"geometry": {"coordinates": [-73.569847, 45.557192], "type": "Point"}, "type": "Feature", "properties": {"bikes": 0, "name": "D'Orl\u00e9ans / Masson", "address": "D'Orl\u00e9ans / Masson", "lat": 45.557192, "status": "OPEN", "stands": 15, "lon": -73.569847}}, {"geometry": {"coordinates": [-73.575515, 45.546978], "type": "Point"}, "type": "Feature", "properties": {"bikes": 0, "name": "4e Avenue / Masson", "address": "4e Avenue / Masson", "lat": 45.546978, "status": "OPEN", "stands": 30, "lon": -73.575515}}, {"geometry": {"coordinates": [-73.576931, 45.544099], "type": "Point"}, "type": "Feature", "properties": {"bikes": 0, "name": "Molson / Masson", "address": "Molson / Masson", "lat": 45.544099, "status": "OPEN", "stands": 23, "lon": -73.576931}}, {"geometry": {"coordinates": [-73.569351, 45.548327], "type": "Point"}, "type": "Feature", "properties": {"bikes": 0, "name": "9e Avenue / Saint-Joseph", "address": "9e Avenue / Saint-Joseph", "lat": 45.548327, "status": "OPEN", "stands": 11, "lon": -73.569351}}, {"geometry": {"coordinates": [-73.569531, 45.553408], "type": "Point"}, "type": "Feature", "properties": {"bikes": 0, "name": "15e Avenue / Laurier", "address": "15e Avenue / Laurier", "lat": 45.553408, "status": "OPEN", "stands": 19, "lon": -73.569531}}, {"geometry": {"coordinates": [-73.587238, 45.477249], "type": "Point"}, "type": "Feature", "properties": {"bikes": 0, "name": "Metro Place St-Henri (St-Ferdinand/St-Jacques)", "address": "Metro Place St-Henri (St-Ferdinand/St-Jacques)", "lat": 45.477249, "status": "OPEN", "stands": 19, "lon": -73.587238}}, {"geometry": {"coordinates": [-73.564742, 45.554165], "type": "Point"}, "type": "Feature", "properties": {"bikes": 0, "name": "18e Avenue / Saint-Joseph", "address": "18e Avenue / Saint-Joseph", "lat": 45.554165, "status": "OPEN", "stands": 14, "lon": -73.564742}}, {"geometry": {"coordinates": [-73.56385, 45.47968], "type": "Point"}, "type": "Feature", "properties": {"bikes": 0, "name": "Grand trunk/Hibernia", "address": "Grand trunk/Hibernia", "lat": 45.47968, "status": "OPEN", "stands": 19, "lon": -73.56385}}, {"geometry": {"coordinates": [-73.575621, 45.463257], "type": "Point"}, "type": "Feature", "properties": {"bikes": 0, "name": "Bannantyne /de l'Eglise", "address": "Bannantyne /de l'Eglise", "lat": 45.463257, "status": "OPEN", "stands": 15, "lon": -73.575621}}, {"geometry": {"coordinates": [-73.561916, 45.551584], "type": "Point"}, "type": "Feature", "properties": {"bikes": 0, "name": "Parc J.-Arthur-Champagne (Chambly/Mont-Royal)", "address": "Parc J.-Arthur-Champagne (Chambly/Mont-Royal)", "lat": 45.551584, "status": "OPEN", "stands": 19, "lon": -73.561916}}, {"geometry": {"coordinates": [-73.561937, 45.545474], "type": "Point"}, "type": "Feature", "properties": {"bikes": 0, "name": "Omer-Lavall\u00e9e / Midway", "address": "Omer-Lavall\u00e9e / Midway", "lat": 45.545474, "status": "OPEN", "stands": 23, "lon": -73.561937}}, {"geometry": {"coordinates": [-73.556527, 45.545425], "type": "Point"}, "type": "Feature", "properties": {"bikes": 0, "name": "Darling / Sherbrooke", "address": "Darling / Sherbrooke", "lat": 45.545425, "status": "OPEN", "stands": 3, "lon": -73.556527}}, {"geometry": {"coordinates": [-73.551761, 45.553879], "type": "Point"}, "type": "Feature", "properties": {"bikes": 0, "name": "M\u00e9tro Pie-IX (Pierre-de-Coubertin / Pie-IX)", "address": "M\u00e9tro Pie-IX (Pierre-de-Coubertin / Pie-IX)", "lat": 45.553879, "status": "OPEN", "stands": 41, "lon": -73.551761}}, {"geometry": {"coordinates": [-73.603251, 45.518215], "type": "Point"}, "type": "Feature", "properties": {"bikes": 0, "name": "Parc Outremont (Bloomfield / Elmwood)", "address": "Parc Outremont (Bloomfield / Elmwood)", "lat": 45.518215, "status": "OPEN", "stands": 15, "lon": -73.603251}}, {"geometry": {"coordinates": [-73.60628, 45.51529], "type": "Point"}, "type": "Feature", "properties": {"bikes": 0, "name": "Stuart / C\u00f4te-Ste-Catherine", "address": "Stuart / C\u00f4te-Ste-Catherine", "lat": 45.51529, "status": "OPEN", "stands": 15, "lon": -73.60628}}, {"geometry": {"coordinates": [-73.619682, 45.514905], "type": "Point"}, "type": "Feature", "properties": {"bikes": 0, "name": "Dunlop / Van Horne", "address": "Dunlop / Van Horne", "lat": 45.514905, "status": "OPEN", "stands": 11, "lon": -73.619682}}, {"geometry": {"coordinates": [-73.614991, 45.515617], "type": "Point"}, "type": "Feature", "properties": {"bikes": 0, "name": "Rockland / Lajoie", "address": "Rockland / Lajoie", "lat": 45.515617, "status": "OPEN", "stands": 15, "lon": -73.614991}}, {"geometry": {"coordinates": [-73.610871, 45.514379], "type": "Point"}, "type": "Feature", "properties": {"bikes": 0, "name": "Davaar / C\u00f4te-Sainte-Catherine", "address": "Davaar / C\u00f4te-Sainte-Catherine", "lat": 45.514379, "status": "OPEN", "stands": 15, "lon": -73.610871}}, {"geometry": {"coordinates": [-73.611429, 45.510086], "type": "Point"}, "type": "Feature", "properties": {"bikes": 0, "name": "Mont-Royal / Vincent-D'Indy ", "address": "Mont-Royal / Vincent-D'Indy ", "lat": 45.510086, "status": "OPEN", "stands": 38, "lon": -73.611429}}, {"geometry": {"coordinates": [-73.622351, 45.536152], "type": "Point"}, "type": "Feature", "properties": {"bikes": 0, "name": "Gary Carter / St-Laurent", "address": "Gary Carter / St-Laurent", "lat": 45.536152, "status": "OPEN", "stands": 0, "lon": -73.622351}}, {"geometry": {"coordinates": [-73.617459, 45.535189], "type": "Point"}, "type": "Feature", "properties": {"bikes": 0, "name": "Saint-Dominique / Jean talon", "address": "Saint-Dominique / Jean talon", "lat": 45.535189, "status": "OPEN", "stands": 23, "lon": -73.617459}}, {"geometry": {"coordinates": [-73.573286, 45.486457], "type": "Point"}, "type": "Feature", "properties": {"bikes": 0, "name": "Lionel-Groulx / George-Vanier", "address": "Lionel-Groulx / George-Vanier", "lat": 45.486457, "status": "OPEN", "stands": 19, "lon": -73.573286}}, {"geometry": {"coordinates": [-73.568471074104, 45.514530838669], "type": "Point"}, "type": "Feature", "properties": {"bikes": 0, "name": "De l'H\u00f4tel-de-Ville / Sherbrooke", "address": "De l'H\u00f4tel-de-Ville / Sherbrooke", "lat": 45.514530838669, "status": "OPEN", "stands": 15, "lon": -73.568471074104}}, {"geometry": {"coordinates": [-73.5718136, 45.5014018], "type": "Point"}, "type": "Feature", "properties": {"bikes": 0, "name": "Mansfield / Ste-Catherine ", "address": "Mansfield / Ste-Catherine ", "lat": 45.5014018, "status": "OPEN", "stands": 0, "lon": -73.5718136}}, {"geometry": {"coordinates": [-73.573489, 45.512762], "type": "Point"}, "type": "Feature", "properties": {"bikes": 0, "name": "Prince-Arthur / Saint-Urbain", "address": "Prince-Arthur / Saint-Urbain", "lat": 45.512762, "status": "OPEN", "stands": 19, "lon": -73.573489}}, {"geometry": {"coordinates": [-73.53382, 45.512097], "type": "Point"}, "type": "Feature", "properties": {"bikes": 0, "name": "M\u00e9tro Jean-Drapeau", "address": "M\u00e9tro Jean-Drapeau", "lat": 45.512097, "status": "OPEN", "stands": 27, "lon": -73.53382}}, {"geometry": {"coordinates": [-73.537658, 45.511146], "type": "Point"}, "type": "Feature", "properties": {"bikes": 0, "name": "Quai de la navette fluviale", "address": "Quai de la navette fluviale", "lat": 45.511146, "status": "OPEN", "stands": 19, "lon": -73.537658}}, {"geometry": {"coordinates": [-73.624052, 45.530617], "type": "Point"}, "type": "Feature", "properties": {"bikes": 0, "name": "M\u00e9tro Parc  (Ogilvy/Hutchison)", "address": "M\u00e9tro Parc  (Ogilvy/Hutchison)", "lat": 45.530617, "status": "OPEN", "stands": 17, "lon": -73.624052}}, {"geometry": {"coordinates": [-73.534859, 45.521769], "type": "Point"}, "type": "Feature", "properties": {"bikes": 0, "name": "La Ronde", "address": "La Ronde", "lat": 45.521769, "status": "OPEN", "stands": 14, "lon": -73.534859}}, {"geometry": {"coordinates": [-73.6162, 45.4703], "type": "Point"}, "type": "Feature", "properties": {"bikes": 0, "name": "Wilson/Sherbrooke", "address": "Wilson/Sherbrooke", "lat": 45.4703, "status": "OPEN", "stands": 15, "lon": -73.6162}}, {"geometry": {"coordinates": [-73.54822, 45.55325], "type": "Point"},