{"type": "FeatureCollection", "features": [{"type": "Feature", "geometry": {"type": "Point", "coordinates": [-73.553786, 45.508498]}, "properties": {"bikes": 0, "stands": 27, "name": "Notre Dame / Place Jacques Cartier", "status": "OPEN", "lon": -73.553786, "lat": 45.508498, "address": "Notre Dame / Place Jacques Cartier"}}, {"type": "Feature", "geometry": {"type": "Point", "coordinates": [-73.541019, 45.539185]}, "properties": {"bikes": 0, "stands": 21, "name": "D\u00e9zery/Ste-Catherine", "status": "OPEN", "lon": -73.541019, "lat": 45.539185, "address": "D\u00e9zery/Ste-Catherine"}}, {"type": "Feature", "geometry": {"type": "Point", "coordinates": [-73.567974, 45.511119]}, "properties": {"bikes": 0, "stands": 23, "name": "Evans/Clark", "status": "OPEN", "lon": -73.567974, "lat": 45.511119, "address": "Evans/Clark"}}, {"type": "Feature", "geometry": {"type": "Point", "coordinates": [-73.553930819035, 45.512053603271]}, "properties": {"bikes": 0, "stands": 0, "name": "Berri / Saint-Antoine", "status": "OPEN", "lon": -73.553930819035, "lat": 45.512053603271, "address": "Berri / Saint-Antoine"}}, {"type": "Feature", "geometry": {"type": "Point", "coordinates": [-73.5689, 45.508349]}, "properties": {"bikes": 0, "stands": 23, "name": "Pr\u00e9sident-kennedy/Jeanne Mance", "status": "OPEN", "lon": -73.5689, "lat": 45.508349, "address": "Pr\u00e9sident-kennedy/Jeanne Mance"}}, {"type": "Feature", "geometry": {"type": "Point", "coordinates": [-73.577684, 45.556752]}, "properties": {"bikes": 0, "stands": 3, "name": "16e avenue/Rosemont", "status": "OPEN", "lon": -73.577684, "lat": 45.556752, "address": "16e avenue/Rosemont"}}, {"type": "Feature", "geometry": {"type": "Point", "coordinates": [-73.562183976173, 45.511640093571]}, "properties": {"bikes": 0, "stands": 27, "name": "de l'H\u00f4tel-de-Ville / Sainte-Catherine", "status": "OPEN", "lon": -73.562183976173, "lat": 45.511640093571, "address": "de l'H\u00f4tel-de-Ville / Sainte-Catherine"}}, {"type": "Feature", "geometry": {"type": "Point", "coordinates": [-73.561438, 45.512738]}, "properties": {"bikes": 0, "stands": 23, "name": "Sanguinet /Ste-Catherine", "status": "OPEN", "lon": -73.561438, "lat": 45.512738, "address": "Sanguinet /Ste-Catherine"}}, {"type": "Feature", "geometry": {"type": "Point", "coordinates": [-73.559775352478, 45.514624813586]}, "properties": {"bikes": 0, "stands": 2, "name": "Berri / Sainte-Catherine", "status": "OPEN", "lon": -73.559775352478, "lat": 45.514624813586, "address": "Berri / Sainte-Catherine"}}, {"type": "Feature", "geometry": {"type": "Point", "coordinates": [-73.560547828674, 45.513711370744]}, "properties": {"bikes": 0, "stands": 39, "name": "Sainte-Catherine / Saint-Denis", "status": "OPEN", "lon": -73.560547828674, "lat": 45.513711370744, "address": "Sainte-Catherine / Saint-Denis"}}, {"type": "Feature", "geometry": {"type": "Point", "coordinates": [-73.552439, 45.514076]}, "properties": {"bikes": 0, "stands": 15, "name": "Saint-Andr\u00e9 / Saint-Antoine", "status": "OPEN", "lon": -73.552439, "lat": 45.514076, "address": "Saint-Andr\u00e9 / Saint-Antoine"}}, {"type": "Feature", "geometry": {"type": "Point", "coordinates": [-73.56497, 45.51066]}, "properties": {"bikes": 0, "stands": 48, "name": "M\u00e9tro Saint-Laurent (Maisonneuve / St-Laurent)", "status": "OPEN", "lon": -73.56497, "lat": 45.51066, "address": "M\u00e9tro Saint-Laurent (Maisonneuve / St-Laurent)"}}, {"type": "Feature", "geometry": {"type": "Point", "coordinates": [-73.56255, 45.51339]}, "properties": {"bikes": 0, "stands": 7, "name": "Sanguinet / de Maisonneuve", "status": "OPEN", "lon": -73.56255, "lat": 45.51339, "address": "Sanguinet / de Maisonneuve"}}, {"type": "Feature", "geometry": {"type": "Point", "coordinates": [-73.562152, 45.514649]}, "properties": {"bikes": 0, "stands": 0, "name": "St-Denis / de Maisonneuve", "status": "OPEN", "lon": -73.562152, "lat": 45.514649, "address": "St-Denis / de Maisonneuve"}}, {"type": "Feature", "geometry": {"type": "Point", "coordinates": [-73.561273, 45.515299]}, "properties": {"bikes": 0, "stands": 27, "name": "Berri / de Maisonneuve", "status": "OPEN", "lon": -73.561273, "lat": 45.515299, "address": "Berri / de Maisonneuve"}}, {"type": "Feature", "geometry": {"type": "Point", "coordinates": [-73.539285, 45.472503]}, "properties": {"bikes": 0, "stands": 2, "name": "Jacques Le Ber/Ch Pointe Nord", "status": "OPEN", "lon": -73.539285, "lat": 45.472503, "address": "Jacques Le Ber/Ch Pointe Nord"}}, {"type": "Feature", "geometry": {"type": "Point", "coordinates": [-73.5637571, 45.52106924]}, "properties": {"bikes": 0, "stands": 14, "name": "Square Ahmerst/Wolfe", "status": "OPEN", "lon": -73.5637571, "lat": 45.52106924, "address": "Square Ahmerst/Wolfe"}}, {"type": "Feature", "geometry": {"type": "Point", "coordinates": [-73.56353, 45.51889]}, "properties": {"bikes": 0, "stands": 17, "name": "Saint-Andr\u00e9 / Ontario", "status": "OPEN", "lon": -73.56353, "lat": 45.51889, "address": "Saint-Andr\u00e9 / Ontario"}}, {"type": "Feature", "geometry": {"type": "Point", "coordinates": [-73.567205, 45.517836]}, "properties": {"bikes": 0, "stands": 27, "name": "Berri / Sherbrooke", "status": "OPEN", "lon": -73.567205, "lat": 45.517836, "address": "Berri / Sherbrooke"}}, {"type": "Feature", "geometry": {"type": "Point", "coordinates": [-73.565338, 45.514784]}, "properties": {"bikes": 0, "stands": 23, "name": "Sanguinet / Ontario", "status": "OPEN", "lon": -73.565338, "lat": 45.514784, "address": "Sanguinet / Ontario"}}, {"type": "Feature", "geometry": {"type": "Point", "coordinates": [-73.562441, 45.521165]}, "properties": {"bikes": 0, "stands": 19, "name": "Montcalm/Ontario", "status": "OPEN", "lon": -73.562441, "lat": 45.521165, "address": "Montcalm/Ontario"}}, {"type": "Feature", "geometry": {"type": "Point", "coordinates": [-73.54983, 45.51086]}, "properties": {"bikes": 0, "stands": 36, "name": "de la Commune / Berri", "status": "OPEN", "lon": -73.54983, "lat": 45.51086, "address": "de la Commune / Berri"}}, {"type": "Feature", "geometry": {"type": "Point", "coordinates": [-73.562624, 45.531367]}, "properties": {"bikes": 0, "stands": 15, "name": "Des \u00c9rables/ Sherbrooke", "status": "OPEN", "lon": -73.562624, "lat": 45.531367, "address": "Des \u00c9rables/ Sherbrooke"}}, {"type": "Feature", "geometry": {"type": "Point", "coordinates": [-73.555119037628, 45.507143919284]}, "properties": {"bikes": 0, "stands": 0, "name": "Notre-Dame / Saint-Gabriel", "status": "OPEN", "lon": -73.555119037628, "lat": 45.507143919284, "address": "Notre-Dame / Saint-Gabriel"}}, {"type": "Feature", "geometry": {"type": "Point", "coordinates": [-73.552007675171, 45.507192792674]}, "properties": {"bikes": 0, "stands": 54, "name": "de la Commune / Place Jacques-Cartier", "status": "OPEN", "lon": -73.552007675171, "lat": 45.507192792674, "address": "de la Commune / Place Jacques-Cartier"}}, {"type": "Feature", "geometry": {"type": "Point", "coordinates": [-73.584352, 45.482843]}, "properties": {"bikes": 0, "stands": 23, "name": "Belair/St-Antoine", "status": "OPEN", "lon": -73.584352, "lat": 45.482843, "address": "Belair/St-Antoine"}}, {"type": "Feature", "geometry": {"type": "Point", "coordinates": [-73.5592, 45.50449]}, "properties": {"bikes": 0, "stands": 15, "name": "Saint-Antoine / Saint-Fran\u00e7ois-Xavier", "status": "OPEN", "lon": -73.5592, "lat": 45.50449, "address": "Saint-Antoine / Saint-Fran\u00e7ois-Xavier"}}, {"type": "Feature", "geometry": {"type": "Point", "coordinates": [-73.55976, 45.50623]}, "properties": {"bikes": 0, "stands": 0, "name": "M\u00e9tro Place-d'Armes (Viger/St-Urbain)", "status": "OPEN", "lon": -73.55976, "lat": 45.50623, "address": "M\u00e9tro Place-d'Armes (Viger/St-Urbain)"}}, {"type": "Feature", "geometry": {"type": "Point", "coordinates": [-73.582429, 45.559761]}, "properties": {"bikes": 0, "stands": 27, "name": "18e av/beaubien", "status": "OPEN", "lon": -73.582429, "lat": 45.559761, "address": "18e av/beaubien"}}, {"type": "Feature", "geometry": {"type": "Point", "coordinates": [-73.563112, 45.5079]}, "properties": {"bikes": 0, "stands": 39, "name": "Saint-Urbain / Ren\u00e9-L\u00e9vesque", "status": "OPEN", "lon": -73.563112, "lat": 45.5079, "address": "Saint-Urbain / Ren\u00e9-L\u00e9vesque"}}, {"type": "Feature", "geometry": {"type": "Point", "coordinates": [-73.5612, 45.504803]}, "properties": {"bikes": 0, "stands": 3, "name": "Viger/Jeanne Mance", "status": "OPEN", "lon": -73.5612, "lat": 45.504803, "address": "Viger/Jeanne Mance"}}, {"type": "Feature", "geometry": {"type": "Point", "coordinates": [-73.553606271744, 45.504068569843]}, "properties": {"bikes": 0, "stands": 43, "name": "de la Commune / Saint-Sulpice", "status": "OPEN", "lon": -73.553606271744, "lat": 45.504068569843, "address": "de la Commune / Saint-Sulpice"}}, {"type": "Feature", "geometry": {"type": "Point", "coordinates": [-73.555156588554, 45.501974378779]}, "properties": {"bikes": 0, "stands": 14, "name": "Saint-Nicolas / Place d'Youville", "status": "OPEN", "lon": -73.555156588554, "lat": 45.501974378779, "address": "Saint-Nicolas / Place d'Youville"}}, {"type": "Feature", "geometry": {"type": "Point", "coordinates": [-73.55566, 45.49975]}, "properties": {"bikes": 0, "stands": 23, "name": "McGill / d'Youville", "status": "OPEN", "lon": -73.55566, "lat": 45.49975, "address": "McGill / d'Youville"}}, {"type": "Feature", "geometry": {"type": "Point", "coordinates": [-73.558826, 45.500779]}, "properties": {"bikes": 0, "stands": 12, "name": "McGill / des R\u00e9collets", "status": "OPEN", "lon": -73.558826, "lat": 45.500779, "address": "McGill / des R\u00e9collets"}}, {"type": "Feature", "geometry": {"type": "Point", "coordinates": [-73.55917, 45.5028]}, "properties": {"bikes": 0, "stands": 22, "name": "Saint-Jacques / Saint-Pierre", "status": "OPEN", "lon": -73.55917, "lat": 45.5028, "address": "Saint-Jacques / Saint-Pierre"}}, {"type": "Feature", "geometry": {"type": "Point", "coordinates": [-73.561082, 45.500674]}, "properties": {"bikes": 0, "stands": 10, "name": "Saint-Jacques / Gauvin", "status": "OPEN", "lon": -73.561082, "lat": 45.500674, "address": "Saint-Jacques / Gauvin"}}, {"type": "Feature", "geometry": {"type": "Point", "coordinates": [-73.565354, 45.500675]}, "properties": {"bikes": 0, "stands": 3, "name": "de la Gaucheti\u00e8re / University", "status": "OPEN", "lon": -73.565354, "lat": 45.500675, "address": "de la Gaucheti\u00e8re / University"}}, {"type": "Feature", "geometry": {"type": "Point", "coordinates": [-73.56295, 45.50206]}, "properties": {"bikes": 0, "stands": 1, "name": "Square Victoria", "status": "OPEN", "lon": -73.56295, "lat": 45.50206, "address": "Square Victoria"}}, {"type": "Feature", "geometry": {"type": "Point", "coordinates": [-73.570209, 45.52169]}, "properties": {"bikes": 0, "stands": 15, "name": "Rue St-Andr\u00e9 / Roy", "status": "OPEN", "lon": -73.570209, "lat": 45.52169, "address": "Rue St-Andr\u00e9 / Roy"}}, {"type": "Feature", "geometry": {"type": "Point", "coordinates": [-73.56671, 45.49871]}, "properties": {"bikes": 0, "stands": 0, "name": "de la Gaucheti\u00e8re / Mansfield", "status": "OPEN", "lon": -73.56671, "lat": 45.49871, "address": "de la Gaucheti\u00e8re / Mansfield"}}, {"type": "Feature", "geometry": {"type": "Point", "coordinates": [-73.574707, 45.508231]}, "properties": {"bikes": 0, "stands": 31, "name": "Milton / Durocher", "status": "OPEN", "lon": -73.574707, "lat": 45.508231, "address": "Milton / Durocher"}}, {"type": "Feature", "geometry": {"type": "Point", "coordinates": [-73.55488, 45.4982]}, "properties": {"bikes": 0, "stands": 0, "name": "King / Wellington", "status": "OPEN", "lon": -73.55488, "lat": 45.4982, "address": "King / Wellington"}}, {"type": "Feature", "geometry": {"type": "Point", "coordinates": [-73.55232, 45.49886]}, "properties": {"bikes": 0, "stands": 0, "name": "de la Commune / McGill", "status": "OPEN", "lon": -73.55232, "lat": 45.49886, "address": "de la Commune / McGill"}}, {"type": "Feature", "geometry": {"type": "Point", "coordinates": [-73.601728, 45.529686]}, "properties": {"bikes": 0, "stands": 3, "name": "De Gasp\u00e9 / Marmier", "status": "OPEN", "lon": -73.601728, "lat": 45.529686, "address": "De Gasp\u00e9 / Marmier"}}, {"type": "Feature", "geometry": {"type": "Point", "coordinates": [-73.552802, 45.497438]}, "properties": {"bikes": 0, "stands": 39, "name": "De la Commune / King", "status": "OPEN", "lon": -73.552802, "lat": 45.497438, "address": "De la Commune / King"}}, {"type": "Feature", "geometry": {"type": "Point", "coordinates": [-73.565138, 45.502326]}, "properties": {"bikes": 0, "stands": 16, "name": "Belmont / Beaver Hall", "status": "OPEN", "lon": -73.565138, "lat": 45.502326, "address": "Belmont / Beaver Hall"}}, {"type": "Feature", "geometry": {"type": "Point", "coordinates": [-73.568646, 45.497697]}, "properties": {"bikes": 0, "stands": 0, "name": "Peel / ave des Canadiens de Montr\u00e9al", "status": "OPEN", "lon": -73.568646, "lat": 45.497697, "address": "Peel / ave des Canadiens de Montr\u00e9al"}}, {"type": "Feature", "geometry": {"type": "Point", "coordinates": [-73.571384, 45.497196]}, "properties": {"bikes": 0, "stands": 0, "name": "Drummond / Rene Levesque", "status": "OPEN", "lon": -73.571384, "lat": 45.497196, "address": "Drummond / Rene Levesque"}}, {"type": "Feature", "geometry": {"type": "Point", "coordinates": [-73.572156429291, 45.500684739422]}, "properties": {"bikes": 0, "stands": 31, "name": "Metcalfe / Sainte-Catherine", "status": "OPEN", "lon": -73.572156429291, "lat": 45.500684739422, "address": "Metcalfe / Sainte-Catherine"}}, {"type": "Feature", "geometry": {"type": "Point", "coordinates": [-73.56928, 45.50015]}, "properties": {"bikes": 0, "stands": 6, "name": "Mansfield / Ren\u00e9-L\u00e9vesque", "status": "OPEN", "lon": -73.56928, "lat": 45.50015, "address": "Mansfield / Ren\u00e9-L\u00e9vesque"}}, {"type": "Feature", "geometry": {"type": "Point", "coordinates": [-73.57128, 45.50176]}, "properties": {"bikes": 0, "stands": 0, "name": "Sainte-Catherine / McGill College", "status": "OPEN", "lon": -73.57128, "lat": 45.50176, "address": "Sainte-Catherine / McGill College"}}, {"type": "Feature", "geometry": {"type": "Point", "coordinates": [-73.57422709465, 45.498639303304]}, "properties": {"bikes": 0, "stands": 0, "name": "Drummond / Sainte-Catherine", "status": "OPEN", "lon": -73.57422709465, "lat": 45.498639303304, "address": "Drummond / Sainte-Catherine"}}, {"type": "Feature", "geometry": {"type": "Point", "coordinates": [-73.57591, 45.49947]}, "properties": {"bikes": 0, "stands": 0, "name": "Drummond / de Maisonneuve", "status": "OPEN", "lon": -73.57591, "lat": 45.49947, "address": "Drummond / de Maisonneuve"}}, {"type": "Feature", "geometry": {"type": "Point", "coordinates": [-73.57507, 45.50038]}, "properties": {"bikes": 0, "stands": 41, "name": "de Maisonneuve / Stanley", "status": "OPEN", "lon": -73.57507, "lat": 45.50038, "address": "de Maisonneuve / Stanley"}}, {"type": "Feature", "geometry": {"type": "Point", "coordinates": [-73.57869, 45.499532]}, "properties": {"bikes": 0, "stands": 18, "name": "de la montagne / Sherbrooke", "status": "OPEN", "lon": -73.57869, "lat": 45.499532, "address": "de la montagne / Sherbrooke"}}, {"type": "Feature", "geometry": {"type": "Point", "coordinates": [-73.572103, 45.503475]}, "properties": {"bikes": 0, "stands": 23, "name": "de Maisonneuve / University", "status": "OPEN", "lon": -73.572103, "lat": 45.503475, "address": "de Maisonneuve / University"}}, {"type": "Feature", "geometry": {"type": "Point", "coordinates": [-73.57505, 45.50297]}, "properties": {"bikes": 0, "stands": 12, "name": "Mansfield / Sherbrooke", "status": "OPEN", "lon": -73.57505, "lat": 45.50297, "address": "Mansfield / Sherbrooke"}}, {"type": "Feature", "geometry": {"type": "Point", "coordinates": [-73.57622, 45.50624]}, "properties": {"bikes": 0, "stands": 0, "name": "University / Milton", "status": "OPEN", "lon": -73.57622, "lat": 45.50624, "address": "University / Milton"}}, {"type": "Feature", "geometry": {"type": "Point", "coordinates": [-73.57069, 45.50501]}, "properties": {"bikes": 0, "stands": 0, "name": "de Maisonneuve / Aylmer", "status": "OPEN", "lon": -73.57069, "lat": 45.50501, "address": "de Maisonneuve / Aylmer"}}, {"type": "Feature", "geometry": {"type": "Point", "coordinates": [-73.530067, 45.556225]}, "properties": {"bikes": 0, "stands": 18, "name": "St-Cl\u00e9ment/Ste-Catherine", "status": "OPEN", "lon": -73.530067, "lat": 45.556225, "address": "St-Cl\u00e9ment/Ste-Catherine"}}, {"type": "Feature", "geometry": {"type": "Point", "coordinates": [-73.56917, 45.50708]}, "properties": {"bikes": 0, "stands": 68, "name": "de Maisonneuve / de Bleury", "status": "OPEN", "lon": -73.56917, "lat": 45.50708, "address": "de Maisonneuve / de Bleury"}}, {"type": "Feature", "geometry": {"type": "Point", "coordinates": [-73.57417345047, 45.494499323782]}, "properties": {"bikes": 0, "stands": 3, "name": "Mackay / Ren\u00e9-L\u00e9vesque", "status": "OPEN", "lon": -73.57417345047, "lat": 45.494499323782, "address": "Mackay / Ren\u00e9-L\u00e9vesque"}}, {"type": "Feature", "geometry": {"type": "Point", "coordinates": [-73.5676195, 45.50537693]}, "properties": {"bikes": 0, "stands": 33, "name": "  Saint-Alexandre / Sainte-Catherine", "status": "OPEN", "lon": -73.5676195, "lat": 45.50537693, "address": "  Saint-Alexandre / Sainte-Catherine"}}, {"type": "Feature", "geometry": {"type": "Point", "coordinates": [-73.582883, 45.550613]}, "properties": {"bikes": 0, "stands": 13, "name": "6e avenue/Rosemont", "status": "OPEN", "lon": -73.582883, "lat": 45.550613, "address": "6e avenue/Rosemont"}}, {"type": "Feature", "geometry": {"type": "Point", "coordinates": [-73.5686929, 45.5041581]}, "properties": {"bikes": 0, "stands": 31, "name": "Square Phillips", "status": "OPEN", "lon": -73.5686929, "lat": 45.5041581, "address": "Square Phillips"}}, {"type": "Feature", "geometry": {"type": "Point", "coordinates": [-73.582445, 45.489609]}, "properties": {"bikes": 0, "stands": 19, "name": "Lambert-Closse / Tupper", "status": "OPEN", "lon": -73.582445, "lat": 45.489609, "address": "Lambert-Closse / Tupper"}}, {"type": "Feature", "geometry": {"type": "Point", "coordinates": [-73.56328, 45.4952]}, "properties": {"bikes": 0, "stands": 38, "name": "Notre-Dame / Peel", "status": "OPEN", "lon": -73.56328, "lat": 45.4952, "address": "Notre-Dame / Peel"}}, {"type": "Feature", "geometry": {"type": "Point", "coordinates": [-73.57015, 45.49138]}, "properties": {"bikes": 0, "stands": 15, "name": "Saint-Jacques / Guy", "status": "OPEN", "lon": -73.57015, "lat": 45.49138, "address": "Saint-Jacques / Guy"}}, {"type": "Feature", "geometry": {"type": "Point", "coordinates": [-73.57108, 45.49486]}, "properties": {"bikes": 0, "stands": 17, "name": "M\u00e9tro Lucien-L'Allier  (Lucien l'Allier/Argyle)", "status": "OPEN", "lon": -73.57108, "lat": 45.49486, "address": "M\u00e9tro Lucien-L'Allier  (Lucien l'Allier/Argyle)"}}, {"type": "Feature", "geometry": {"type": "Point", "coordinates": [-73.576453, 45.492147]}, "properties": {"bikes": 0, "stands": 0, "name": "Joseph Manceau / Ren\u00e9-L\u00e9vesque", "status": "OPEN", "lon": -73.576453, "lat": 45.492147, "address": "Joseph Manceau / Ren\u00e9-L\u00e9vesque"}}, {"type": "Feature", "geometry": {"type": "Point", "coordinates": [-73.57348, 45.49606]}, "properties": {"bikes": 0, "stands": 0, "name": "Crescent / Ren\u00e9-L\u00e9vesque", "status": "OPEN", "lon": -73.57348, "lat": 45.49606, "address": "Crescent / Ren\u00e9-L\u00e9vesque"}}, {"type": "Feature", "geometry": {"type": "Point", "coordinates": [-73.603522, 45.535431]}, "properties": {"bikes": 0, "stands": 27, "name": "Chateaubriand / Beaubien", "status": "OPEN", "lon": -73.603522, "lat": 45.535431, "address": "Chateaubriand / Beaubien"}}, {"type": "Feature", "geometry": {"type": "Point", "coordinates": [-73.585962, 45.489904]}, "properties": {"bikes": 0, "stands": 15, "name": "M\u00e9tro Atwater (Atwater / Maisonneuve)", "status": "OPEN", "lon": -73.585962, "lat": 45.489904, "address": "M\u00e9tro Atwater (Atwater / Maisonneuve)"}}, {"type": "Feature", "geometry": {"type": "Point", "coordinates": [-73.5838, 45.49156]}, "properties": {"bikes": 0, "stands": 19, "name": "Chomedey / de Maisonneuve", "status": "OPEN", "lon": -73.5838, "lat": 45.49156, "address": "Chomedey / de Maisonneuve"}}, {"type": "Feature", "geometry": {"type": "Point", "coordinates": [-73.5684255, 45.49352163]}, "properties": {"bikes": 0, "stands": 16, "name": "Lucien L'Allier / St-Jacques", "status": "OPEN", "lon": -73.5684255, "lat": 45.49352163, "address": "Lucien L'Allier / St-Jacques"}}, {"type": "Feature", "geometry": {"type": "Point", "coordinates": [-73.581088, 45.492504]}, "properties": {"bikes": 0, "stands": 25, "name": "Towers/ Ste-Catherine", "status": "OPEN", "lon": -73.581088, "lat": 45.492504, "address": "Towers/ Ste-Catherine"}}, {"type": "Feature", "geometry": {"type": "Point", "coordinates": [-73.57616, 45.49642]}, "properties": {"bikes": 0, "stands": 27, "name": "Bishop / Sainte-Catherine", "status": "OPEN", "lon": -73.57616, "lat": 45.49642, "address": "Bishop / Sainte-Catherine"}}, {"type": "Feature", "geometry": {"type": "Point", "coordinates": [-73.57791245, 45.49742103]}, "properties": {"bikes": 0, "stands": 0, "name": "Bishop / de Maisonneuve", "status": "OPEN", "lon": -73.57791245, "lat": 45.49742103, "address": "Bishop / de Maisonneuve"}}, {"type": "Feature", "geometry": {"type": "Point", "coordinates": [-73.57851, 45.49659]}, "properties": {"bikes": 0, "stands": 34, "name": "de Maisonneuve / Mackay", "status": "OPEN", "lon": -73.57851, "lat": 45.49659, "address": "de Maisonneuve / Mackay"}}, {"type": "Feature", "geometry": {"type": "Point", "coordinates": [-73.61979, 45.479483]}, "properties": {"bikes": 0, "stands": 11, "name": "Metro Villa Maria (D\u00e9carie / Monkland)", "status": "OPEN", "lon": -73.61979, "lat": 45.479483, "address": "Metro Villa Maria (D\u00e9carie / Monkland)"}}, {"type": "Feature", "geometry": {"type": "Point", "coordinates": [-73.583836, 45.493034]}, "properties": {"bikes": 0, "stands": 15, "name": "Lincoln / Dufort", "status": "OPEN", "lon": -73.583836, "lat": 45.493034, "address": "Lincoln / Dufort"}}, {"type": "Feature", "geometry": {"type": "Point", "coordinates": [-73.552496, 45.538799]}, "properties": {"bikes": 0, "stands": 19, "name": "Lesp\u00e9rance/Rouen", "status": "OPEN", "lon": -73.552496, "lat": 45.538799, "address": "Lesp\u00e9rance/Rouen"}}, {"type": "Feature", "geometry": {"type": "Point", "coordinates": [-73.554174900055, 45.516872646827]}, "properties": {"bikes": 0, "stands": 12, "name": "Wolfe / Ren\u00e9-L\u00e9vesque", "status": "OPEN", "lon": -73.554174900055, "lat": 45.516872646827, "address": "Wolfe / Ren\u00e9-L\u00e9vesque"}}, {"type": "Feature", "geometry": {"type": "Point", "coordinates": [-73.552, 45.51954]}, "properties": {"bikes": 0, "stands": 19, "name": "Plessis / Ren\u00e9-L\u00e9vesque", "status": "OPEN", "lon": -73.552, "lat": 45.51954, "address": "Plessis / Ren\u00e9-L\u00e9vesque"}}, {"type": "Feature", "geometry": {"type": "Point", "coordinates": [-73.54926, 45.52114]}, "properties": {"bikes": 0, "stands": 4, "name": "Ren\u00e9-L\u00e9vesque / Papineau", "status": "OPEN", "lon": -73.54926, "lat": 45.52114, "address": "Ren\u00e9-L\u00e9vesque / Papineau"}}, {"type": "Feature", "geometry": {"type": "Point", "coordinates": [-73.579186, 45.493718]}, "properties": {"bikes": 0, "stands": 21, "name": "St-Mathieu /Ste-Catherine ", "status": "OPEN", "lon": -73.579186, "lat": 45.493718, "address": "St-Mathieu /Ste-Catherine "}}, {"type": "Feature", "geometry": {"type": "Point", "coordinates": [-73.55108499527, 45.528448693514]}, "properties": {"bikes": 0, "stands": 19, "name": "Logan / Fullum", "status": "OPEN", "lon": -73.55108499527, "lat": 45.528448693514, "address": "Logan / Fullum"}}, {"type": "Feature", "geometry": {"type": "Point", "coordinates": [-73.52186, 45.498293]}, "properties": {"bikes": 0, "stands": 15, "name": "Plage du parc Jean-Drapeau", "status": "OPEN", "lon": -73.52186, "lat": 45.498293, "address": "Plage du parc Jean-Drapeau"}}, {"type": "Feature", "geometry": {"type": "Point", "coordinates": [-73.54641, 45.529033]}, "properties": {"bikes": 0, "stands": 14, "name": "Poupart / Sainte-Catherine", "status": "OPEN", "lon": -73.54641, "lat": 45.529033, "address": "Poupart / Sainte-Catherine"}}, {"type": "Feature", "geometry": {"type": "Point", "coordinates": [-73.54933, 45.52622]}, "properties": {"bikes": 0, "stands": 18, "name": "Parthenais / Sainte-Catherine", "status": "OPEN", "lon": -73.54933, "lat": 45.52622, "address": "Parthenais / Sainte-Catherine"}}, {"type": "Feature", "geometry": {"type": "Point", "coordinates": [-73.55786, 45.519157]}, "properties": {"bikes": 0, "stands": 19, "name": "Montcalm/Maisonneuve", "status": "OPEN", "lon": -73.55786, "lat": 45.519157, "address": "Montcalm/Maisonneuve"}}, {"type": "Feature", "geometry": {"type": "Point", "coordinates": [-73.55534, 45.5219]}, "properties": {"bikes": 0, "stands": 19, "name": "Alexandre-DeS\u00e8ve / Maisonneuve", "status": "OPEN", "lon": -73.55534, "lat": 45.5219, "address": "Alexandre-DeS\u00e8ve / Maisonneuve"}}, {"type": "Feature", "geometry": {"type": "Point", "coordinates": [-73.55199, 45.52353]}, "properties": {"bikes": 0, "stands": 24, "name": "M\u00e9tro Papineau (Cartier / Ste-Catherine)", "status": "OPEN", "lon": -73.55199, "lat": 45.52353, "address": "M\u00e9tro Papineau (Cartier / Ste-Catherine)"}}, {"type": "Feature", "geometry": {"type": "Point", "coordinates": [-73.631664, 45.466965]}, "properties": {"bikes": 0, "stands": 15, "name": "Benny/ Monkland", "status": "OPEN", "lon": -73.631664, "lat": 45.466965, "address": "Benny/ Monkland"}}, {"type": "Feature", "geometry": {"type": "Point", "coordinates": [-73.560941, 45.523584]}, "properties": {"bikes": 0, "stands": 19, "name": "Plessis / Ontario", "status": "OPEN", "lon": -73.560941, "lat": 45.523584, "address": "Plessis / Ontario"}}, {"type": "Feature", "geometry": {"type": "Point", "coordinates": [-73.55922, 45.52087]}, "properties": {"bikes": 0, "stands": 15, "name": "Robin / de la Visitation", "status": "OPEN", "lon": -73.55922, "lat": 45.52087, "address": "Robin / de la Visitation"}}, {"type": "Feature", "geometry": {"type": "Point", "coordinates": [-73.560035526752, 45.5250475373]}, "properties": {"bikes": 0, "stands": 19, "name": "Champlain / Ontario", "status": "OPEN", "lon": -73.560035526752, "lat": 45.5250475373, "address": "Champlain / Ontario"}}, {"type": "Feature", "geometry": {"type": "Point", "coordinates": [-73.558021, 45.52697]}, "properties": {"bikes": 0, "stands": 23, "name": "Dorion / Ontario", "status": "OPEN", "lon": -73.558021, "lat": 45.52697, "address": "Dorion / Ontario"}}, {"type": "Feature", "geometry": {"type": "Point", "coordinates": [-73.5521968, 45.5336609]}, "properties": {"bikes": 0, "stands": 0, "name": "Ontario/Du Havre", "status": "OPEN", "lon": -73.5521968, "lat": 45.5336609, "address": "Ontario/Du Havre"}}, {"type": "Feature", "geometry": {"type": "Point", "coordinates": [-73.5553577, 45.53480699]}, "properties": {"bikes": 0, "stands": 23, "name": "Du havre/Rouen", "status": "OPEN", "lon": -73.5553577, "lat": 45.53480699, "address": "Du havre/Rouen"}}, {"type": "Feature", "geometry": {"type": "Point", "coordinates": [-73.54913, 45.53057]}, "properties": {"bikes": 0, "stands": 13, "name": "Logan / d'Iberville", "status": "OPEN", "lon": -73.54913, "lat": 45.53057, "address": "Logan / d'Iberville"}}, {"type": "Feature", "geometry": {"type": "Point", "coordinates": [-73.558187, 45.523217]}, "properties": {"bikes": 0, "stands": 14, "name": "Alexandre de S\u00e8ve / La Fontaine", "status": "OPEN", "lon": -73.558187, "lat": 45.523217, "address": "Alexandre de S\u00e8ve / La Fontaine"}}, {"type": "Feature", "geometry": {"type": "Point", "coordinates": [-73.553478, 45.531834]}, "properties": {"bikes": 0, "stands": 23, "name": "Poupart/Ontario", "status": "OPEN", "lon": -73.553478, "lat": 45.531834, "address": "Poupart/Ontario"}}, {"type": "Feature", "geometry": {"type": "Point", "coordinates": [-73.629298, 45.499757]}, "properties": {"bikes": 0, "stands": 13, "name": "Ellendale/C\u00f4te-Des-Neiges", "status": "OPEN", "lon": -73.629298, "lat": 45.499757, "address": "Ellendale/C\u00f4te-Des-Neiges"}}, {"type": "Feature", "geometry": {"type": "Point", "coordinates": [-73.55859, 45.53217]}, "properties": {"bikes": 0, "stands": 0, "name": "Rouen / Fullum", "status": "OPEN", "lon": -73.55859, "lat": 45.53217, "address": "Rouen / Fullum"}}, {"type": "Feature", "geometry": {"type": "Point", "coordinates": [-73.618323, 45.537877]}, "properties": {"bikes": 0, "stands": 11, "name": "Henri Julien/Castelneau", "status": "OPEN", "lon": -73.618323, "lat": 45.537877, "address": "Henri Julien/Castelneau"}}, {"type": "Feature", "geometry": {"type": "Point", "coordinates": [-73.5502642, 45.53643778]}, "properties": {"bikes": 0, "stands": 0, "name": "Wurtele / Ontario", "status": "OPEN", "lon": -73.5502642, "lat": 45.53643778, "address": "Wurtele / Ontario"}}, {"type": "Feature", "geometry": {"type": "Point", "coordinates": [-73.56081, 45.5367]}, "properties": {"bikes": 0, "stands": 15, "name": "Sherbrooke / Frontenac", "status": "OPEN", "lon": -73.56081, "lat": 45.5367, "address": "Sherbrooke / Frontenac"}}, {"type": "Feature", "geometry": {"type": "Point", "coordinates": [-73.562425, 45.533924]}, "properties": {"bikes": 0, "stands": 35, "name": "Fullum / Sherbrooke ", "status": "OPEN", "lon": -73.562425, "lat": 45.533924, "address": "Fullum / Sherbrooke "}}, {"type": "Feature", "geometry": {"type": "Point", "coordinates": [-73.566014, 45.535614]}, "properties": {"bikes": 0, "stands": 19, "name": "Terasse Mercure / Fulum", "status": "OPEN", "lon": -73.566014, "lat": 45.535614, "address": "Terasse Mercure / Fulum"}}, {"type": "Feature", "geometry": {"type": "Point", "coordinates": [-73.563176393509, 45.530027060788]}, "properties": {"bikes": 0, "stands": 15, "name": "de Bordeaux / Sherbrooke", "status": "OPEN", "lon": -73.563176393509, "lat": 45.530027060788, "address": "de Bordeaux / Sherbrooke"}}, {"type": "Feature", "geometry": {"type": "Point", "coordinates": [-73.570654, 45.510016]}, "properties": {"bikes": 0, "stands": 23, "name": "Sainte-Famille / Sherbrooke", "status": "OPEN", "lon": -73.570654, "lat": 45.510016, "address": "Sainte-Famille / Sherbrooke"}}, {"type": "Feature", "geometry": {"type": "Point", "coordinates": [-73.57845, 45.50733]}, "properties": {"bikes": 0, "stands": 39, "name": "University / Prince-Arthur", "status": "OPEN", "lon": -73.57845, "lat": 45.50733, "address": "University / Prince-Arthur"}}, {"type": "Feature", "geometry": {"type": "Point", "coordinates": [-73.576105, 45.509864]}, "properties": {"bikes": 0, "stands": 0, "name": "Hutchison/ Prince Arthur", "status": "OPEN", "lon": -73.576105, "lat": 45.509864, "address": "Hutchison/ Prince Arthur"}}, {"type": "Feature", "geometry": {"type": "Point", "coordinates": [-73.565258, 45.541532]}, "properties": {"bikes": 0, "stands": 18, "name": "Molson / William - Tremblay", "status": "OPEN", "lon": -73.565258, "lat": 45.541532, "address": "Molson / William - Tremblay"}}, {"type": "Feature", "geometry": {"type": "Point", "coordinates": [-73.587809801102, 45.491321748861]}, "properties": {"bikes": 0, "stands": 22, "name": "Atwater / Sherbrooke", "status": "OPEN", "lon": -73.587809801102, "lat": 45.491321748861, "address": "Atwater / Sherbrooke"}}, {"type": "Feature", "geometry": {"type": "Point", "coordinates": [-73.605834, 45.533348]}, "properties": {"bikes": 0, "stands": 19, "name": "Drolet / Beaubien", "status": "OPEN", "lon": -73.605834, "lat": 45.533348, "address": "Drolet / Beaubien"}}, {"type": "Feature", "geometry": {"type": "Point", "coordinates": [-73.607339, 45.53136864]}, "properties": {"bikes": 0, "stands": 19, "name": "Casgrain/ Beaubien", "status": "OPEN", "lon": -73.607339, "lat": 45.53136864, "address": "Casgrain/ Beaubien"}}, {"type": "Feature", "geometry": {"type": "Point", "coordinates": [-73.571564, 45.544513]}, "properties": {"bikes": 0, "stands": 19, "name": "Parc du P\u00e9lican (2e ave/St-Joseph)", "status": "OPEN", "lon": -73.571564, "lat": 45.544513, "address": "Parc du P\u00e9lican (2e ave/St-Joseph)"}}, {"type": "Feature", "geometry": {"type": "Point", "coordinates": [-73.57711, 45.550769]}, "properties": {"bikes": 0, "stands": 11, "name": "9e Avenue / Dandurand", "status": "OPEN", "lon": -73.57711, "lat": 45.550769, "address": "9e Avenue / Dandurand"}}, {"type": "Feature", "geometry": {"type": "Point", "coordinates": [-73.60760986805, 45.547356123152]}, "properties": {"bikes": 0, "stands": 19, "name": "Marquette / Jean-Talon", "status": "OPEN", "lon": -73.60760986805, "lat": 45.547356123152, "address": "Marquette / Jean-Talon"}}, {"type": "Feature", "geometry": {"type": "Point", "coordinates": [-73.603001832962, 45.552442609135]}, "properties": {"bikes": 0, "stands": 19, "name": "des \u00c9cores / Jean-Talon", "status": "OPEN", "lon": -73.603001832962, "lat": 45.552442609135, "address": "des \u00c9cores / Jean-Talon"}}, {"type": "Feature", "geometry": {"type": "Point", "coordinates": [-73.571226, 45.504844]}, "properties": {"bikes": 0, "stands": 31, "name": "Union/Maisonneuve", "status": "OPEN", "lon": -73.571226, "lat": 45.504844, "address": "Union/Maisonneuve"}}, {"type": "Feature", "geometry": {"type": "Point", "coordinates": [-73.580498, 45.508356]}, "properties": {"bikes": 0, "stands": 0, "name": "University / des Pins", "status": "OPEN", "lon": -73.580498, "lat": 45.508356, "address": "University / des Pins"}}, {"type": "Feature", "geometry": {"type": "Point", "coordinates": [-73.562643, 45.537964]}, "properties": {"bikes": 0, "stands": 19, "name": "Gascon/Rachel", "status": "OPEN", "lon": -73.562643, "lat": 45.537964, "address": "Gascon/Rachel"}}, {"type": "Feature", "geometry": {"type": "Point", "coordinates": [-73.559410572052, 45.529155206246]}, "properties": {"bikes": 0, "stands": 23, "name": "Larivi\u00e8re / de Lorimier", "status": "OPEN", "lon": -73.559410572052, "lat": 45.529155206246, "address": "Larivi\u00e8re / de Lorimier"}}, {"type": "Feature", "geometry": {"type": "Point", "coordinates": [-73.5891147, 45.52761627]}, "properties": {"bikes": 0, "stands": 15, "name": "M\u00e9tro Laurier (Rivard/Laurier)", "status": "OPEN", "lon": -73.5891147, "lat": 45.52761627, "address": "M\u00e9tro Laurier (Rivard/Laurier)"}}, {"type": "Feature", "geometry": {"type": "Point", "coordinates": [-73.56663, 45.530202]}, "properties": {"bikes": 0, "stands": 0, "name": "Gauthier / Papineau", "status": "OPEN", "lon": -73.56663, "lat": 45.530202, "address": "Gauthier / Papineau"}}, {"type": "Feature", "geometry": {"type": "Point", "coordinates": [-73.565317, 45.531818]}, "properties": {"bikes": 0, "stands": 11, "name": "Gauthier / De Lorimier", "status": "OPEN", "lon": -73.565317, "lat": 45.531818, "address": "Gauthier / De Lorimier"}}, {"type": "Feature", "geometry": {"type": "Point", "coordinates": [-73.56437, 45.53237]}, "properties": {"bikes": 0, "stands": 11, "name": "Gauthier / des \u00c9rables", "status": "OPEN", "lon": -73.56437, "lat": 45.53237, "address": "Gauthier / des \u00c9rables"}}, {"type": "Feature", "geometry": {"type": "Point", "coordinates": [-73.570289611816, 45.529801582461]}, "properties": {"bikes": 0, "stands": 15, "name": "Marquette / Rachel", "status": "OPEN", "lon": -73.570289611816, "lat": 45.529801582461, "address": "Marquette / Rachel"}}, {"type": "Feature", "geometry": {"type": "Point", "coordinates": [-73.56828, 45.53227]}, "properties": {"bikes": 0, "stands": 27, "name": "de Bordeaux / Rachel", "status": "OPEN", "lon": -73.56828, "lat": 45.53227, "address": "de Bordeaux / Rachel"}}, {"type": "Feature", "geometry": {"type": "Point", "coordinates": [-73.572056, 45.527791]}, "properties": {"bikes": 0, "stands": 31, "name": "Calixa Laval\u00e9e / Rachel", "status": "OPEN", "lon": -73.572056, "lat": 45.527791, "address": "Calixa Laval\u00e9e / Rachel"}}, {"type": "Feature", "geometry": {"type": "Point", "coordinates": [-73.57264, 45.52689]}, "properties": {"bikes": 0, "stands": 14, "name": "Rachel / Br\u00e9beuf", "status": "OPEN", "lon": -73.57264, "lat": 45.52689, "address": "Rachel / Br\u00e9beuf"}}, {"type": "Feature", "geometry": {"type": "Point", "coordinates": [-73.57221, 45.52469]}, "properties": {"bikes": 0, "stands": 19, "name": "du Parc-La Fontaine / Duluth", "status": "OPEN", "lon": -73.57221, "lat": 45.52469, "address": "du Parc-La Fontaine / Duluth"}}, {"type": "Feature", "geometry": {"type": "Point", "coordinates": [-73.568731, 45.523084]}, "properties": {"bikes": 0, "stands": 19, "name": "du Parc-La Fontaine / Roy", "status": "OPEN", "lon": -73.568731, "lat": 45.523084, "address": "du Parc-La Fontaine / Roy"}}, {"type": "Feature", "geometry": {"type": "Point", "coordinates": [-73.56545, 45.52479]}, "properties": {"bikes": 0, "stands": 27, "name": "Calixa-Lavall\u00e9e / Sherbrooke", "status": "OPEN", "lon": -73.56545, "lat": 45.52479, "address": "Calixa-Lavall\u00e9e / Sherbrooke"}}, {"type": "Feature", "geometry": {"type": "Point", "coordinates": [-73.56463, 45.52729]}, "properties": {"bikes": 0, "stands": 31, "name": "\u00c9mile-Duploy\u00e9 / Sherbrooke", "status": "OPEN", "lon": -73.56463, "lat": 45.52729, "address": "\u00c9mile-Duploy\u00e9 / Sherbrooke"}}, {"type": "Feature", "geometry": {"type": "Point", "coordinates": [-73.56936, 45.53867]}, "properties": {"bikes": 0, "stands": 27, "name": "Chapleau / Mont-Royal", "status": "OPEN", "lon": -73.56936, "lat": 45.53867, "address": "Chapleau / Mont-Royal"}}, {"type": "Feature", "geometry": {"type": "Point", "coordinates": [-73.5710031, 45.53711414]}, "properties": {"bikes": 0, "stands": 17, "name": "Messier/Mont-Royal", "status": "OPEN", "lon": -73.5710031, "lat": 45.53711414, "address": "Messier/Mont-Royal"}}, {"type": "Feature", "geometry": {"type": "Point", "coordinates": [-73.57172, 45.53565]}, "properties": {"bikes": 0, "stands": 19, "name": "des \u00c9rables / Mont-Royal", "status": "OPEN", "lon": -73.57172, "lat": 45.53565, "address": "des \u00c9rables / Mont-Royal"}}, {"type": "Feature", "geometry": {"type": "Point", "coordinates": [-73.57349216938, 45.534134366108]}, "properties": {"bikes": 0, "stands": 1, "name": "Chabot / Mont-Royal", "status": "OPEN", "lon": -73.57349216938, "lat": 45.534134366108, "address": "Chabot / Mont-Royal"}}, {"type": "Feature", "geometry": {"type": "Point", "coordinates": [-73.571776, 45.532674]}, "properties": {"bikes": 0, "stands": 0, "name": "Cartier/Marie-Anne", "status": "OPEN", "lon": -73.571776, "lat": 45.532674, "address": "Cartier/Marie-Anne"}}, {"type": "Feature", "geometry": {"type": "Point", "coordinates": [-73.57544, 45.53229]}, "properties": {"bikes": 0, "stands": 19, "name": "Marquette / Mont-Royal", "status": "OPEN", "lon": -73.57544, "lat": 45.53229, "address": "Marquette / Mont-Royal"}}, {"type": "Feature", "geometry": {"type": "Point", "coordinates": [-73.57674, 45.53092]}, "properties": {"bikes": 0, "stands": 27, "name": "Garnier / Mont-Royal", "status": "OPEN", "lon": -73.57674, "lat": 45.53092, "address": "Garnier / Mont-Royal"}}, {"type": "Feature", "geometry": {"type": "Point", "coordinates": [-73.576249480247, 45.527738413791]}, "properties": {"bikes": 0, "stands": 19, "name": "Marie-Anne / de la Roche", "status": "OPEN", "lon": -73.576249480247, "lat": 45.527738413791, "address": "Marie-Anne / de la Roche"}}, {"type": "Feature", "geometry": {"type": "Point", "coordinates": [-73.57828, 45.52856]}, "properties": {"bikes": 0, "stands": 22, "name": "de la Roche / Mont-Royal", "status": "OPEN", "lon": -73.57828, "lat": 45.52856, "address": "de la Roche / Mont-Royal"}}, {"type": "Feature", "geometry": {"type": "Point", "coordinates": [-73.58153, 45.53073]}, "properties": {"bikes": 0, "stands": 19, "name": "Gilford / Br\u00e9beuf", "status": "OPEN", "lon": -73.58153, "lat": 45.53073, "address": "Gilford / Br\u00e9beuf"}}, {"type": "Feature", "geometry": {"type": "Point", "coordinates": [-73.58118, 45.53297]}, "properties": {"bikes": 0, "stands": 23, "name": "Garnier / Saint-Joseph", "status": "OPEN", "lon": -73.58118, "lat": 45.53297, "address": "Garnier / Saint-Joseph"}}, {"type": "Feature", "geometry": {"type": "Point", "coordinates": [-73.57867, 45.53576]}, "properties": {"bikes": 0, "stands": 18, "name": "Cartier / Saint-Joseph", "status": "OPEN", "lon": -73.57867, "lat": 45.53576, "address": "Cartier / Saint-Joseph"}}, {"type": "Feature", "geometry": {"type": "Point", "coordinates": [-73.575158, 45.54003]}, "properties": {"bikes": 0, "stands": 15, "name": "Fullum / Saint-Joseph", "status": "OPEN", "lon": -73.575158, "lat": 45.54003, "address": "Fullum / Saint-Joseph"}}, {"type": "Feature", "geometry": {"type": "Point", "coordinates": [-73.5822, 45.53543]}, "properties": {"bikes": 0, "stands": 23, "name": "Marquette / Laurier", "status": "OPEN", "lon": -73.5822, "lat": 45.53543, "address": "Marquette / Laurier"}}, {"type": "Feature", "geometry": {"type": "Point", "coordinates": [-73.583717, 45.533381]}, "properties": {"bikes": 0, "stands": 19, "name": "Lanaudi\u00e8re / Laurier", "status": "OPEN", "lon": -73.583717, "lat": 45.533381, "address": "Lanaudi\u00e8re / Laurier"}}, {"type": "Feature", "geometry": {"type": "Point", "coordinates": [-73.58507, 45.53248]}, "properties": {"bikes": 0, "stands": 35, "name": "Br\u00e9beuf / Laurier", "status": "OPEN", "lon": -73.58507, "lat": 45.53248, "address": "Br\u00e9beuf / Laurier"}}, {"type": "Feature", "geometry": {"type": "Point", "coordinates": [-73.58852, 45.5341]}, "properties": {"bikes": 0, "stands": 26, "name": "Br\u00e9beuf / Saint-Gr\u00e9goire", "status": "OPEN", "lon": -73.58852, "lat": 45.5341, "address": "Br\u00e9beuf / Saint-Gr\u00e9goire"}}, {"type": "Feature", "geometry": {"type": "Point", "coordinates": [-73.58584, 45.53703]}, "properties": {"bikes": 0, "stands": 11, "name": "Marquette / Saint-Gr\u00e9goire", "status": "OPEN", "lon": -73.58584, "lat": 45.53703, "address": "Marquette / Saint-Gr\u00e9goire"}}, {"type": "Feature", "geometry": {"type": "Point", "coordinates": [-73.5571602, 45.50938453]}, "properties": {"bikes": 0, "stands": 23, "name": "Hotel de ville/Viger", "status": "OPEN", "lon": -73.5571602, "lat": 45.50938453, "address": "Hotel de ville/Viger"}}, {"type": "Feature", "geometry": {"type": "Point", "coordinates": [-73.587479, 45.529511]}, "properties": {"bikes": 0, "stands": 15, "name": "St-Andr\u00e9/Laurier", "status": "OPEN", "lon": -73.587479, "lat": 45.529511, "address": "St-Andr\u00e9/Laurier"}}, {"type": "Feature", "geometry": {"type": "Point", "coordinates": [-73.58677, 45.530046]}, "properties": {"bikes": 0, "stands": 19, "name": "de Mentana / Laurier", "status": "OPEN", "lon": -73.58677, "lat": 45.530046, "address": "de Mentana / Laurier"}}, {"type": "Feature", "geometry": {"type": "Point", "coordinates": [-73.560269, 45.5195]}, "properties": {"bikes": 0, "stands": 27, "name": "Wolfe/Robin", "status": "OPEN", "lon": -73.560269, "lat": 45.5195, "address": "Wolfe/Robin"}}, {"type": "Feature", "geometry": {"type": "Point", "coordinates": [-73.5692414, 45.5191458]}, "properties": {"bikes": 0, "stands": 35, "name": "Cherrier / Berri", "status": "OPEN", "lon": -73.5692414, "lat": 45.5191458, "address": "Cherrier / Berri"}}, {"type": "Feature", "geometry": {"type": "Point", "coordinates": [-73.5727, 45.51908]}, "properties": {"bikes": 0, "stands": 22, "name": "Roy / Saint-Denis", "status": "OPEN", "lon": -73.5727, "lat": 45.51908, "address": "Roy / Saint-Denis"}}, {"type": "Feature", "geometry": {"type": "Point", "coordinates": [-73.567733, 45.520578]}, "properties": {"bikes": 0, "stands": 22, "name": "St-Andr\u00e9/Cherrier", "status": "OPEN", "lon": -73.567733, "lat": 45.520578, "address": "St-Andr\u00e9/Cherrier"}}, {"type": "Feature", "geometry": {"type": "Point", "coordinates": [-73.573431, 45.523171]}, "properties": {"bikes": 0, "stands": 19, "name": "St-Andr\u00e9 / Duluth", "status": "OPEN", "lon": -73.573431, "lat": 45.523171, "address": "St-Andr\u00e9 / Duluth"}}, {"type": "Feature", "geometry": {"type": "Point", "coordinates": [-73.575771, 45.524222]}, "properties": {"bikes": 0, "stands": 0, "name": "Saint-Andr\u00e9 / Rachel", "status": "OPEN", "lon": -73.575771, "lat": 45.524222, "address": "Saint-Andr\u00e9 / Rachel"}}, {"type": "Feature", "geometry": {"type": "Point", "coordinates": [-73.5775906, 45.5222776]}, "properties": {"bikes": 0, "stands": 18, "name": "Rivard /Rachel", "status": "OPEN", "lon": -73.5775906, "lat": 45.5222776, "address": "Rivard /Rachel"}}, {"type": "Feature", "geometry": {"type": "Point", "coordinates": [-73.575871, 45.520655]}, "properties": {"bikes": 0, "stands": 6, "name": "Duluth/St-Denis", "status": "OPEN", "lon": -73.575871, "lat": 45.520655, "address": "Duluth/St-Denis"}}, {"type": "Feature", "geometry": {"type": "Point", "coordinates": [-73.561976, 45.50965]}, "properties": {"bikes": 0, "stands": 18, "name": "Place de la paix (St-Dominique/place du march\u00e9)", "status": "OPEN", "lon": -73.561976, "lat": 45.50965, "address": "Place de la paix (St-Dominique/place du march\u00e9)"}}, {"type": "Feature", "geometry": {"type": "Point", "coordinates": [-73.582648, 45.516853]}, "properties": {"bikes": 0, "stands": 23, "name": "Clark/Rachel", "status": "OPEN", "lon": -73.582648, "lat": 45.516853, "address": "Clark/Rachel"}}, {"type": "Feature", "geometry": {"type": "Point", "coordinates": [-73.5851, 45.5215]}, "properties": {"bikes": 0, "stands": 11, "name": "Bullion / Mont-Royal", "status": "OPEN", "lon": -73.5851, "lat": 45.5215, "address": "Bullion / Mont-Royal"}}, {"type": "Feature", "geometry": {"type": "Point", "coordinates": [-73.584129810333, 45.522412909217]}, "properties": {"bikes": 0, "stands": 23, "name": "Laval / Mont-Royal", "status": "OPEN", "lon": -73.584129810333, "lat": 45.522412909217, "address": "Laval / Mont-Royal"}}, {"type": "Feature", "geometry": {"type": "Point", "coordinates": [-73.58255, 45.524673]}, "properties": {"bikes": 0, "stands": 35, "name": "M\u00e9tro Mont-Royal (Rivard/Mont-Royal)", "status": "OPEN", "lon": -73.58255, "lat": 45.524673, "address": "M\u00e9tro Mont-Royal (Rivard/Mont-Royal)"}}, {"type": "Feature", "geometry": {"type": "Point", "coordinates": [-73.601006, 45.549286]}, "properties": {"bikes": 0, "stands": 15, "name": "Des \u00e9rables/B\u00e9langer", "status": "OPEN", "lon": -73.601006, "lat": 45.549286, "address": "Des \u00e9rables/B\u00e9langer"}}, {"type": "Feature", "geometry": {"type": "Point", "coordinates": [-73.58002, 45.52743]}, "properties": {"bikes": 0, "stands": 27, "name": "Boyer / Mont-Royal", "status": "OPEN", "lon": -73.58002, "lat": 45.52743, "address": "Boyer / Mont-Royal"}}, {"type": "Feature", "geometry": {"type": "Point", "coordinates": [-73.580927, 45.526466]}, "properties": {"bikes": 0, "stands": 3, "name": "St-Andr\u00e9/ Mont-Royal", "status": "OPEN", "lon": -73.580927, "lat": 45.526466, "address": "St-Andr\u00e9/ Mont-Royal"}}, {"type": "Feature", "geometry": {"type": "Point", "coordinates": [-73.577808, 45.525983]}, "properties": {"bikes": 0, "stands": 23, "name": "Mentana / Marie-Anne", "status": "OPEN", "lon": -73.577808, "lat": 45.525983, "address": "Mentana / Marie-Anne"}}, {"type": "Feature", "geometry": {"type": "Point", "coordinates": [-73.609477, 45.550634]}, "properties": {"bikes": 0, "stands": 11, "name": "Chabot/Everett", "status": "OPEN", "lon": -73.609477, "lat": 45.550634, "address": "Chabot/Everett"}}, {"type": "Feature", "geometry": {"type": "Point", "coordinates": [-73.585852, 45.527008]}, "properties": {"bikes": 0, "stands": 15, "name": "Pontiac/Gilford", "status": "OPEN", "lon": -73.585852, "lat": 45.527008, "address": "Pontiac/Gilford"}}, {"type": "Feature", "geometry": {"type": "Point", "coordinates": [-73.612674, 45.531401]}, "properties": {"bikes": 0, "stands": 0, "name": "St-Zotique/Clark", "status": "OPEN", "lon": -73.612674, "lat": 45.531401, "address": "St-Zotique/Clark"}}, {"type": "Feature", "geometry": {"type": "Point", "coordinates": [-73.591766, 45.529802]}, "properties": {"bikes": 0, "stands": 19, "name": "Berri/St-Gr\u00e9goire", "status": "OPEN", "lon": -73.591766, "lat": 45.529802, "address": "Berri/St-Gr\u00e9goire"}}, {"type": "Feature", "geometry": {"type": "Point", "coordinates": [-73.596758, 45.521495]}, "properties": {"bikes": 0, "stands": 19, "name": "Esplanade/Fairmount", "status": "OPEN", "lon": -73.596758, "lat": 45.521495, "address": "Esplanade/Fairmount"}}, {"type": "Feature", "geometry": {"type": "Point", "coordinates": [-73.593016, 45.525669]}, "properties": {"bikes": 0, "stands": 19, "name": "Gasp\u00e9 / Fairmount ", "status": "OPEN", "lon": -73.593016, "lat": 45.525669, "address": "Gasp\u00e9 / Fairmount "}}, {"type": "Feature", "geometry": {"type": "Point", "coordinates": [-73.58978, 45.52377]}, "properties": {"bikes": 0, "stands": 19, "name": "de Bullion / Boul. Saint-Joseph", "status": "OPEN", "lon": -73.58978, "lat": 45.52377, "address": "de Bullion / Boul. Saint-Joseph"}}, {"type": "Feature", "geometry": {"type": "Point", "coordinates": [-73.58918, 45.52157]}, "properties": {"bikes": 0, "stands": 19, "name": "Villeneuve/St-Laurent", "status": "OPEN", "lon": -73.58918, "lat": 45.52157, "address": "Villeneuve/St-Laurent"}}, {"type": "Feature", "geometry": {"type": "Point", "coordinates": [-73.583502, 45.537985]}, "properties": {"bikes": 0, "stands": 19, "name": "Cartier/Masson", "status": "OPEN", "lon": -73.583502, "lat": 45.537985, "address": "Cartier/Masson"}}, {"type": "Feature", "geometry": {"type": "Point", "coordinates": [-73.59527, 45.52974]}, "properties": {"bikes": 0, "stands": 4, "name": "H\u00e9l\u00e8ne-Baillargeon / Saint-Denis", "status": "OPEN", "lon": -73.59527, "lat": 45.52974, "address": "H\u00e9l\u00e8ne-Baillargeon / Saint-Denis"}}, {"type": "Feature", "geometry": {"type": "Point", "coordinates": [-73.599375486374, 45.525171560973]}, "properties": {"bikes": 0, "stands": 19, "name": "Clark / Saint-Viateur", "status": "OPEN", "lon": -73.599375486374, "lat": 45.525171560973, "address": "Clark / Saint-Viateur"}}, {"type": "Feature", "geometry": {"type": "Point", "coordinates": [-73.59588, 45.52457]}, "properties": {"bikes": 0, "stands": 7, "name": "Maguire / Saint-Laurent", "status": "OPEN", "lon": -73.59588, "lat": 45.52457, "address": "Maguire / Saint-Laurent"}}, {"type": "Feature", "geometry": {"type": "Point", "coordinates": [-73.587509393692, 45.52352540631]}, "properties": {"bikes": 0, "stands": 23, "name": "Villeneuve / de l'H\u00f4tel-de-Ville", "status": "OPEN", "lon": -73.587509393692, "lat": 45.52352540631, "address": "Villeneuve / de l'H\u00f4tel-de-Ville"}}, {"type": "Feature", "geometry": {"type": "Point", "coordinates": [-73.57208, 45.50781]}, "properties": {"bikes": 0, "stands": 3, "name": "Hutchison / Sherbrooke", "status": "OPEN", "lon": -73.57208, "lat": 45.50781, "address": "Hutchison / Sherbrooke"}}, {"type": "Feature", "geometry": {"type": "Point", "coordinates": [-73.57354, 45.50971]}, "properties": {"bikes": 0, "stands": 31, "name": "Milton / du Parc", "status": "OPEN", "lon": -73.57354, "lat": 45.50971, "address": "Milton / du Parc"}}, {"type": "Feature", "geometry": {"type": "Point", "coordinates": [-73.57547, 45.51059]}, "properties": {"bikes": 0, "stands": 0, "name": "Prince-Arthur / du Parc", "status": "OPEN", "lon": -73.57547, "lat": 45.51059, "address": "Prince-Arthur / du Parc"}}, {"type": "Feature", "geometry": {"type": "Point", "coordinates": [-73.577016592026, 45.512812949535]}, "properties": {"bikes": 0, "stands": 15, "name": "Sainte-Famille / des Pins", "status": "OPEN", "lon": -73.577016592026, "lat": 45.512812949535, "address": "Sainte-Famille / des Pins"}}, {"type": "Feature", "geometry": {"type": "Point", "coordinates": [-73.57805, 45.51069]}, "properties": {"bikes": 0, "stands": 19, "name": "Hutchison / des Pins", "status": "OPEN", "lon": -73.57805, "lat": 45.51069, "address": "Hutchison / des Pins"}}, {"type": "Feature", "geometry": {"type": "Point", "coordinates": [-73.57062, 45.51252]}, "properties": {"bikes": 0, "stands": 23, "name": "Milton / Clark", "status": "OPEN", "lon": -73.57062, "lat": 45.51252, "address": "Milton / Clark"}}, {"type": "Feature", "geometry": {"type": "Point", "coordinates": [-73.656, 45.5509]}, "properties": {"bikes": 0, "stands": 15, "name": "Metro  Sauv\u00e9 (Sauv\u00e9/Berri)", "status": "OPEN", "lon": -73.656, "lat": 45.5509, "address": "Metro  Sauv\u00e9 (Sauv\u00e9/Berri)"}}, {"type": "Feature", "geometry": {"type": "Point", "coordinates": [-73.57569, 45.51561]}, "properties": {"bikes": 0, "stands": 23, "name": "Roy / Saint-Laurent", "status": "OPEN", "lon": -73.57569, "lat": 45.51561, "address": "Roy / Saint-Laurent"}}, {"type": "Feature", "geometry": {"type": "Point", "coordinates": [-73.581394, 45.515201]}, "properties": {"bikes": 0, "stands": 14, "name": "Duluth/Esplanade", "status": "OPEN", "lon": -73.581394, "lat": 45.515201, "address": "Duluth/Esplanade"}}, {"type": "Feature", "geometry": {"type": "Point", "coordinates": [-73.57921, 45.5171]}, "properties": {"bikes": 0, "stands": 15, "name": "Duluth / Saint-Laurent", "status": "OPEN", "lon": -73.57921, "lat": 45.5171, "address": "Duluth / Saint-Laurent"}}, {"type": "Feature", "geometry": {"type": "Point", "coordinates": [-73.56906, 45.51735]}, "properties": {"bikes": 0, "stands": 9, "name": "Square Saint-Louis", "status": "OPEN", "lon": -73.56906, "lat": 45.51735, "address": "Square Saint-Louis"}}, {"type": "Feature", "geometry": {"type": "Point", "coordinates": [-73.57821, 45.51494]}, "properties": {"bikes": 0, "stands": 19, "name": "Saint-Cuthbert / Saint-Urbain", "status": "OPEN", "lon": -73.57821, "lat": 45.51494, "address": "Saint-Cuthbert / Saint-Urbain"}}, {"type": "Feature", "geometry": {"type": "Point", "coordinates": [-73.58503, 45.51496]}, "properties": {"bikes": 0, "stands": 34, "name": "Parc du Mont-Royal", "status": "OPEN", "lon": -73.58503, "lat": 45.51496, "address": "Parc du Mont-Royal"}}, {"type": "Feature", "geometry": {"type": "Point", "coordinates": [-73.583618, 45.519523]}, "properties": {"bikes": 0, "stands": 23, "name": "Marie-Anne/St-Dominique", "status": "OPEN", "lon": -73.583618, "lat": 45.519523, "address": "Marie-Anne/St-Dominique"}}, {"type": "Feature", "geometry": {"type": "Point", "coordinates": [-73.574361, 45.51725]}, "properties": {"bikes": 0, "stands": 0, "name": "H\u00f4tel de Ville/Roy ", "status": "OPEN", "lon": -73.574361, "lat": 45.51725, "address": "H\u00f4tel de Ville/Roy "}}, {"type": "Feature", "geometry": {"type": "Point", "coordinates": [-73.577215075493, 45.519236909648]}, "properties": {"bikes": 0, "stands": 15, "name": "Laval / Duluth", "status": "OPEN", "lon": -73.577215075493, "lat": 45.519236909648, "address": "Laval / Duluth"}}, {"type": "Feature", "geometry": {"type": "Point", "coordinates": [-73.58685, 45.51941]}, "properties": {"bikes": 0, "stands": 23, "name": "Mont-Royal / Clark", "status": "OPEN", "lon": -73.58685, "lat": 45.51941, "address": "Mont-Royal / Clark"}}, {"type": "Feature", "geometry": {"type": "Point", "coordinates": [-73.5889283, 45.5176432]}, "properties": {"bikes": 0, "stands": 11, "name": "Jeanne Mance / Mont-Royal", "status": "OPEN", "lon": -73.5889283, "lat": 45.5176432, "address": "Jeanne Mance / Mont-Royal"}}, {"type": "Feature", "geometry": {"type": "Point", "coordinates": [-73.589, 45.517]}, "properties": {"bikes": 0, "stands": 33, "name": "Mont-Royal / du Parc", "status": "OPEN", "lon": -73.589, "lat": 45.517, "address": "Mont-Royal / du Parc"}}, {"type": "Feature", "geometry": {"type": "Point", "coordinates": [-73.59235, 45.51829]}, "properties": {"bikes": 0, "stands": 15, "name": "Villeneuve/ Parc", "status": "OPEN", "lon": -73.59235, "lat": 45.51829, "address": "Villeneuve/ Parc"}}, {"type": "Feature", "geometry": {"type": "Point", "coordinates": [-73.590559, 45.520188]}, "properties": {"bikes": 0, "stands": 11, "name": "Villeneuve / St-Urbain", "status": "OPEN", "lon": -73.590559, "lat": 45.520188, "address": "Villeneuve / St-Urbain"}}, {"type": "Feature", "geometry": {"type": "Point", "coordinates": [-73.561562, 45.575707]}, "properties": {"bikes": 0, "stands": 19, "name": "Hopital Maisonneuve Rosemont (Rosemont/Chatelain)", "status": "OPEN", "lon": -73.561562, "lat": 45.575707, "address": "Hopital Maisonneuve Rosemont (Rosemont/Chatelain)"}}, {"type": "Feature", "geometry": {"type": "Point", "coordinates": [-73.594499, 45.520906]}, "properties": {"bikes": 0, "stands": 23, "name": "Esplanade/Laurier", "status": "OPEN", "lon": -73.594499, "lat": 45.520906, "address": "Esplanade/Laurier"}}, {"type": "Feature", "geometry": {"type": "Point", "coordinates": [-73.585514, 45.52102]}, "properties": {"bikes": 0, "stands": 15, "name": "Coloniale/ Mont-Royal", "status": "OPEN", "lon": -73.585514, "lat": 45.52102, "address": "Coloniale/ Mont-Royal"}}, {"type": "Feature", "geometry": {"type": "Point", "coordinates": [-73.60042154789, 45.524025271152]}, "properties": {"bikes": 0, "stands": 15, "name": "Waverly / Saint-Viateur", "status": "OPEN", "lon": -73.60042154789, "lat": 45.524025271152, "address": "Waverly / Saint-Viateur"}}, {"type": "Feature", "geometry": {"type": "Point", "coordinates": [-73.6019, 45.52246]}, "properties": {"bikes": 0, "stands": 23, "name": "Saint-Viateur / du Parc", "status": "OPEN", "lon": -73.6019, "lat": 45.52246, "address": "Saint-Viateur / du Parc"}}, {"type": "Feature", "geometry": {"type": "Point", "coordinates": [-73.60261, 45.52697]}, "properties": {"bikes": 0, "stands": 23, "name": "Bernard / Clark", "status": "OPEN", "lon": -73.60261, "lat": 45.52697, "address": "Bernard / Clark"}}, {"type": "Feature", "geometry": {"type": "Point", "coordinates": [-73.598232865334, 45.52654331973]}, "properties": {"bikes": 0, "stands": 19, "name": "Saint-Dominique / Saint-Viateur", "status": "OPEN", "lon": -73.598232865334, "lat": 45.52654331973, "address": "Saint-Dominique / Saint-Viateur"}}, {"type": "Feature", "geometry": {"type": "Point", "coordinates": [-73.579291, 45.537456]}, "properties": {"bikes": 0, "stands": 31, "name": " Bordeaux/Laurier", "status": "OPEN", "lon": -73.579291, "lat": 45.537456, "address": " Bordeaux/Laurier"}}, {"type": "Feature", "geometry": {"type": "Point", "coordinates": [-73.580541, 45.532013]}, "properties": {"bikes": 0, "stands": 14, "name": "Gilford/Lanaudi\u00e8re", "status": "OPEN", "lon": -73.580541, "lat": 45.532013, "address": "Gilford/Lanaudi\u00e8re"}}, {"type": "Feature", "geometry": {"type": "Point", "coordinates": [-73.577784, 45.516777]}, "properties": {"bikes": 0, "stands": 23, "name": "Napoleon/St-Dominique", "status": "OPEN", "lon": -73.577784, "lat": 45.516777, "address": "Napoleon/St-Dominique"}}, {"type": "Feature", "geometry": {"type": "Point", "coordinates": [-73.6055123806, 45.549704078239]}, "properties": {"bikes": 0, "stands": 15, "name": "de Bordeaux / Jean-Talon", "status": "OPEN", "lon": -73.6055123806, "lat": 45.549704078239, "address": "de Bordeaux / Jean-Talon"}}, {"type": "Feature", "geometry": {"type": "Point", "coordinates": [-73.629593, 45.505973]}, "properties": {"bikes": 0, "stands": 23, "name": "Hudson/Kent", "status": "OPEN", "lon": -73.629593, "lat": 45.505973, "address": "Hudson/Kent"}}, {"type": "Feature", "geometry": {"type": "Point", "coordinates": [-73.597724, 45.517345]}, "properties": {"bikes": 0, "stands": 15, "name": "Querbes / Laurier", "status": "OPEN", "lon": -73.597724, "lat": 45.517345, "address": "Querbes / Laurier"}}, {"type": "Feature", "geometry": {"type": "Point", "coordinates": [-73.606786, 45.519861]}, "properties": {"bikes": 0, "stands": 19, "name": "Bloomfield / Bernard", "status": "OPEN", "lon": -73.606786, "lat": 45.519861, "address": "Bloomfield / Bernard"}}, {"type": "Feature", "geometry": {"type": "Point", "coordinates": [-73.61265779, 45.5225858]}, "properties": {"bikes": 0, "stands": 14, "name": "Bloomfield / Van Horne", "status": "OPEN", "lon": -73.61265779, "lat": 45.5225858, "address": "Bloomfield / Van Horne"}}, {"type": "Feature", "geometry": {"type": "Point", "coordinates": [-73.614887, 45.520265]}, "properties": {"bikes": 0, "stands": 20, "name": "M\u00e9tro Outremont (Wiseman / Van Horne)", "status": "OPEN", "lon": -73.614887, "lat": 45.520265, "address": "M\u00e9tro Outremont (Wiseman / Van Horne)"}}, {"type": "Feature", "geometry": {"type": "Point", "coordinates": [-73.61108, 45.53304]}, "properties": {"bikes": 0, "stands": 15, "name": "Casgrain / Saint-Zotique", "status": "OPEN", "lon": -73.61108, "lat": 45.53304, "address": "Casgrain / Saint-Zotique"}}, {"type": "Feature", "geometry": {"type": "Point", "coordinates": [-73.581566, 45.518593]}, "properties": {"bikes": 0, "stands": 23, "name": "St-Dominique/Rachel", "status": "OPEN", "lon": -73.581566, "lat": 45.518593, "address": "St-Dominique/Rachel"}}, {"type": "Feature", "geometry": {"type": "Point", "coordinates": [-73.61199, 45.53696]}, "properties": {"bikes": 0, "stands": 15, "name": "B\u00e9langer / Saint-Denis", "status": "OPEN", "lon": -73.61199, "lat": 45.53696, "address": "B\u00e9langer / Saint-Denis"}}, {"type": "Feature", "geometry": {"type": "Point", "coordinates": [-73.61529, 45.53707]}, "properties": {"bikes": 0, "stands": 23, "name": "Henri-Julien / Jean-Talon", "status": "OPEN", "lon": -73.61529, "lat": 45.53707, "address": "Henri-Julien / Jean-Talon"}}, {"type": "Feature", "geometry": {"type": "Point", "coordinates": [-73.612278, 45.534377]}, "properties": {"bikes": 0, "stands": 19, "name": "Gasp\u00e9/Dante", "status": "OPEN", "lon": -73.612278, "lat": 45.534377, "address": "Gasp\u00e9/Dante"}}, {"type": "Feature", "geometry": {"type": "Point", "coordinates": [-73.61544, 45.53318]}, "properties": {"bikes": 0, "stands": 2, "name": "Mozart / Saint-Laurent", "status": "OPEN", "lon": -73.61544, "lat": 45.53318, "address": "Mozart / Saint-Laurent"}}, {"type": "Feature", "geometry": {"type": "Point", "coordinates": [-73.614256381989, 45.539736803045]}, "properties": {"bikes": 0, "stands": 15, "name": "Lajeunesse / Jean-Talon", "status": "OPEN", "lon": -73.614256381989, "lat": 45.539736803045, "address": "Lajeunesse / Jean-Talon"}}, {"type": "Feature", "geometry": {"type": "Point", "coordinates": [-73.60897, 45.54006]}, "properties": {"bikes": 0, "stands": 19, "name": "Boyer / B\u00e9langer", "status": "OPEN", "lon": -73.60897, "lat": 45.54006, "address": "Boyer / B\u00e9langer"}}, {"type": "Feature", "geometry": {"type": "Point", "coordinates": [-73.60556, 45.53848]}, "properties": {"bikes": 0, "stands": 19, "name": "Boyer / Saint-Zotique", "status": "OPEN", "lon": -73.60556, "lat": 45.53848, "address": "Boyer / Saint-Zotique"}}, {"type": "Feature", "geometry": {"type": "Point", "coordinates": [-73.607773, 45.536299]}, "properties": {"bikes": 0, "stands": 15, "name": "Saint-Vallier / Saint-Zotique", "status": "OPEN", "lon": -73.607773, "lat": 45.536299, "address": "Saint-Vallier / Saint-Zotique"}}, {"type": "Feature", "geometry": {"type": "Point", "coordinates": [-73.593126, 45.537035]}, "properties": {"bikes": 0, "stands": 31, "name": "Parc P\u00e8re-Marquette (Chambord / Rosemont)", "status": "OPEN", "lon": -73.593126, "lat": 45.537035, "address": "Parc P\u00e8re-Marquette (Chambord / Rosemont)"}}, {"type": "Feature", "geometry": {"type": "Point", "coordinates": [-73.584157, 45.540881]}, "properties": {"bikes": 0, "stands": 14, "name": "Dandurand/De Lorimier", "status": "OPEN", "lon": -73.584157, "lat": 45.540881, "address": "Dandurand/De Lorimier"}}, {"type": "Feature", "geometry": {"type": "Point", "coordinates": [-73.586302, 45.538589]}, "properties": {"bikes": 0, "stands": 19, "name": "Dandurand/Papineau", "status": "OPEN", "lon": -73.586302, "lat": 45.538589, "address": "Dandurand/Papineau"}}, {"type": "Feature", "geometry": {"type": "Point", "coordinates": [-73.588069, 45.54458]}, "properties": {"bikes": 0, "stands": 19, "name": "Louis H\u00e9mon / Rosemont", "status": "OPEN", "lon": -73.588069, "lat": 45.54458, "address": "Louis H\u00e9mon / Rosemont"}}, {"type": "Feature", "geometry": {"type": "Point", "coordinates": [-73.597884, 45.537202]}, "properties": {"bikes": 0, "stands": 1, "name": "de la Roche /  Bellechasse ", "status": "OPEN", "lon": -73.597884, "lat": 45.537202, "address": "de la Roche /  Bellechasse "}}, {"type": "Feature", "geometry": {"type": "Point", "coordinates": [-73.6266, 45.4714]}, "properties": {"bikes": 0, "stands": 15, "name": "Hampton/Monkland", "status": "OPEN", "lon": -73.6266, "lat": 45.4714, "address": "Hampton/Monkland"}}, {"type": "Feature", "geometry": {"type": "Point", "coordinates": [-73.59212, 45.5427]}, "properties": {"bikes": 0, "stands": 15, "name": "Chabot / Bellechasse", "status": "OPEN", "lon": -73.59212, "lat": 45.5427, "address": "Chabot / Bellechasse"}}, {"type": "Feature", "geometry": {"type": "Point", "coordinates": [-73.577338, 45.539259]}, "properties": {"bikes": 0, "stands": 19, "name": "Parthenais / Laurier", "status": "OPEN", "lon": -73.577338, "lat": 45.539259, "address": "Parthenais / Laurier"}}, {"type": "Feature", "geometry": {"type": "Point", "coordinates": [-73.59268, 45.54857]}, "properties": {"bikes": 0, "stands": 19, "name": "Louis-H\u00e9bert / Beaubien", "status": "OPEN", "lon": -73.59268, "lat": 45.54857, "address": "Louis-H\u00e9bert / Beaubien"}}, {"type": "Feature", "geometry": {"type": "Point", "coordinates": [-73.5949, 45.54475]}, "properties": {"bikes": 0, "stands": 2, "name": "de Bordeaux / Beaubien", "status": "OPEN", "lon": -73.5949, "lat": 45.54475, "address": "de Bordeaux / Beaubien"}}, {"type": "Feature", "geometry": {"type": "Point", "coordinates": [-73.599716, 45.539964]}, "properties": {"bikes": 0, "stands": 19, "name": "Chambord / Beaubien", "status": "OPEN", "lon": -73.599716, "lat": 45.539964, "address": "Chambord / Beaubien"}}, {"type": "Feature", "geometry": {"type": "Point", "coordinates": [-73.60384, 45.54083]}, "properties": {"bikes": 0, "stands": 7, "name": "de Normanville / Saint-Zotique", "status": "OPEN", "lon": -73.60384, "lat": 45.54083, "address": "de Normanville / Saint-Zotique"}}, {"type": "Feature", "geometry": {"type": "Point", "coordinates": [-73.600982, 45.543541]}, "properties": {"bikes": 0, "stands": 19, "name": "Fabre / Saint-Zotique", "status": "OPEN", "lon": -73.600982, "lat": 45.543541, "address": "Fabre / Saint-Zotique"}}, {"type": "Feature", "geometry": {"type": "Point", "coordinates": [-73.604214, 45.529993]}, "properties": {"bikes": 0, "stands": 23, "name": "Casgrain / de Bellechasse", "status": "OPEN", "lon": -73.604214, "lat": 45.529993, "address": "Casgrain / de Bellechasse"}}, {"type": "Feature", "geometry": {"type": "Point", "coordinates": [-73.598442, 45.546526]}, "properties": {"bikes": 0, "stands": 15, "name": "Bordeaux / Saint-Zotique", "status": "OPEN", "lon": -73.598442, "lat": 45.546526, "address": "Bordeaux / Saint-Zotique"}}, {"type": "Feature", "geometry": {"type": "Point", "coordinates": [-73.602616, 45.546939]}, "properties": {"bikes": 0, "stands": 19, "name": "Cartier / B\u00e9langer", "status": "OPEN", "lon": -73.602616, "lat": 45.546939, "address": "Cartier / B\u00e9langer"}}, {"type": "Feature", "geometry": {"type": "Point", "coordinates": [-73.583695, 45.531164]}, "properties": {"bikes": 0, "stands": 19, "name": "De la Roche/St-Joseph", "status": "OPEN", "lon": -73.583695, "lat": 45.531164, "address": "De la Roche/St-Joseph"}}, {"type": "Feature", "geometry": {"type": "Point", "coordinates": [-73.610458, 45.544828]}, "properties": {"bikes": 0, "stands": 2, "name": "Chambord / Jean-Talon", "status": "OPEN", "lon": -73.610458, "lat": 45.544828, "address": "Chambord / Jean-Talon"}}, {"type": "Feature", "geometry": {"type": "Point", "coordinates": [-73.606585, 45.543077]}, "properties": {"bikes": 0, "stands": 15, "name": "Chambord / B\u00e9langer", "status": "OPEN", "lon": -73.606585, "lat": 45.543077, "address": "Chambord / B\u00e9langer"}}, {"type": "Feature", "geometry": {"type": "Point", "coordinates": [-73.59576, 45.55001]}, "properties": {"bikes": 0, "stands": 11, "name": "Louis-H\u00e9bert / Saint-Zotique", "status": "OPEN", "lon": -73.59576, "lat": 45.55001, "address": "Louis-H\u00e9bert / Saint-Zotique"}}, {"type": "Feature", "geometry": {"type": "Point", "coordinates": [-73.598852, 45.551457]}, "properties": {"bikes": 0, "stands": 15, "name": "Louis-H\u00e9bert / B\u00e9langer", "status": "OPEN", "lon": -73.598852, "lat": 45.551457, "address": "Louis-H\u00e9bert / B\u00e9langer"}}, {"type": "Feature", "geometry": {"type": "Point", "coordinates": [-73.597793, 45.542055]}, "properties": {"bikes": 0, "stands": 15, "name": "Fabre / Beaubien", "status": "OPEN", "lon": -73.597793, "lat": 45.542055, "address": "Fabre / Beaubien"}}, {"type": "Feature", "geometry": {"type": "Point", "coordinates": [-73.581018, 45.544377]}, "properties": {"bikes": 0, "stands": 19, "name": "Parc Rosemont (Dandurand/d'Iberville)", "status": "OPEN", "lon": -73.581018, "lat": 45.544377, "address": "Parc Rosemont (Dandurand/d'Iberville)"}}, {"type": "Feature", "geometry": {"type": "Point", "coordinates": [-73.595666, 45.53192856]}, "properties": {"bikes": 0, "stands": 23, "name": "Chateaubriand/Des Ateliers", "status": "OPEN", "lon": -73.595666, "lat": 45.53192856, "address": "Chateaubriand/Des Ateliers"}}, {"type": "Feature", "geometry": {"type": "Point", "coordinates": [-73.595478, 45.534136]}, "properties": {"bikes": 0, "stands": 23, "name": "Boyer / Rosemont", "status": "OPEN", "lon": -73.595478, "lat": 45.534136, "address": "Boyer / Rosemont"}}, {"type": "Feature", "geometry": {"type": "Point", "coordinates": [-73.601221, 45.533473]}, "properties": {"bikes": 0, "stands": 19, "name": "Bellechasse/St-Valier", "status": "OPEN", "lon": -73.601221, "lat": 45.533473, "address": "Bellechasse/St-Valier"}}, {"type": "Feature", "geometry": {"type": "Point", "coordinates": [-73.5634366, 45.48401829]}, "properties": {"bikes": 0, "stands": 15, "name": "Augustin-Cantin / Shearer", "status": "OPEN", "lon": -73.5634366, "lat": 45.48401829, "address": "Augustin-Cantin / Shearer"}}, {"type": "Feature", "geometry": {"type": "Point", "coordinates": [-73.578755, 45.524634]}, "properties": {"bikes": 0, "stands": 15, "name": "Marie-anne/ St-Hubert", "status": "OPEN", "lon": -73.578755, "lat": 45.524634, "address": "Marie-anne/ St-Hubert"}}, {"type": "Feature", "geometry": {"type": "Point", "coordinates": [-73.615085, 45.50723]}, "properties": {"bikes": 0, "stands": 19, "name": "\u00c9douard-Montpetit / Stirling", "status": "OPEN", "lon": -73.615085, "lat": 45.50723, "address": "\u00c9douard-Montpetit / Stirling"}}, {"type": "Feature", "geometry": {"type": "Point", "coordinates": [-73.618105, 45.500035]}, "properties": {"bikes": 0, "stands": 23, "name": "Louis-Colin / McKenna", "status": "OPEN", "lon": -73.618105, "lat": 45.500035, "address": "Louis-Colin / McKenna"}}, {"type": "Feature", "geometry": {"type": "Point", "coordinates": [-73.607723, 45.527363]}, "properties": {"bikes": 0, "stands": 11, "name": "Waverly / Van Horne", "status": "OPEN", "lon": -73.607723, "lat": 45.527363, "address": "Waverly / Van Horne"}}, {"type": "Feature", "geometry": {"type": "Point", "coordinates": [-73.610737323761, 45.525021229213]}, "properties": {"bikes": 0, "stands": 19, "name": "Hutchison / Van Horne", "status": "OPEN", "lon": -73.610737323761, "lat": 45.525021229213, "address": "Hutchison / Van Horne"}}, {"type": "Feature", "geometry": {"type": "Point", "coordinates": [-73.604847192764, 45.524295872823]}, "properties": {"bikes": 0, "stands": 27, "name": "Bernard / Jeanne-Mance", "status": "OPEN", "lon": -73.604847192764, "lat": 45.524295872823, "address": "Bernard / Jeanne-Mance"}}, {"type": "Feature", "geometry": {"type": "Point", "coordinates": [-73.647982, 45.549949]}, "properties": {"bikes": 0, "stands": 11, "name": "Basile-Routhier / Chabanel", "status": "OPEN", "lon": -73.647982, "lat": 45.549949, "address": "Basile-Routhier / Chabanel"}}, {"type": "Feature", "geometry": {"type": "Point", "coordinates": [-73.581185, 45.552649]}, "properties": {"bikes": 0, "stands": 14, "name": "10e Avenue / Rosemont", "status": "OPEN", "lon": -73.581185, "lat": 45.552649, "address": "10e Avenue / Rosemont"}}, {"type": "Feature", "geometry": {"type": "Point", "coordinates": [-73.602026, 45.537041]}, "properties": {"bikes": 0, "stands": 19, "name": "Boyer / Beaubien", "status": "OPEN", "lon": -73.602026, "lat": 45.537041, "address": "Boyer / Beaubien"}}, {"type": "Feature", "geometry": {"type": "Point", "coordinates": [-73.559644, 45.493962]}, "properties": {"bikes": 0, "stands": 6, "name": "Peel / Ottawa", "status": "OPEN", "lon": -73.559644, "lat": 45.493962, "address": "Peel / Ottawa"}}, {"type": "Feature", "geometry": {"type": "Point", "coordinates": [-73.564817905426, 45.493029012584]}, "properties": {"bikes": 0, "stands": 26, "name": "Notre-Dame / de la Montagne ", "status": "OPEN", "lon": -73.564817905426, "lat": 45.493029012584, "address": "Notre-Dame / de la Montagne "}}, {"type": "Feature", "geometry": {"type": "Point", "coordinates": [-73.567091, 45.489951]}, "properties": {"bikes": 0, "stands": 19, "name": "Guy / Notre-Dame", "status": "OPEN", "lon": -73.567091, "lat": 45.489951, "address": "Guy / Notre-Dame"}}, {"type": "Feature", "geometry": {"type": "Point", "coordinates": [-73.59353, 45.54705]}, "properties": {"bikes": 0, "stands": 15, "name": "Louis-H\u00e9mon / Beaubien", "status": "OPEN", "lon": -73.59353, "lat": 45.54705, "address": "Louis-H\u00e9mon / Beaubien"}}, {"type": "Feature", "geometry": {"type": "Point", "coordinates": [-73.594059, 45.524611]}, "properties": {"bikes": 0, "stands": 15, "name": "Fairmount/St-Dominique", "status": "OPEN", "lon": -73.594059, "lat": 45.524611, "address": "Fairmount/St-Dominique"}}, {"type": "Feature", "geometry": {"type": "Point", "coordinates": [-73.569651246071, 45.478227873091]}, "properties": {"bikes": 0, "stands": 15, "name": "M\u00e9tro Charlevoix (Centre / Charlevoix)", "status": "OPEN", "lon": -73.569651246071, "lat": 45.478227873091, "address": "M\u00e9tro Charlevoix (Centre / Charlevoix)"}}, {"type": "Feature", "geometry": {"type": "Point", "coordinates": [-73.568868, 45.487676]}, "properties": {"bikes": 0, "stands": 15, "name": "des Seigneurs / Notre-Dame", "status": "OPEN", "lon": -73.568868, "lat": 45.487676, "address": "des Seigneurs / Notre-Dame"}}, {"type": "Feature", "geometry": {"type": "Point", "coordinates": [-73.585369, 45.472743]}, "properties": {"bikes": 0, "stands": 18, "name": "Sir Georges Etienne Cartier/Ste-\u00c9milie", "status": "OPEN", "lon": -73.585369, "lat": 45.472743, "address": "Sir Georges Etienne Cartier/Ste-\u00c9milie"}}, {"type": "Feature", "geometry": {"type": "Point", "coordinates": [-73.57178, 45.48501]}, "properties": {"bikes": 0, "stands": 18, "name": "Georges-Vanier / Notre-Dame", "status": "OPEN", "lon": -73.57178, "lat": 45.48501, "address": "Georges-Vanier / Notre-Dame"}}, {"type": "Feature", "geometry": {"type": "Point", "coordinates": [-73.577514, 45.485889]}, "properties": {"bikes": 0, "stands": 23, "name": "Quesnel/Vinet", "status": "OPEN", "lon": -73.577514, "lat": 45.485889, "address": "Quesnel/Vinet"}}, {"type": "Feature", "geometry": {"type": "Point", "coordinates": [-73.57486278, 45.48203995]}, "properties": {"bikes": 0, "stands": 19, "name": "Duvernay/charlevoix ", "status": "OPEN", "lon": -73.57486278, "lat": 45.48203995, "address": "Duvernay/charlevoix "}}, {"type": "Feature", "geometry": {"type": "Point", "coordinates": [-73.577102, 45.480359]}, "properties": {"bikes": 0, "stands": 33, "name": "March\u00e9 Atwater", "status": "OPEN", "lon": -73.577102, "lat": 45.480359, "address": "March\u00e9 Atwater"}}, {"type": "Feature", "geometry": {"type": "Point", "coordinates": [-73.57731164, 45.48392802]}, "properties": {"bikes": 0, "stands": 31, "name": "M\u00e9tro Lionel-Groulx ( Lionel-Groulx /Charlevoix)", "status": "OPEN", "lon": -73.57731164, "lat": 45.48392802, "address": "M\u00e9tro Lionel-Groulx ( Lionel-Groulx /Charlevoix)"}}, {"type": "Feature", "geometry": {"type": "Point", "coordinates": [-73.57656, 45.4891]}, "properties": {"bikes": 0, "stands": 17, "name": "Saint-Antoine / Canning (Metro George-Vanier)", "status": "OPEN", "lon": -73.57656, "lat": 45.4891, "address": "Saint-Antoine / Canning (Metro George-Vanier)"}}, {"type": "Feature", "geometry": {"type": "Point", "coordinates": [-73.579463, 45.520018]}, "properties": {"bikes": 0, "stands": 0, "name": "Laval/Rachel", "status": "OPEN", "lon": -73.579463, "lat": 45.520018, "address": "Laval/Rachel"}}, {"type": "Feature", "geometry": {"type": "Point", "coordinates": [-73.571877, 45.456049]}, "properties": {"bikes": 0, "stands": 19, "name": "5e ave/Verdun", "status": "OPEN", "lon": -73.571877, "lat": 45.456049, "address": "5e ave/Verdun"}}, {"type": "Feature", "geometry": {"type": "Point", "coordinates": [-73.621215, 45.505514]}, "properties": {"bikes": 0, "stands": 31, "name": "Darlington / C\u00f4te-Sainte-Catherine", "status": "OPEN", "lon": -73.621215, "lat": 45.505514, "address": "Darlington / C\u00f4te-Sainte-Catherine"}}, {"type": "Feature", "geometry": {"type": "Point", "coordinates": [-73.589848, 45.470303]}, "properties": {"bikes": 0, "stands": 19, "name": "Palm/St-Remi", "status": "OPEN", "lon": -73.589848, "lat": 45.470303, "address": "Palm/St-Remi"}}, {"type": "Feature", "geometry": {"type": "Point", "coordinates": [-73.633161, 45.501302]}, "properties": {"bikes": 0, "stands": 23, "name": "Kent / C\u00f4te-Des-Neiges", "status": "OPEN", "lon": -73.633161, "lat": 45.501302, "address": "Kent / C\u00f4te-Des-Neiges"}}, {"type": "Feature", "geometry": {"type": "Point", "coordinates": [-73.609546, 45.534795]}, "properties": {"bikes": 0, "stands": 19, "name": "Drolet/St-Zotique", "status": "OPEN", "lon": -73.609546, "lat": 45.534795, "address": "Drolet/St-Zotique"}}, {"type": "Feature", "geometry": {"type": "Point", "coordinates": [-73.574777, 45.529219]}, "properties": {"bikes": 0, "stands": 19, "name": "De Lanaudiere/Marie-Anne", "status": "OPEN", "lon": -73.574777, "lat": 45.529219, "address": "De Lanaudiere/Marie-Anne"}}, {"type": "Feature", "geometry": {"type": "Point", "coordinates": [-73.6231855, 45.49690965]}, "properties": {"bikes": 0, "stands": 15, "name": "Lacombe / C\u00f4te-des-Neiges", "status": "OPEN", "lon": -73.6231855, "lat": 45.49690965, "address": "Lacombe / C\u00f4te-des-Neiges"}}, {"type": "Feature", "geometry": {"type": "Point", "coordinates": [-73.618575, 45.497011]}, "properties": {"bikes": 0, "stands": 27, "name": "Parc Jean-Brillant (Swail / Decelles)", "status": "OPEN", "lon": -73.618575, "lat": 45.497011, "address": "Parc Jean-Brillant (Swail / Decelles)"}}, {"type": "Feature", "geometry": {"type": "Point", "coordinates": [-73.554902, 45.555029]}, "properties": {"bikes": 0, "stands": 3, "name": "Jardin Botanique", "status": "OPEN", "lon": -73.554902, "lat": 45.555029, "address": "Jardin Botanique"}}, {"type": "Feature", "geometry": {"type": "Point", "coordinates": [-73.57641, 45.536178]}, "properties": {"bikes": 0, "stands": 23, "name": "Bordeaux/Gilford", "status": "OPEN", "lon": -73.57641, "lat": 45.536178, "address": "Bordeaux/Gilford"}}, {"type": "Feature", "geometry": {"type": "Point", "coordinates": [-73.554635, 45.541814]}, "properties": {"bikes": 0, "stands": 21, "name": "M\u00e9tro Pr\u00e9fontaine (Moreau / Hochelaga)", "status": "OPEN", "lon": -73.554635, "lat": 45.541814, "address": "M\u00e9tro Pr\u00e9fontaine (Moreau / Hochelaga)"}}, {"type": "Feature", "geometry": {"type": "Point", "coordinates": [-73.551739, 45.547179]}, "properties": {"bikes": 0, "stands": 19, "name": "M\u00e9tro Joliette  (joliette/Hochelaga)", "status": "OPEN", "lon": -73.551739, "lat": 45.547179, "address": "M\u00e9tro Joliette  (joliette/Hochelaga)"}}, {"type": "Feature", "geometry": {"type": "Point", "coordinates": [-73.549502, 45.550668]}, "properties": {"bikes": 0, "stands": 11, "name": "D'Orl\u00e9ans / Hochelaga", "status": "OPEN", "lon": -73.549502, "lat": 45.550668, "address": "D'Orl\u00e9ans / Hochelaga"}}, {"type": "Feature", "geometry": {"type": "Point", "coordinates": [-73.612441, 45.541484]}, "properties": {"bikes": 0, "stands": 15, "name": "Boyer / Jean-Talon", "status": "OPEN", "lon": -73.612441, "lat": 45.541484, "address": "Boyer / Jean-Talon"}}, {"type": "Feature", "geometry": {"type": "Point", "coordinates": [-73.545609, 45.544136]}, "properties": {"bikes": 0, "stands": 13, "name": "Aylwin / Ontario", "status": "OPEN", "lon": -73.545609, "lat": 45.544136, "address": "Aylwin / Ontario"}}, {"type": "Feature", "geometry": {"type": "Point", "coordinates": [-73.547407, 45.541044]}, "properties": {"bikes": 0, "stands": 33, "name": "Ontario / D\u00e9z\u00e9ry", "status": "OPEN", "lon": -73.547407, "lat": 45.541044, "address": "Ontario / D\u00e9z\u00e9ry"}}, {"type": "Feature", "geometry": {"type": "Point", "coordinates": [-73.5438269, 45.54730353]}, "properties": {"bikes": 0, "stands": 23, "name": "Valois / Ontario", "status": "OPEN", "lon": -73.5438269, "lat": 45.54730353, "address": "Valois / Ontario"}}, {"type": "Feature", "geometry": {"type": "Point", "coordinates": [-73.548687, 45.55896]}, "properties": {"bikes": 0, "stands": 40, "name": "Pierre-de-Coubertin / Aird", "status": "OPEN", "lon": -73.548687, "lat": 45.55896, "address": "Pierre-de-Coubertin / Aird"}}, {"type": "Feature", "geometry": {"type": "Point", "coordinates": [-73.53931, 45.553491]}, "properties": {"bikes": 0, "stands": 23, "name": "March\u00e9 Maisonneuve", "status": "OPEN", "lon": -73.53931, "lat": 45.553491, "address": "March\u00e9 Maisonneuve"}}, {"type": "Feature", "geometry": {"type": "Point", "coordinates": [-73.540764, 45.551119]}, "properties": {"bikes": 0, "stands": 27, "name": "Desjardins / Ontario", "status": "OPEN", "lon": -73.540764, "lat": 45.551119, "address": "Desjardins / Ontario"}}, {"type": "Feature", "geometry": {"type": "Point", "coordinates": [-73.634319, 45.539964]}, "properties": {"bikes": 0, "stands": 15, "name": "Guizot / Saint-Laurent", "status": "OPEN", "lon": -73.634319, "lat": 45.539964, "address": "Guizot / Saint-Laurent"}}, {"type": "Feature", "geometry": {"type": "Point", "coordinates": [-73.62038255, 45.53985704]}, "properties": {"bikes": 0, "stands": 15, "name": "Faillon / Saint-Denis", "status": "OPEN", "lon": -73.62038255, "lat": 45.53985704, "address": "Faillon / Saint-Denis"}}, {"type": "Feature", "geometry": {"type": "Point", "coordinates": [-73.625894, 45.541791]}, "properties": {"bikes": 0, "stands": 15, "name": "Gounod / Saint-Denis", "status": "OPEN", "lon": -73.625894, "lat": 45.541791, "address": "Gounod / Saint-Denis"}}, {"type": "Feature", "geometry": {"type": "Point", "coordinates": [-73.630089, 45.540627]}, "properties": {"bikes": 0, "stands": 15, "name": "De Gasp\u00e9 / Jarry", "status": "OPEN", "lon": -73.630089, "lat": 45.540627, "address": "De Gasp\u00e9 / Jarry"}}, {"type": "Feature", "geometry": {"type": "Point", "coordinates": [-73.632267, 45.543376]}, "properties": {"bikes": 0, "stands": 0, "name": "Guizot / Saint-Denis", "status": "OPEN", "lon": -73.632267, "lat": 45.543376, "address": "Guizot / Saint-Denis"}}, {"type": "Feature", "geometry": {"type": "Point", "coordinates": [-73.636557, 45.542579]}, "properties": {"bikes": 0, "stands": 15, "name": "De Gasp\u00e9 / De Li\u00e8ge", "status": "OPEN", "lon": -73.636557, "lat": 45.542579, "address": "De Gasp\u00e9 / De Li\u00e8ge"}}, {"type": "Feature", "geometry": {"type": "Point", "coordinates": [-73.631103, 45.547218]}, "properties": {"bikes": 0, "stands": 15, "name": "Leman/Chateaubriand", "status": "OPEN", "lon": -73.631103, "lat": 45.547218, "address": "Leman/Chateaubriand"}}, {"type": "Feature", "geometry": {"type": "Point", "coordinates": [-73.6284, 45.543583]}, "properties": {"bikes": 0, "stands": 19, "name": "Lajeunesse / Jarry", "status": "OPEN", "lon": -73.6284, "lat": 45.543583, "address": "Lajeunesse / Jarry"}}, {"type": "Feature", "geometry": {"type": "Point", "coordinates": [-73.621581, 45.54467]}, "properties": {"bikes": 0, "stands": 15, "name": "Du Rosaire / Saint-Hubert", "status": "OPEN", "lon": -73.621581, "lat": 45.54467, "address": "Du Rosaire / Saint-Hubert"}}, {"type": "Feature", "geometry": {"type": "Point", "coordinates": [-73.617822, 45.542892]}, "properties": {"bikes": 0, "stands": 19, "name": "Faillon / Saint-Hubert", "status": "OPEN", "lon": -73.617822, "lat": 45.542892, "address": "Faillon / Saint-Hubert"}}, {"type": "Feature", "geometry": {"type": "Point", "coordinates": [-73.625377, 45.547283]}, "properties": {"bikes": 0, "stands": 14, "name": "Boyer / Jarry", "status": "OPEN", "lon": -73.625377, "lat": 45.547283, "address": "Boyer / Jarry"}}, {"type": "Feature", "geometry": {"type": "Point", "coordinates": [-73.6237, 45.4743]}, "properties": {"bikes": 0, "stands": 15, "name": "Harvard/Monkland", "status": "OPEN", "lon": -73.6237, "lat": 45.4743, "address": "Harvard/Monkland"}}, {"type": "Feature", "geometry": {"type": "Point", "coordinates": [-73.614841, 45.544867]}, "properties": {"bikes": 0, "stands": 18, "name": "De La Roche / Everett", "status": "OPEN", "lon": -73.614841, "lat": 45.544867, "address": "De La Roche / Everett"}}, {"type": "Feature", "geometry": {"type": "Point", "coordinates": [-73.570769, 45.467369]}, "properties": {"bikes": 0, "stands": 15, "name": "Regina / Verdun", "status": "OPEN", "lon": -73.570769, "lat": 45.467369, "address": "Regina / Verdun"}}, {"type": "Feature", "geometry": {"type": "Point", "coordinates": [-73.615021, 45.550551]}, "properties": {"bikes": 0, "stands": 1, "name": "Marquette / Villeray", "status": "OPEN", "lon": -73.615021, "lat": 45.550551, "address": "Marquette / Villeray"}}, {"type": "Feature", "geometry": {"type": "Point", "coordinates": [-73.610711, 45.554931]}, "properties": {"bikes": 0, "stands": 15, "name": "Louis-H\u00e9mon / Villeray", "status": "OPEN", "lon": -73.610711, "lat": 45.554931, "address": "Louis-H\u00e9mon / Villeray"}}, {"type": "Feature", "geometry": {"type": "Point", "coordinates": [-73.537669, 45.545409]}, "properties": {"bikes": 0, "stands": 3, "name": "Valois/Ste-Catherine", "status": "OPEN", "lon": -73.537669, "lat": 45.545409, "address": "Valois/Ste-Catherine"}}, {"type": "Feature", "geometry": {"type": "Point", "coordinates": [-73.599658, 45.559199]}, "properties": {"bikes": 0, "stands": 11, "name": "M\u00e9tro St-Michel ( Shaughnessy/St-Michel)", "status": "OPEN", "lon": -73.599658, "lat": 45.559199, "address": "M\u00e9tro St-Michel ( Shaughnessy/St-Michel)"}}, {"type": "Feature", "geometry": {"type": "Point", "coordinates": [-73.5646007, 45.4757434]}, "properties": {"bikes": 0, "stands": 19, "name": "Ryde/Charlevoix", "status": "OPEN", "lon": -73.5646007, "lat": 45.4757434, "address": "Ryde/Charlevoix"}}, {"type": "Feature", "geometry": {"type": "Point", "coordinates": [-73.5644, 45.4815]}, "properties": {"bikes": 0, "stands": 22, "name": "Island/Centre", "status": "OPEN", "lon": -73.5644, "lat": 45.4815, "address": "Island/Centre"}}, {"type": "Feature", "geometry": {"type": "Point", "coordinates": [-73.624872, 45.537813]}, "properties": {"bikes": 0, "stands": 15, "name": "St-Dominique / Villeray", "status": "OPEN", "lon": -73.624872, "lat": 45.537813, "address": "St-Dominique / Villeray"}}, {"type": "Feature", "geometry": {"type": "Point", "coordinates": [-73.634748458862, 45.545541556277]}, "properties": {"bikes": 0, "stands": 15, "name": "de Li\u00e8ge / Lajeunesse", "status": "OPEN", "lon": -73.634748458862, "lat": 45.545541556277, "address": "de Li\u00e8ge / Lajeunesse"}}, {"type": "Feature", "geometry": {"type": "Point", "coordinates": [-73.6234, 45.5401]}, "properties": {"bikes": 0, "stands": 11, "name": "Drolet / Villeray", "status": "OPEN", "lon": -73.6234, "lat": 45.5401, "address": "Drolet / Villeray"}}, {"type": "Feature", "geometry": {"type": "Point", "coordinates": [-73.613924, 45.471743]}, "properties": {"bikes": 0, "stands": 2, "name": "Marcil/Sherbrooke", "status": "OPEN", "lon": -73.613924, "lat": 45.471743, "address": "Marcil/Sherbrooke"}}, {"type": "Feature", "geometry": {"type": "Point", "coordinates": [-73.5373, 45.5566]}, "properties": {"bikes": 0, "stands": 19, "name": "Sicard/Ontario", "status": "OPEN", "lon": -73.5373, "lat": 45.5566, "address": "Sicard/Ontario"}}, {"type": "Feature", "geometry": {"type": "Point", "coordinates": [-73.6212, 45.4771]}, "properties": {"bikes": 0, "stands": 15, "name": "Monkland/Girouard", "status": "OPEN", "lon": -73.6212, "lat": 45.4771, "address": "Monkland/Girouard"}}, {"type": "Feature", "geometry": {"type": "Point", "coordinates": [-73.58925, 45.556905]}, "properties": {"bikes": 0, "stands": 15, "name": "12e Avenue / Saint-Zotique", "status": "OPEN", "lon": -73.58925, "lat": 45.556905, "address": "12e Avenue / Saint-Zotique"}}, {"type": "Feature", "geometry": {"type": "Point", "coordinates": [-73.592336, 45.553243]}, "properties": {"bikes": 0, "stands": 19, "name": "6e avenue /St-Zotique", "status": "OPEN", "lon": -73.592336, "lat": 45.553243, "address": "6e avenue /St-Zotique"}}, {"type": "Feature", "geometry": {"type": "Point", "coordinates": [-73.55653, 45.510499]}, "properties": {"bikes": 0, "stands": 25, "name": "M\u00e9tro Champs-de-Mars (Viger/Sanguinet)", "status": "OPEN", "lon": -73.55653, "lat": 45.510499, "address": "M\u00e9tro Champs-de-Mars (Viger/Sanguinet)"}}, {"type": "Feature", "geometry": {"type": "Point", "coordinates": [-73.58752, 45.553215]}, "properties": {"bikes": 0, "stands": 4, "name": "8e Avenue / Beaubien", "status": "OPEN", "lon": -73.58752, "lat": 45.553215, "address": "8e Avenue / Beaubien"}}, {"type": "Feature", "geometry": {"type": "Point", "coordinates": [-73.590446, 45.550476]}, "properties": {"bikes": 0, "stands": 15, "name": "1ere Avenue / Beaubien", "status": "OPEN", "lon": -73.590446, "lat": 45.550476, "address": "1ere Avenue / Beaubien"}}, {"type": "Feature", "geometry": {"type": "Point", "coordinates": [-73.58523, 45.547997]}, "properties": {"bikes": 0, "stands": 19, "name": "1ere Avenue / Rosemont", "status": "OPEN", "lon": -73.58523, "lat": 45.547997, "address": "1ere Avenue / Rosemont"}}, {"type": "Feature", "geometry": {"type": "Point", "coordinates": [-73.6198, 45.4688]}, "properties": {"bikes": 0, "stands": 15, "name": "C\u00f4te St-Antoine/Royal", "status": "OPEN", "lon": -73.6198, "lat": 45.4688, "address": "C\u00f4te St-Antoine/Royal"}}, {"type": "Feature", "geometry": {"type": "Point", "coordinates": [-73.558292, 45.549639]}, "properties": {"bikes": 0, "stands": 15, "name": "Chambly / Rachel", "status": "OPEN", "lon": -73.558292, "lat": 45.549639, "address": "Chambly / Rachel"}}, {"type": "Feature", "geometry": {"type": "Point", "coordinates": [-73.624835, 45.510042]}, "properties": {"bikes": 0, "stands": 15, "name": "Wilderton  / Van Horne", "status": "OPEN", "lon": -73.624835, "lat": 45.510042, "address": "Wilderton  / Van Horne"}}, {"type": "Feature", "geometry": {"type": "Point", "coordinates": [-73.579221, 45.547362]}, "properties": {"bikes": 0, "stands": 15, "name": "3e Avenue / Dandurand", "status": "OPEN", "lon": -73.579221, "lat": 45.547362, "address": "3e Avenue / Dandurand"}}, {"type": "Feature", "geometry": {"type": "Point", "coordinates": [-73.573755, 45.550321]}, "properties": {"bikes": 0, "stands": 19, "name": "10e Avenue / Masson", "status": "OPEN", "lon": -73.573755, "lat": 45.550321, "address": "10e Avenue / Masson"}}, {"type": "Feature", "geometry": {"type": "Point", "coordinates": [-73.6402148, 45.45639046]}, "properties": {"bikes": 0, "stands": 9, "name": "West Broadway/Sherbrooke", "status": "OPEN", "lon": -73.6402148, "lat": 45.45639046, "address": "West Broadway/Sherbrooke"}}, {"type": "Feature", "geometry": {"type": "Point", "coordinates": [-73.569847, 45.557192]}, "properties": {"bikes": 0, "stands": 15, "name": "D'Orl\u00e9ans / Masson", "status": "OPEN", "lon": -73.569847, "lat": 45.557192, "address": "D'Orl\u00e9ans / Masson"}}, {"type": "Feature", "geometry": {"type": "Point", "coordinates": [-73.575515, 45.546978]}, "properties": {"bikes": 0, "stands": 30, "name": "4e Avenue / Masson", "status": "OPEN", "lon": -73.575515, "lat": 45.546978, "address": "4e Avenue / Masson"}}, {"type": "Feature", "geometry": {"type": "Point", "coordinates": [-73.576931, 45.544099]}, "properties": {"bikes": 0, "stands": 23, "name": "Molson / Masson", "status": "OPEN", "lon": -73.576931, "lat": 45.544099, "address": "Molson / Masson"}}, {"type": "Feature", "geometry": {"type": "Point", "coordinates": [-73.569351, 45.548327]}, "properties": {"bikes": 0, "stands": 11, "name": "9e Avenue / Saint-Joseph", "status": "OPEN", "lon": -73.569351, "lat": 45.548327, "address": "9e Avenue / Saint-Joseph"}}, {"type": "Feature", "geometry": {"type": "Point", "coordinates": [-73.569531, 45.553408]}, "properties": {"bikes": 0, "stands": 19, "name": "15e Avenue / Laurier", "status": "OPEN", "lon": -73.569531, "lat": 45.553408, "address": "15e Avenue / Laurier"}}, {"type": "Feature", "geometry": {"type": "Point", "coordinates": [-73.587238, 45.477249]}, "properties": {"bikes": 0, "stands": 19, "name": "Metro Place St-Henri (St-Ferdinand/St-Jacques)", "status": "OPEN", "lon": -73.587238, "lat": 45.477249, "address": "Metro Place St-Henri (St-Ferdinand/St-Jacques)"}}, {"type": "Feature", "geometry": {"type": "Point", "coordinates": [-73.564742, 45.554165]}, "properties": {"bikes": 0, "stands": 14, "name": "18e Avenue / Saint-Joseph", "status": "OPEN", "lon": -73.564742, "lat": 45.554165, "address": "18e Avenue / Saint-Joseph"}}, {"type": "Feature", "geometry": {"type": "Point", "coordinates": [-73.56385, 45.47968]}, "properties": {"bikes": 0, "stands": 19, "name": "Grand trunk/Hibernia", "status": "OPEN", "lon": -73.56385, "lat": 45.47968, "address": "Grand trunk/Hibernia"}}, {"type": "Feature", "geometry": {"type": "Point", "coordinates": [-73.575621, 45.463257]}, "properties": {"bikes": 0, "stands": 15, "name": "Bannantyne /de l'Eglise", "status": "OPEN", "lon": -73.575621, "lat": 45.463257, "address": "Bannantyne /de l'Eglise"}}, {"type": "Feature", "geometry": {"type": "Point", "coordinates": [-73.561916, 45.551584]}, "properties": {"bikes": 0, "stands": 19, "name": "Parc J.-Arthur-Champagne (Chambly/Mont-Royal)", "status": "OPEN", "lon": -73.561916, "lat": 45.551584, "address": "Parc J.-Arthur-Champagne (Chambly/Mont-Royal)"}}, {"type": "Feature", "geometry": {"type": "Point", "coordinates": [-73.561937, 45.545474]}, "properties": {"bikes": 0, "stands": 23, "name": "Omer-Lavall\u00e9e / Midway", "status": "OPEN", "lon": -73.561937, "lat": 45.545474, "address": "Omer-Lavall\u00e9e / Midway"}}, {"type": "Feature", "geometry": {"type": "Point", "coordinates": [-73.556527, 45.545425]}, "properties": {"bikes": 0, "stands": 3, "name": "Darling / Sherbrooke", "status": "OPEN", "lon": -73.556527, "lat": 45.545425, "address": "Darling / Sherbrooke"}}, {"type": "Feature", "geometry": {"type": "Point", "coordinates": [-73.551761, 45.553879]}, "properties": {"bikes": 0, "stands": 41, "name": "M\u00e9tro Pie-IX (Pierre-de-Coubertin / Pie-IX)", "status": "OPEN", "lon": -73.551761, "lat": 45.553879, "address": "M\u00e9tro Pie-IX (Pierre-de-Coubertin / Pie-IX)"}}, {"type": "Feature", "geometry": {"type": "Point", "coordinates": [-73.603251, 45.518215]}, "properties": {"bikes": 0, "stands": 15, "name": "Parc Outremont (Bloomfield / Elmwood)", "status": "OPEN", "lon": -73.603251, "lat": 45.518215, "address": "Parc Outremont (Bloomfield / Elmwood)"}}, {"type": "Feature", "geometry": {"type": "Point", "coordinates": [-73.60628, 45.51529]}, "properties": {"bikes": 0, "stands": 15, "name": "Stuart / C\u00f4te-Ste-Catherine", "status": "OPEN", "lon": -73.60628, "lat": 45.51529, "address": "Stuart / C\u00f4te-Ste-Catherine"}}, {"type": "Feature", "geometry": {"type": "Point", "coordinates": [-73.619682, 45.514905]}, "properties": {"bikes": 0, "stands": 11, "name": "Dunlop / Van Horne", "status": "OPEN", "lon": -73.619682, "lat": 45.514905, "address": "Dunlop / Van Horne"}}, {"type": "Feature", "geometry": {"type": "Point", "coordinates": [-73.614991, 45.515617]}, "properties": {"bikes": 0, "stands": 15, "name": "Rockland / Lajoie", "status": "OPEN", "lon": -73.614991, "lat": 45.515617, "address": "Rockland / Lajoie"}}, {"type": "Feature", "geometry": {"type": "Point", "coordinates": [-73.610871, 45.514379]}, "properties": {"bikes": 0, "stands": 15, "name": "Davaar / C\u00f4te-Sainte-Catherine", "status": "OPEN", "lon": -73.610871, "lat": 45.514379, "address": "Davaar / C\u00f4te-Sainte-Catherine"}}, {"type": "Feature", "geometry": {"type": "Point", "coordinates": [-73.611429, 45.510086]}, "properties": {"bikes": 0, "stands": 38, "name": "Mont-Royal / Vincent-D'Indy ", "status": "OPEN", "lon": -73.611429, "lat": 45.510086, "address": "Mont-Royal / Vincent-D'Indy "}}, {"type": "Feature", "geometry": {"type": "Point", "coordinates": [-73.622351, 45.536152]}, "properties": {"bikes": 0, "stands": 0, "name": "Gary Carter / St-Laurent", "status": "OPEN", "lon": -73.622351, "lat": 45.536152, "address": "Gary Carter / St-Laurent"}}, {"type": "Feature", "geometry": {"type": "Point", "coordinates": [-73.617459, 45.535189]}, "properties": {"bikes": 0, "stands": 23, "name": "Saint-Dominique / Jean talon", "status": "OPEN", "lon": -73.617459, "lat": 45.535189, "address": "Saint-Dominique / Jean talon"}}, {"type": "Feature", "geometry": {"type": "Point", "coordinates": [-73.573286, 45.486457]}, "properties": {"bikes": 0, "stands": 19, "name": "Lionel-Groulx / George-Vanier", "status": "OPEN", "lon": -73.573286, "lat": 45.486457, "address": "Lionel-Groulx / George-Vanier"}}, {"type": "Feature", "geometry": {"type": "Point", "coordinates": [-73.568471074104, 45.514530838669]}, "properties": {"bikes": 0, "stands": 15, "name": "De l'H\u00f4tel-de-Ville / Sherbrooke", "status": "OPEN", "lon": -73.568471074104, "lat": 45.514530838669, "address": "De l'H\u00f4tel-de-Ville / Sherbrooke"}}, {"type": "Feature", "geometry": {"type": "Point", "coordinates": [-73.5718136, 45.5014018]}, "properties": {"bikes": 0, "stands": 0, "name": "Mansfield / Ste-Catherine ", "status": "OPEN", "lon": -73.5718136, "lat": 45.5014018, "address": "Mansfield / Ste-Catherine "}}, {"type": "Feature", "geometry": {"type": "Point", "coordinates": [-73.573489, 45.512762]}, "properties": {"bikes": 0, "stands": 19, "name": "Prince-Arthur / Saint-Urbain", "status": "OPEN", "lon": -73.573489, "lat": 45.512762, "address": "Prince-Arthur / Saint-Urbain"}}, {"type": "Feature", "geometry": {"type": "Point", "coordinates": [-73.53382, 45.512097]}, "properties": {"bikes": 0, "stands": 27, "name": "M\u00e9tro Jean-Drapeau", "status": "OPEN", "lon": -73.53382, "lat": 45.512097, "address": "M\u00e9tro Jean-Drapeau"}}, {"type": "Feature", "geometry": {"type": "Point", "coordinates": [-73.537658, 45.511146]}, "properties": {"bikes": 0, "stands": 19, "name": "Quai de la navette fluviale", "status": "OPEN", "lon": -73.537658, "lat": 45.511146, "address": "Quai de la navette fluviale"}}, {"type": "Feature", "geometry": {"type": "Point", "coordinates": [-73.624052, 45.530617]}, "properties": {"bikes": 0, "stands": 17, "name": "M\u00e9tro Parc  (Ogilvy/Hutchison)", "status": "OPEN", "lon": -73.624052, "lat": 45.530617, "address": "M\u00e9tro Parc  (Ogilvy/Hutchison)"}}, {"type": "Feature", "geometry": {"type": "Point", "coordinates": [-73.534859, 45.521769]}, "properties": {"bikes": 0, "stands": 14, "name": "La Ronde", "status": "OPEN", "lon": -73.534859, "lat": 45.521769, "address": "La Ronde"}}, {"type": "Feature", "geometry": {"type": "Point", "coordinates": [-73.6162, 45.4703]}, "properties": {"bikes": 0, "stands": 15, "name": "Wilson/Sherbrooke", "status": "OPEN", "lon": -73.6162, "lat": 45.4703, "address": "Wilson/Sherbrooke"}}, {"type": "Feature", "geometry": {"type": "Point", "coordinates": [-73.54822, 45.55325]},