{"features": [{"properties": {"bikes": 0, "status": "OPEN", "name": "Notre Dame / Place Jacques Cartier", "stands": 27, "lon": -73.553786, "address": "Notre Dame / Place Jacques Cartier", "lat": 45.508498}, "geometry": {"type": "Point", "coordinates": [-73.553786, 45.508498]}, "type": "Feature"}, {"properties": {"bikes": 0, "status": "OPEN", "name": "D\u00e9zery/Ste-Catherine", "stands": 21, "lon": -73.541019, "address": "D\u00e9zery/Ste-Catherine", "lat": 45.539185}, "geometry": {"type": "Point", "coordinates": [-73.541019, 45.539185]}, "type": "Feature"}, {"properties": {"bikes": 0, "status": "OPEN", "name": "Evans/Clark", "stands": 23, "lon": -73.567974, "address": "Evans/Clark", "lat": 45.511119}, "geometry": {"type": "Point", "coordinates": [-73.567974, 45.511119]}, "type": "Feature"}, {"properties": {"bikes": 0, "status": "OPEN", "name": "Berri / Saint-Antoine", "stands": 0, "lon": -73.553930819035, "address": "Berri / Saint-Antoine", "lat": 45.512053603271}, "geometry": {"type": "Point", "coordinates": [-73.553930819035, 45.512053603271]}, "type": "Feature"}, {"properties": {"bikes": 0, "status": "OPEN", "name": "Pr\u00e9sident-kennedy/Jeanne Mance", "stands": 23, "lon": -73.5689, "address": "Pr\u00e9sident-kennedy/Jeanne Mance", "lat": 45.508349}, "geometry": {"type": "Point", "coordinates": [-73.5689, 45.508349]}, "type": "Feature"}, {"properties": {"bikes": 0, "status": "OPEN", "name": "16e avenue/Rosemont", "stands": 3, "lon": -73.577684, "address": "16e avenue/Rosemont", "lat": 45.556752}, "geometry": {"type": "Point", "coordinates": [-73.577684, 45.556752]}, "type": "Feature"}, {"properties": {"bikes": 0, "status": "OPEN", "name": "de l'H\u00f4tel-de-Ville / Sainte-Catherine", "stands": 27, "lon": -73.562183976173, "address": "de l'H\u00f4tel-de-Ville / Sainte-Catherine", "lat": 45.511640093571}, "geometry": {"type": "Point", "coordinates": [-73.562183976173, 45.511640093571]}, "type": "Feature"}, {"properties": {"bikes": 0, "status": "OPEN", "name": "Sanguinet /Ste-Catherine", "stands": 23, "lon": -73.561438, "address": "Sanguinet /Ste-Catherine", "lat": 45.512738}, "geometry": {"type": "Point", "coordinates": [-73.561438, 45.512738]}, "type": "Feature"}, {"properties": {"bikes": 0, "status": "OPEN", "name": "Berri / Sainte-Catherine", "stands": 2, "lon": -73.559775352478, "address": "Berri / Sainte-Catherine", "lat": 45.514624813586}, "geometry": {"type": "Point", "coordinates": [-73.559775352478, 45.514624813586]}, "type": "Feature"}, {"properties": {"bikes": 0, "status": "OPEN", "name": "Sainte-Catherine / Saint-Denis", "stands": 39, "lon": -73.560547828674, "address": "Sainte-Catherine / Saint-Denis", "lat": 45.513711370744}, "geometry": {"type": "Point", "coordinates": [-73.560547828674, 45.513711370744]}, "type": "Feature"}, {"properties": {"bikes": 0, "status": "OPEN", "name": "Saint-Andr\u00e9 / Saint-Antoine", "stands": 15, "lon": -73.552439, "address": "Saint-Andr\u00e9 / Saint-Antoine", "lat": 45.514076}, "geometry": {"type": "Point", "coordinates": [-73.552439, 45.514076]}, "type": "Feature"}, {"properties": {"bikes": 0, "status": "OPEN", "name": "M\u00e9tro Saint-Laurent (Maisonneuve / St-Laurent)", "stands": 48, "lon": -73.56497, "address": "M\u00e9tro Saint-Laurent (Maisonneuve / St-Laurent)", "lat": 45.51066}, "geometry": {"type": "Point", "coordinates": [-73.56497, 45.51066]}, "type": "Feature"}, {"properties": {"bikes": 0, "status": "OPEN", "name": "Sanguinet / de Maisonneuve", "stands": 7, "lon": -73.56255, "address": "Sanguinet / de Maisonneuve", "lat": 45.51339}, "geometry": {"type": "Point", "coordinates": [-73.56255, 45.51339]}, "type": "Feature"}, {"properties": {"bikes": 0, "status": "OPEN", "name": "St-Denis / de Maisonneuve", "stands": 0, "lon": -73.562152, "address": "St-Denis / de Maisonneuve", "lat": 45.514649}, "geometry": {"type": "Point", "coordinates": [-73.562152, 45.514649]}, "type": "Feature"}, {"properties": {"bikes": 0, "status": "OPEN", "name": "Berri / de Maisonneuve", "stands": 27, "lon": -73.561273, "address": "Berri / de Maisonneuve", "lat": 45.515299}, "geometry": {"type": "Point", "coordinates": [-73.561273, 45.515299]}, "type": "Feature"}, {"properties": {"bikes": 0, "status": "OPEN", "name": "Jacques Le Ber/Ch Pointe Nord", "stands": 2, "lon": -73.539285, "address": "Jacques Le Ber/Ch Pointe Nord", "lat": 45.472503}, "geometry": {"type": "Point", "coordinates": [-73.539285, 45.472503]}, "type": "Feature"}, {"properties": {"bikes": 0, "status": "OPEN", "name": "Square Ahmerst/Wolfe", "stands": 14, "lon": -73.5637571, "address": "Square Ahmerst/Wolfe", "lat": 45.52106924}, "geometry": {"type": "Point", "coordinates": [-73.5637571, 45.52106924]}, "type": "Feature"}, {"properties": {"bikes": 0, "status": "OPEN", "name": "Saint-Andr\u00e9 / Ontario", "stands": 17, "lon": -73.56353, "address": "Saint-Andr\u00e9 / Ontario", "lat": 45.51889}, "geometry": {"type": "Point", "coordinates": [-73.56353, 45.51889]}, "type": "Feature"}, {"properties": {"bikes": 0, "status": "OPEN", "name": "Berri / Sherbrooke", "stands": 27, "lon": -73.567205, "address": "Berri / Sherbrooke", "lat": 45.517836}, "geometry": {"type": "Point", "coordinates": [-73.567205, 45.517836]}, "type": "Feature"}, {"properties": {"bikes": 0, "status": "OPEN", "name": "Sanguinet / Ontario", "stands": 23, "lon": -73.565338, "address": "Sanguinet / Ontario", "lat": 45.514784}, "geometry": {"type": "Point", "coordinates": [-73.565338, 45.514784]}, "type": "Feature"}, {"properties": {"bikes": 0, "status": "OPEN", "name": "Montcalm/Ontario", "stands": 19, "lon": -73.562441, "address": "Montcalm/Ontario", "lat": 45.521165}, "geometry": {"type": "Point", "coordinates": [-73.562441, 45.521165]}, "type": "Feature"}, {"properties": {"bikes": 0, "status": "OPEN", "name": "de la Commune / Berri", "stands": 36, "lon": -73.54983, "address": "de la Commune / Berri", "lat": 45.51086}, "geometry": {"type": "Point", "coordinates": [-73.54983, 45.51086]}, "type": "Feature"}, {"properties": {"bikes": 0, "status": "OPEN", "name": "Des \u00c9rables/ Sherbrooke", "stands": 15, "lon": -73.562624, "address": "Des \u00c9rables/ Sherbrooke", "lat": 45.531367}, "geometry": {"type": "Point", "coordinates": [-73.562624, 45.531367]}, "type": "Feature"}, {"properties": {"bikes": 0, "status": "OPEN", "name": "Notre-Dame / Saint-Gabriel", "stands": 0, "lon": -73.555119037628, "address": "Notre-Dame / Saint-Gabriel", "lat": 45.507143919284}, "geometry": {"type": "Point", "coordinates": [-73.555119037628, 45.507143919284]}, "type": "Feature"}, {"properties": {"bikes": 0, "status": "OPEN", "name": "de la Commune / Place Jacques-Cartier", "stands": 54, "lon": -73.552007675171, "address": "de la Commune / Place Jacques-Cartier", "lat": 45.507192792674}, "geometry": {"type": "Point", "coordinates": [-73.552007675171, 45.507192792674]}, "type": "Feature"}, {"properties": {"bikes": 0, "status": "OPEN", "name": "Belair/St-Antoine", "stands": 23, "lon": -73.584352, "address": "Belair/St-Antoine", "lat": 45.482843}, "geometry": {"type": "Point", "coordinates": [-73.584352, 45.482843]}, "type": "Feature"}, {"properties": {"bikes": 0, "status": "OPEN", "name": "Saint-Antoine / Saint-Fran\u00e7ois-Xavier", "stands": 15, "lon": -73.5592, "address": "Saint-Antoine / Saint-Fran\u00e7ois-Xavier", "lat": 45.50449}, "geometry": {"type": "Point", "coordinates": [-73.5592, 45.50449]}, "type": "Feature"}, {"properties": {"bikes": 0, "status": "OPEN", "name": "M\u00e9tro Place-d'Armes (Viger/St-Urbain)", "stands": 0, "lon": -73.55976, "address": "M\u00e9tro Place-d'Armes (Viger/St-Urbain)", "lat": 45.50623}, "geometry": {"type": "Point", "coordinates": [-73.55976, 45.50623]}, "type": "Feature"}, {"properties": {"bikes": 0, "status": "OPEN", "name": "18e av/beaubien", "stands": 27, "lon": -73.582429, "address": "18e av/beaubien", "lat": 45.559761}, "geometry": {"type": "Point", "coordinates": [-73.582429, 45.559761]}, "type": "Feature"}, {"properties": {"bikes": 0, "status": "OPEN", "name": "Saint-Urbain / Ren\u00e9-L\u00e9vesque", "stands": 39, "lon": -73.563112, "address": "Saint-Urbain / Ren\u00e9-L\u00e9vesque", "lat": 45.5079}, "geometry": {"type": "Point", "coordinates": [-73.563112, 45.5079]}, "type": "Feature"}, {"properties": {"bikes": 0, "status": "OPEN", "name": "Viger/Jeanne Mance", "stands": 3, "lon": -73.5612, "address": "Viger/Jeanne Mance", "lat": 45.504803}, "geometry": {"type": "Point", "coordinates": [-73.5612, 45.504803]}, "type": "Feature"}, {"properties": {"bikes": 0, "status": "OPEN", "name": "de la Commune / Saint-Sulpice", "stands": 43, "lon": -73.553606271744, "address": "de la Commune / Saint-Sulpice", "lat": 45.504068569843}, "geometry": {"type": "Point", "coordinates": [-73.553606271744, 45.504068569843]}, "type": "Feature"}, {"properties": {"bikes": 0, "status": "OPEN", "name": "Saint-Nicolas / Place d'Youville", "stands": 14, "lon": -73.555156588554, "address": "Saint-Nicolas / Place d'Youville", "lat": 45.501974378779}, "geometry": {"type": "Point", "coordinates": [-73.555156588554, 45.501974378779]}, "type": "Feature"}, {"properties": {"bikes": 0, "status": "OPEN", "name": "McGill / d'Youville", "stands": 23, "lon": -73.55566, "address": "McGill / d'Youville", "lat": 45.49975}, "geometry": {"type": "Point", "coordinates": [-73.55566, 45.49975]}, "type": "Feature"}, {"properties": {"bikes": 0, "status": "OPEN", "name": "McGill / des R\u00e9collets", "stands": 12, "lon": -73.558826, "address": "McGill / des R\u00e9collets", "lat": 45.500779}, "geometry": {"type": "Point", "coordinates": [-73.558826, 45.500779]}, "type": "Feature"}, {"properties": {"bikes": 0, "status": "OPEN", "name": "Saint-Jacques / Saint-Pierre", "stands": 22, "lon": -73.55917, "address": "Saint-Jacques / Saint-Pierre", "lat": 45.5028}, "geometry": {"type": "Point", "coordinates": [-73.55917, 45.5028]}, "type": "Feature"}, {"properties": {"bikes": 0, "status": "OPEN", "name": "Saint-Jacques / Gauvin", "stands": 10, "lon": -73.561082, "address": "Saint-Jacques / Gauvin", "lat": 45.500674}, "geometry": {"type": "Point", "coordinates": [-73.561082, 45.500674]}, "type": "Feature"}, {"properties": {"bikes": 0, "status": "OPEN", "name": "de la Gaucheti\u00e8re / University", "stands": 3, "lon": -73.565354, "address": "de la Gaucheti\u00e8re / University", "lat": 45.500675}, "geometry": {"type": "Point", "coordinates": [-73.565354, 45.500675]}, "type": "Feature"}, {"properties": {"bikes": 0, "status": "OPEN", "name": "Square Victoria", "stands": 1, "lon": -73.56295, "address": "Square Victoria", "lat": 45.50206}, "geometry": {"type": "Point", "coordinates": [-73.56295, 45.50206]}, "type": "Feature"}, {"properties": {"bikes": 0, "status": "OPEN", "name": "Rue St-Andr\u00e9 / Roy", "stands": 15, "lon": -73.570209, "address": "Rue St-Andr\u00e9 / Roy", "lat": 45.52169}, "geometry": {"type": "Point", "coordinates": [-73.570209, 45.52169]}, "type": "Feature"}, {"properties": {"bikes": 0, "status": "OPEN", "name": "de la Gaucheti\u00e8re / Mansfield", "stands": 0, "lon": -73.56671, "address": "de la Gaucheti\u00e8re / Mansfield", "lat": 45.49871}, "geometry": {"type": "Point", "coordinates": [-73.56671, 45.49871]}, "type": "Feature"}, {"properties": {"bikes": 0, "status": "OPEN", "name": "Milton / Durocher", "stands": 31, "lon": -73.574707, "address": "Milton / Durocher", "lat": 45.508231}, "geometry": {"type": "Point", "coordinates": [-73.574707, 45.508231]}, "type": "Feature"}, {"properties": {"bikes": 0, "status": "OPEN", "name": "King / Wellington", "stands": 0, "lon": -73.55488, "address": "King / Wellington", "lat": 45.4982}, "geometry": {"type": "Point", "coordinates": [-73.55488, 45.4982]}, "type": "Feature"}, {"properties": {"bikes": 0, "status": "OPEN", "name": "de la Commune / McGill", "stands": 0, "lon": -73.55232, "address": "de la Commune / McGill", "lat": 45.49886}, "geometry": {"type": "Point", "coordinates": [-73.55232, 45.49886]}, "type": "Feature"}, {"properties": {"bikes": 0, "status": "OPEN", "name": "De Gasp\u00e9 / Marmier", "stands": 3, "lon": -73.601728, "address": "De Gasp\u00e9 / Marmier", "lat": 45.529686}, "geometry": {"type": "Point", "coordinates": [-73.601728, 45.529686]}, "type": "Feature"}, {"properties": {"bikes": 0, "status": "OPEN", "name": "De la Commune / King", "stands": 39, "lon": -73.552802, "address": "De la Commune / King", "lat": 45.497438}, "geometry": {"type": "Point", "coordinates": [-73.552802, 45.497438]}, "type": "Feature"}, {"properties": {"bikes": 0, "status": "OPEN", "name": "Belmont / Beaver Hall", "stands": 16, "lon": -73.565138, "address": "Belmont / Beaver Hall", "lat": 45.502326}, "geometry": {"type": "Point", "coordinates": [-73.565138, 45.502326]}, "type": "Feature"}, {"properties": {"bikes": 0, "status": "OPEN", "name": "Peel / ave des Canadiens de Montr\u00e9al", "stands": 0, "lon": -73.568646, "address": "Peel / ave des Canadiens de Montr\u00e9al", "lat": 45.497697}, "geometry": {"type": "Point", "coordinates": [-73.568646, 45.497697]}, "type": "Feature"}, {"properties": {"bikes": 0, "status": "OPEN", "name": "Drummond / Rene Levesque", "stands": 0, "lon": -73.571384, "address": "Drummond / Rene Levesque", "lat": 45.497196}, "geometry": {"type": "Point", "coordinates": [-73.571384, 45.497196]}, "type": "Feature"}, {"properties": {"bikes": 0, "status": "OPEN", "name": "Metcalfe / Sainte-Catherine", "stands": 31, "lon": -73.572156429291, "address": "Metcalfe / Sainte-Catherine", "lat": 45.500684739422}, "geometry": {"type": "Point", "coordinates": [-73.572156429291, 45.500684739422]}, "type": "Feature"}, {"properties": {"bikes": 0, "status": "OPEN", "name": "Mansfield / Ren\u00e9-L\u00e9vesque", "stands": 6, "lon": -73.56928, "address": "Mansfield / Ren\u00e9-L\u00e9vesque", "lat": 45.50015}, "geometry": {"type": "Point", "coordinates": [-73.56928, 45.50015]}, "type": "Feature"}, {"properties": {"bikes": 0, "status": "OPEN", "name": "Sainte-Catherine / McGill College", "stands": 0, "lon": -73.57128, "address": "Sainte-Catherine / McGill College", "lat": 45.50176}, "geometry": {"type": "Point", "coordinates": [-73.57128, 45.50176]}, "type": "Feature"}, {"properties": {"bikes": 0, "status": "OPEN", "name": "Drummond / Sainte-Catherine", "stands": 0, "lon": -73.57422709465, "address": "Drummond / Sainte-Catherine", "lat": 45.498639303304}, "geometry": {"type": "Point", "coordinates": [-73.57422709465, 45.498639303304]}, "type": "Feature"}, {"properties": {"bikes": 0, "status": "OPEN", "name": "Drummond / de Maisonneuve", "stands": 0, "lon": -73.57591, "address": "Drummond / de Maisonneuve", "lat": 45.49947}, "geometry": {"type": "Point", "coordinates": [-73.57591, 45.49947]}, "type": "Feature"}, {"properties": {"bikes": 0, "status": "OPEN", "name": "de Maisonneuve / Stanley", "stands": 41, "lon": -73.57507, "address": "de Maisonneuve / Stanley", "lat": 45.50038}, "geometry": {"type": "Point", "coordinates": [-73.57507, 45.50038]}, "type": "Feature"}, {"properties": {"bikes": 0, "status": "OPEN", "name": "de la montagne / Sherbrooke", "stands": 18, "lon": -73.57869, "address": "de la montagne / Sherbrooke", "lat": 45.499532}, "geometry": {"type": "Point", "coordinates": [-73.57869, 45.499532]}, "type": "Feature"}, {"properties": {"bikes": 0, "status": "OPEN", "name": "de Maisonneuve / University", "stands": 23, "lon": -73.572103, "address": "de Maisonneuve / University", "lat": 45.503475}, "geometry": {"type": "Point", "coordinates": [-73.572103, 45.503475]}, "type": "Feature"}, {"properties": {"bikes": 0, "status": "OPEN", "name": "Mansfield / Sherbrooke", "stands": 12, "lon": -73.57505, "address": "Mansfield / Sherbrooke", "lat": 45.50297}, "geometry": {"type": "Point", "coordinates": [-73.57505, 45.50297]}, "type": "Feature"}, {"properties": {"bikes": 0, "status": "OPEN", "name": "University / Milton", "stands": 0, "lon": -73.57622, "address": "University / Milton", "lat": 45.50624}, "geometry": {"type": "Point", "coordinates": [-73.57622, 45.50624]}, "type": "Feature"}, {"properties": {"bikes": 0, "status": "OPEN", "name": "de Maisonneuve / Aylmer", "stands": 0, "lon": -73.57069, "address": "de Maisonneuve / Aylmer", "lat": 45.50501}, "geometry": {"type": "Point", "coordinates": [-73.57069, 45.50501]}, "type": "Feature"}, {"properties": {"bikes": 0, "status": "OPEN", "name": "St-Cl\u00e9ment/Ste-Catherine", "stands": 18, "lon": -73.530067, "address": "St-Cl\u00e9ment/Ste-Catherine", "lat": 45.556225}, "geometry": {"type": "Point", "coordinates": [-73.530067, 45.556225]}, "type": "Feature"}, {"properties": {"bikes": 0, "status": "OPEN", "name": "de Maisonneuve / de Bleury", "stands": 68, "lon": -73.56917, "address": "de Maisonneuve / de Bleury", "lat": 45.50708}, "geometry": {"type": "Point", "coordinates": [-73.56917, 45.50708]}, "type": "Feature"}, {"properties": {"bikes": 0, "status": "OPEN", "name": "Mackay / Ren\u00e9-L\u00e9vesque", "stands": 3, "lon": -73.57417345047, "address": "Mackay / Ren\u00e9-L\u00e9vesque", "lat": 45.494499323782}, "geometry": {"type": "Point", "coordinates": [-73.57417345047, 45.494499323782]}, "type": "Feature"}, {"properties": {"bikes": 0, "status": "OPEN", "name": "  Saint-Alexandre / Sainte-Catherine", "stands": 33, "lon": -73.5676195, "address": "  Saint-Alexandre / Sainte-Catherine", "lat": 45.50537693}, "geometry": {"type": "Point", "coordinates": [-73.5676195, 45.50537693]}, "type": "Feature"}, {"properties": {"bikes": 0, "status": "OPEN", "name": "6e avenue/Rosemont", "stands": 13, "lon": -73.582883, "address": "6e avenue/Rosemont", "lat": 45.550613}, "geometry": {"type": "Point", "coordinates": [-73.582883, 45.550613]}, "type": "Feature"}, {"properties": {"bikes": 0, "status": "OPEN", "name": "Square Phillips", "stands": 31, "lon": -73.5686929, "address": "Square Phillips", "lat": 45.5041581}, "geometry": {"type": "Point", "coordinates": [-73.5686929, 45.5041581]}, "type": "Feature"}, {"properties": {"bikes": 0, "status": "OPEN", "name": "Lambert-Closse / Tupper", "stands": 19, "lon": -73.582445, "address": "Lambert-Closse / Tupper", "lat": 45.489609}, "geometry": {"type": "Point", "coordinates": [-73.582445, 45.489609]}, "type": "Feature"}, {"properties": {"bikes": 0, "status": "OPEN", "name": "Notre-Dame / Peel", "stands": 38, "lon": -73.56328, "address": "Notre-Dame / Peel", "lat": 45.4952}, "geometry": {"type": "Point", "coordinates": [-73.56328, 45.4952]}, "type": "Feature"}, {"properties": {"bikes": 0, "status": "OPEN", "name": "Saint-Jacques / Guy", "stands": 15, "lon": -73.57015, "address": "Saint-Jacques / Guy", "lat": 45.49138}, "geometry": {"type": "Point", "coordinates": [-73.57015, 45.49138]}, "type": "Feature"}, {"properties": {"bikes": 0, "status": "OPEN", "name": "M\u00e9tro Lucien-L'Allier  (Lucien l'Allier/Argyle)", "stands": 17, "lon": -73.57108, "address": "M\u00e9tro Lucien-L'Allier  (Lucien l'Allier/Argyle)", "lat": 45.49486}, "geometry": {"type": "Point", "coordinates": [-73.57108, 45.49486]}, "type": "Feature"}, {"properties": {"bikes": 0, "status": "OPEN", "name": "Joseph Manceau / Ren\u00e9-L\u00e9vesque", "stands": 0, "lon": -73.576453, "address": "Joseph Manceau / Ren\u00e9-L\u00e9vesque", "lat": 45.492147}, "geometry": {"type": "Point", "coordinates": [-73.576453, 45.492147]}, "type": "Feature"}, {"properties": {"bikes": 0, "status": "OPEN", "name": "Crescent / Ren\u00e9-L\u00e9vesque", "stands": 0, "lon": -73.57348, "address": "Crescent / Ren\u00e9-L\u00e9vesque", "lat": 45.49606}, "geometry": {"type": "Point", "coordinates": [-73.57348, 45.49606]}, "type": "Feature"}, {"properties": {"bikes": 0, "status": "OPEN", "name": "Chateaubriand / Beaubien", "stands": 27, "lon": -73.603522, "address": "Chateaubriand / Beaubien", "lat": 45.535431}, "geometry": {"type": "Point", "coordinates": [-73.603522, 45.535431]}, "type": "Feature"}, {"properties": {"bikes": 0, "status": "OPEN", "name": "M\u00e9tro Atwater (Atwater / Maisonneuve)", "stands": 15, "lon": -73.585962, "address": "M\u00e9tro Atwater (Atwater / Maisonneuve)", "lat": 45.489904}, "geometry": {"type": "Point", "coordinates": [-73.585962, 45.489904]}, "type": "Feature"}, {"properties": {"bikes": 0, "status": "OPEN", "name": "Chomedey / de Maisonneuve", "stands": 19, "lon": -73.5838, "address": "Chomedey / de Maisonneuve", "lat": 45.49156}, "geometry": {"type": "Point", "coordinates": [-73.5838, 45.49156]}, "type": "Feature"}, {"properties": {"bikes": 0, "status": "OPEN", "name": "Lucien L'Allier / St-Jacques", "stands": 16, "lon": -73.5684255, "address": "Lucien L'Allier / St-Jacques", "lat": 45.49352163}, "geometry": {"type": "Point", "coordinates": [-73.5684255, 45.49352163]}, "type": "Feature"}, {"properties": {"bikes": 0, "status": "OPEN", "name": "Towers/ Ste-Catherine", "stands": 25, "lon": -73.581088, "address": "Towers/ Ste-Catherine", "lat": 45.492504}, "geometry": {"type": "Point", "coordinates": [-73.581088, 45.492504]}, "type": "Feature"}, {"properties": {"bikes": 0, "status": "OPEN", "name": "Bishop / Sainte-Catherine", "stands": 27, "lon": -73.57616, "address": "Bishop / Sainte-Catherine", "lat": 45.49642}, "geometry": {"type": "Point", "coordinates": [-73.57616, 45.49642]}, "type": "Feature"}, {"properties": {"bikes": 0, "status": "OPEN", "name": "Bishop / de Maisonneuve", "stands": 0, "lon": -73.57791245, "address": "Bishop / de Maisonneuve", "lat": 45.49742103}, "geometry": {"type": "Point", "coordinates": [-73.57791245, 45.49742103]}, "type": "Feature"}, {"properties": {"bikes": 0, "status": "OPEN", "name": "de Maisonneuve / Mackay", "stands": 34, "lon": -73.57851, "address": "de Maisonneuve / Mackay", "lat": 45.49659}, "geometry": {"type": "Point", "coordinates": [-73.57851, 45.49659]}, "type": "Feature"}, {"properties": {"bikes": 0, "status": "OPEN", "name": "Metro Villa Maria (D\u00e9carie / Monkland)", "stands": 11, "lon": -73.61979, "address": "Metro Villa Maria (D\u00e9carie / Monkland)", "lat": 45.479483}, "geometry": {"type": "Point", "coordinates": [-73.61979, 45.479483]}, "type": "Feature"}, {"properties": {"bikes": 0, "status": "OPEN", "name": "Lincoln / Dufort", "stands": 15, "lon": -73.583836, "address": "Lincoln / Dufort", "lat": 45.493034}, "geometry": {"type": "Point", "coordinates": [-73.583836, 45.493034]}, "type": "Feature"}, {"properties": {"bikes": 0, "status": "OPEN", "name": "Lesp\u00e9rance/Rouen", "stands": 19, "lon": -73.552496, "address": "Lesp\u00e9rance/Rouen", "lat": 45.538799}, "geometry": {"type": "Point", "coordinates": [-73.552496, 45.538799]}, "type": "Feature"}, {"properties": {"bikes": 0, "status": "OPEN", "name": "Wolfe / Ren\u00e9-L\u00e9vesque", "stands": 12, "lon": -73.554174900055, "address": "Wolfe / Ren\u00e9-L\u00e9vesque", "lat": 45.516872646827}, "geometry": {"type": "Point", "coordinates": [-73.554174900055, 45.516872646827]}, "type": "Feature"}, {"properties": {"bikes": 0, "status": "OPEN", "name": "Plessis / Ren\u00e9-L\u00e9vesque", "stands": 19, "lon": -73.552, "address": "Plessis / Ren\u00e9-L\u00e9vesque", "lat": 45.51954}, "geometry": {"type": "Point", "coordinates": [-73.552, 45.51954]}, "type": "Feature"}, {"properties": {"bikes": 0, "status": "OPEN", "name": "Ren\u00e9-L\u00e9vesque / Papineau", "stands": 4, "lon": -73.54926, "address": "Ren\u00e9-L\u00e9vesque / Papineau", "lat": 45.52114}, "geometry": {"type": "Point", "coordinates": [-73.54926, 45.52114]}, "type": "Feature"}, {"properties": {"bikes": 0, "status": "OPEN", "name": "St-Mathieu /Ste-Catherine ", "stands": 21, "lon": -73.579186, "address": "St-Mathieu /Ste-Catherine ", "lat": 45.493718}, "geometry": {"type": "Point", "coordinates": [-73.579186, 45.493718]}, "type": "Feature"}, {"properties": {"bikes": 0, "status": "OPEN", "name": "Logan / Fullum", "stands": 19, "lon": -73.55108499527, "address": "Logan / Fullum", "lat": 45.528448693514}, "geometry": {"type": "Point", "coordinates": [-73.55108499527, 45.528448693514]}, "type": "Feature"}, {"properties": {"bikes": 0, "status": "OPEN", "name": "Plage du parc Jean-Drapeau", "stands": 15, "lon": -73.52186, "address": "Plage du parc Jean-Drapeau", "lat": 45.498293}, "geometry": {"type": "Point", "coordinates": [-73.52186, 45.498293]}, "type": "Feature"}, {"properties": {"bikes": 0, "status": "OPEN", "name": "Poupart / Sainte-Catherine", "stands": 14, "lon": -73.54641, "address": "Poupart / Sainte-Catherine", "lat": 45.529033}, "geometry": {"type": "Point", "coordinates": [-73.54641, 45.529033]}, "type": "Feature"}, {"properties": {"bikes": 0, "status": "OPEN", "name": "Parthenais / Sainte-Catherine", "stands": 18, "lon": -73.54933, "address": "Parthenais / Sainte-Catherine", "lat": 45.52622}, "geometry": {"type": "Point", "coordinates": [-73.54933, 45.52622]}, "type": "Feature"}, {"properties": {"bikes": 0, "status": "OPEN", "name": "Montcalm/Maisonneuve", "stands": 19, "lon": -73.55786, "address": "Montcalm/Maisonneuve", "lat": 45.519157}, "geometry": {"type": "Point", "coordinates": [-73.55786, 45.519157]}, "type": "Feature"}, {"properties": {"bikes": 0, "status": "OPEN", "name": "Alexandre-DeS\u00e8ve / Maisonneuve", "stands": 19, "lon": -73.55534, "address": "Alexandre-DeS\u00e8ve / Maisonneuve", "lat": 45.5219}, "geometry": {"type": "Point", "coordinates": [-73.55534, 45.5219]}, "type": "Feature"}, {"properties": {"bikes": 0, "status": "OPEN", "name": "M\u00e9tro Papineau (Cartier / Ste-Catherine)", "stands": 24, "lon": -73.55199, "address": "M\u00e9tro Papineau (Cartier / Ste-Catherine)", "lat": 45.52353}, "geometry": {"type": "Point", "coordinates": [-73.55199, 45.52353]}, "type": "Feature"}, {"properties": {"bikes": 0, "status": "OPEN", "name": "Benny/ Monkland", "stands": 15, "lon": -73.631664, "address": "Benny/ Monkland", "lat": 45.466965}, "geometry": {"type": "Point", "coordinates": [-73.631664, 45.466965]}, "type": "Feature"}, {"properties": {"bikes": 0, "status": "OPEN", "name": "Plessis / Ontario", "stands": 19, "lon": -73.560941, "address": "Plessis / Ontario", "lat": 45.523584}, "geometry": {"type": "Point", "coordinates": [-73.560941, 45.523584]}, "type": "Feature"}, {"properties": {"bikes": 0, "status": "OPEN", "name": "Robin / de la Visitation", "stands": 15, "lon": -73.55922, "address": "Robin / de la Visitation", "lat": 45.52087}, "geometry": {"type": "Point", "coordinates": [-73.55922, 45.52087]}, "type": "Feature"}, {"properties": {"bikes": 0, "status": "OPEN", "name": "Champlain / Ontario", "stands": 19, "lon": -73.560035526752, "address": "Champlain / Ontario", "lat": 45.5250475373}, "geometry": {"type": "Point", "coordinates": [-73.560035526752, 45.5250475373]}, "type": "Feature"}, {"properties": {"bikes": 0, "status": "OPEN", "name": "Dorion / Ontario", "stands": 23, "lon": -73.558021, "address": "Dorion / Ontario", "lat": 45.52697}, "geometry": {"type": "Point", "coordinates": [-73.558021, 45.52697]}, "type": "Feature"}, {"properties": {"bikes": 0, "status": "OPEN", "name": "Ontario/Du Havre", "stands": 0, "lon": -73.5521968, "address": "Ontario/Du Havre", "lat": 45.5336609}, "geometry": {"type": "Point", "coordinates": [-73.5521968, 45.5336609]}, "type": "Feature"}, {"properties": {"bikes": 0, "status": "OPEN", "name": "Du havre/Rouen", "stands": 23, "lon": -73.5553577, "address": "Du havre/Rouen", "lat": 45.53480699}, "geometry": {"type": "Point", "coordinates": [-73.5553577, 45.53480699]}, "type": "Feature"}, {"properties": {"bikes": 0, "status": "OPEN", "name": "Logan / d'Iberville", "stands": 13, "lon": -73.54913, "address": "Logan / d'Iberville", "lat": 45.53057}, "geometry": {"type": "Point", "coordinates": [-73.54913, 45.53057]}, "type": "Feature"}, {"properties": {"bikes": 0, "status": "OPEN", "name": "Alexandre de S\u00e8ve / La Fontaine", "stands": 14, "lon": -73.558187, "address": "Alexandre de S\u00e8ve / La Fontaine", "lat": 45.523217}, "geometry": {"type": "Point", "coordinates": [-73.558187, 45.523217]}, "type": "Feature"}, {"properties": {"bikes": 0, "status": "OPEN", "name": "Poupart/Ontario", "stands": 23, "lon": -73.553478, "address": "Poupart/Ontario", "lat": 45.531834}, "geometry": {"type": "Point", "coordinates": [-73.553478, 45.531834]}, "type": "Feature"}, {"properties": {"bikes": 0, "status": "OPEN", "name": "Ellendale/C\u00f4te-Des-Neiges", "stands": 13, "lon": -73.629298, "address": "Ellendale/C\u00f4te-Des-Neiges", "lat": 45.499757}, "geometry": {"type": "Point", "coordinates": [-73.629298, 45.499757]}, "type": "Feature"}, {"properties": {"bikes": 0, "status": "OPEN", "name": "Rouen / Fullum", "stands": 0, "lon": -73.55859, "address": "Rouen / Fullum", "lat": 45.53217}, "geometry": {"type": "Point", "coordinates": [-73.55859, 45.53217]}, "type": "Feature"}, {"properties": {"bikes": 0, "status": "OPEN", "name": "Henri Julien/Castelneau", "stands": 11, "lon": -73.618323, "address": "Henri Julien/Castelneau", "lat": 45.537877}, "geometry": {"type": "Point", "coordinates": [-73.618323, 45.537877]}, "type": "Feature"}, {"properties": {"bikes": 0, "status": "OPEN", "name": "Wurtele / Ontario", "stands": 0, "lon": -73.5502642, "address": "Wurtele / Ontario", "lat": 45.53643778}, "geometry": {"type": "Point", "coordinates": [-73.5502642, 45.53643778]}, "type": "Feature"}, {"properties": {"bikes": 0, "status": "OPEN", "name": "Sherbrooke / Frontenac", "stands": 15, "lon": -73.56081, "address": "Sherbrooke / Frontenac", "lat": 45.5367}, "geometry": {"type": "Point", "coordinates": [-73.56081, 45.5367]}, "type": "Feature"}, {"properties": {"bikes": 0, "status": "OPEN", "name": "Fullum / Sherbrooke ", "stands": 35, "lon": -73.562425, "address": "Fullum / Sherbrooke ", "lat": 45.533924}, "geometry": {"type": "Point", "coordinates": [-73.562425, 45.533924]}, "type": "Feature"}, {"properties": {"bikes": 0, "status": "OPEN", "name": "Terasse Mercure / Fulum", "stands": 19, "lon": -73.566014, "address": "Terasse Mercure / Fulum", "lat": 45.535614}, "geometry": {"type": "Point", "coordinates": [-73.566014, 45.535614]}, "type": "Feature"}, {"properties": {"bikes": 0, "status": "OPEN", "name": "de Bordeaux / Sherbrooke", "stands": 15, "lon": -73.563176393509, "address": "de Bordeaux / Sherbrooke", "lat": 45.530027060788}, "geometry": {"type": "Point", "coordinates": [-73.563176393509, 45.530027060788]}, "type": "Feature"}, {"properties": {"bikes": 0, "status": "OPEN", "name": "Sainte-Famille / Sherbrooke", "stands": 23, "lon": -73.570654, "address": "Sainte-Famille / Sherbrooke", "lat": 45.510016}, "geometry": {"type": "Point", "coordinates": [-73.570654, 45.510016]}, "type": "Feature"}, {"properties": {"bikes": 0, "status": "OPEN", "name": "University / Prince-Arthur", "stands": 39, "lon": -73.57845, "address": "University / Prince-Arthur", "lat": 45.50733}, "geometry": {"type": "Point", "coordinates": [-73.57845, 45.50733]}, "type": "Feature"}, {"properties": {"bikes": 0, "status": "OPEN", "name": "Hutchison/ Prince Arthur", "stands": 0, "lon": -73.576105, "address": "Hutchison/ Prince Arthur", "lat": 45.509864}, "geometry": {"type": "Point", "coordinates": [-73.576105, 45.509864]}, "type": "Feature"}, {"properties": {"bikes": 0, "status": "OPEN", "name": "Molson / William - Tremblay", "stands": 18, "lon": -73.565258, "address": "Molson / William - Tremblay", "lat": 45.541532}, "geometry": {"type": "Point", "coordinates": [-73.565258, 45.541532]}, "type": "Feature"}, {"properties": {"bikes": 0, "status": "OPEN", "name": "Atwater / Sherbrooke", "stands": 22, "lon": -73.587809801102, "address": "Atwater / Sherbrooke", "lat": 45.491321748861}, "geometry": {"type": "Point", "coordinates": [-73.587809801102, 45.491321748861]}, "type": "Feature"}, {"properties": {"bikes": 0, "status": "OPEN", "name": "Drolet / Beaubien", "stands": 19, "lon": -73.605834, "address": "Drolet / Beaubien", "lat": 45.533348}, "geometry": {"type": "Point", "coordinates": [-73.605834, 45.533348]}, "type": "Feature"}, {"properties": {"bikes": 0, "status": "OPEN", "name": "Casgrain/ Beaubien", "stands": 19, "lon": -73.607339, "address": "Casgrain/ Beaubien", "lat": 45.53136864}, "geometry": {"type": "Point", "coordinates": [-73.607339, 45.53136864]}, "type": "Feature"}, {"properties": {"bikes": 0, "status": "OPEN", "name": "Parc du P\u00e9lican (2e ave/St-Joseph)", "stands": 19, "lon": -73.571564, "address": "Parc du P\u00e9lican (2e ave/St-Joseph)", "lat": 45.544513}, "geometry": {"type": "Point", "coordinates": [-73.571564, 45.544513]}, "type": "Feature"}, {"properties": {"bikes": 0, "status": "OPEN", "name": "9e Avenue / Dandurand", "stands": 11, "lon": -73.57711, "address": "9e Avenue / Dandurand", "lat": 45.550769}, "geometry": {"type": "Point", "coordinates": [-73.57711, 45.550769]}, "type": "Feature"}, {"properties": {"bikes": 0, "status": "OPEN", "name": "Marquette / Jean-Talon", "stands": 19, "lon": -73.60760986805, "address": "Marquette / Jean-Talon", "lat": 45.547356123152}, "geometry": {"type": "Point", "coordinates": [-73.60760986805, 45.547356123152]}, "type": "Feature"}, {"properties": {"bikes": 0, "status": "OPEN", "name": "des \u00c9cores / Jean-Talon", "stands": 19, "lon": -73.603001832962, "address": "des \u00c9cores / Jean-Talon", "lat": 45.552442609135}, "geometry": {"type": "Point", "coordinates": [-73.603001832962, 45.552442609135]}, "type": "Feature"}, {"properties": {"bikes": 0, "status": "OPEN", "name": "Union/Maisonneuve", "stands": 31, "lon": -73.571226, "address": "Union/Maisonneuve", "lat": 45.504844}, "geometry": {"type": "Point", "coordinates": [-73.571226, 45.504844]}, "type": "Feature"}, {"properties": {"bikes": 0, "status": "OPEN", "name": "University / des Pins", "stands": 0, "lon": -73.580498, "address": "University / des Pins", "lat": 45.508356}, "geometry": {"type": "Point", "coordinates": [-73.580498, 45.508356]}, "type": "Feature"}, {"properties": {"bikes": 0, "status": "OPEN", "name": "Gascon/Rachel", "stands": 19, "lon": -73.562643, "address": "Gascon/Rachel", "lat": 45.537964}, "geometry": {"type": "Point", "coordinates": [-73.562643, 45.537964]}, "type": "Feature"}, {"properties": {"bikes": 0, "status": "OPEN", "name": "Larivi\u00e8re / de Lorimier", "stands": 23, "lon": -73.559410572052, "address": "Larivi\u00e8re / de Lorimier", "lat": 45.529155206246}, "geometry": {"type": "Point", "coordinates": [-73.559410572052, 45.529155206246]}, "type": "Feature"}, {"properties": {"bikes": 0, "status": "OPEN", "name": "M\u00e9tro Laurier (Rivard/Laurier)", "stands": 15, "lon": -73.5891147, "address": "M\u00e9tro Laurier (Rivard/Laurier)", "lat": 45.52761627}, "geometry": {"type": "Point", "coordinates": [-73.5891147, 45.52761627]}, "type": "Feature"}, {"properties": {"bikes": 0, "status": "OPEN", "name": "Gauthier / Papineau", "stands": 0, "lon": -73.56663, "address": "Gauthier / Papineau", "lat": 45.530202}, "geometry": {"type": "Point", "coordinates": [-73.56663, 45.530202]}, "type": "Feature"}, {"properties": {"bikes": 0, "status": "OPEN", "name": "Gauthier / De Lorimier", "stands": 11, "lon": -73.565317, "address": "Gauthier / De Lorimier", "lat": 45.531818}, "geometry": {"type": "Point", "coordinates": [-73.565317, 45.531818]}, "type": "Feature"}, {"properties": {"bikes": 0, "status": "OPEN", "name": "Gauthier / des \u00c9rables", "stands": 11, "lon": -73.56437, "address": "Gauthier / des \u00c9rables", "lat": 45.53237}, "geometry": {"type": "Point", "coordinates": [-73.56437, 45.53237]}, "type": "Feature"}, {"properties": {"bikes": 0, "status": "OPEN", "name": "Marquette / Rachel", "stands": 15, "lon": -73.570289611816, "address": "Marquette / Rachel", "lat": 45.529801582461}, "geometry": {"type": "Point", "coordinates": [-73.570289611816, 45.529801582461]}, "type": "Feature"}, {"properties": {"bikes": 0, "status": "OPEN", "name": "de Bordeaux / Rachel", "stands": 27, "lon": -73.56828, "address": "de Bordeaux / Rachel", "lat": 45.53227}, "geometry": {"type": "Point", "coordinates": [-73.56828, 45.53227]}, "type": "Feature"}, {"properties": {"bikes": 0, "status": "OPEN", "name": "Calixa Laval\u00e9e / Rachel", "stands": 31, "lon": -73.572056, "address": "Calixa Laval\u00e9e / Rachel", "lat": 45.527791}, "geometry": {"type": "Point", "coordinates": [-73.572056, 45.527791]}, "type": "Feature"}, {"properties": {"bikes": 0, "status": "OPEN", "name": "Rachel / Br\u00e9beuf", "stands": 14, "lon": -73.57264, "address": "Rachel / Br\u00e9beuf", "lat": 45.52689}, "geometry": {"type": "Point", "coordinates": [-73.57264, 45.52689]}, "type": "Feature"}, {"properties": {"bikes": 0, "status": "OPEN", "name": "du Parc-La Fontaine / Duluth", "stands": 19, "lon": -73.57221, "address": "du Parc-La Fontaine / Duluth", "lat": 45.52469}, "geometry": {"type": "Point", "coordinates": [-73.57221, 45.52469]}, "type": "Feature"}, {"properties": {"bikes": 0, "status": "OPEN", "name": "du Parc-La Fontaine / Roy", "stands": 19, "lon": -73.568731, "address": "du Parc-La Fontaine / Roy", "lat": 45.523084}, "geometry": {"type": "Point", "coordinates": [-73.568731, 45.523084]}, "type": "Feature"}, {"properties": {"bikes": 0, "status": "OPEN", "name": "Calixa-Lavall\u00e9e / Sherbrooke", "stands": 27, "lon": -73.56545, "address": "Calixa-Lavall\u00e9e / Sherbrooke", "lat": 45.52479}, "geometry": {"type": "Point", "coordinates": [-73.56545, 45.52479]}, "type": "Feature"}, {"properties": {"bikes": 0, "status": "OPEN", "name": "\u00c9mile-Duploy\u00e9 / Sherbrooke", "stands": 31, "lon": -73.56463, "address": "\u00c9mile-Duploy\u00e9 / Sherbrooke", "lat": 45.52729}, "geometry": {"type": "Point", "coordinates": [-73.56463, 45.52729]}, "type": "Feature"}, {"properties": {"bikes": 0, "status": "OPEN", "name": "Chapleau / Mont-Royal", "stands": 27, "lon": -73.56936, "address": "Chapleau / Mont-Royal", "lat": 45.53867}, "geometry": {"type": "Point", "coordinates": [-73.56936, 45.53867]}, "type": "Feature"}, {"properties": {"bikes": 0, "status": "OPEN", "name": "Messier/Mont-Royal", "stands": 17, "lon": -73.5710031, "address": "Messier/Mont-Royal", "lat": 45.53711414}, "geometry": {"type": "Point", "coordinates": [-73.5710031, 45.53711414]}, "type": "Feature"}, {"properties": {"bikes": 0, "status": "OPEN", "name": "des \u00c9rables / Mont-Royal", "stands": 19, "lon": -73.57172, "address": "des \u00c9rables / Mont-Royal", "lat": 45.53565}, "geometry": {"type": "Point", "coordinates": [-73.57172, 45.53565]}, "type": "Feature"}, {"properties": {"bikes": 0, "status": "OPEN", "name": "Chabot / Mont-Royal", "stands": 1, "lon": -73.57349216938, "address": "Chabot / Mont-Royal", "lat": 45.534134366108}, "geometry": {"type": "Point", "coordinates": [-73.57349216938, 45.534134366108]}, "type": "Feature"}, {"properties": {"bikes": 0, "status": "OPEN", "name": "Cartier/Marie-Anne", "stands": 0, "lon": -73.571776, "address": "Cartier/Marie-Anne", "lat": 45.532674}, "geometry": {"type": "Point", "coordinates": [-73.571776, 45.532674]}, "type": "Feature"}, {"properties": {"bikes": 0, "status": "OPEN", "name": "Marquette / Mont-Royal", "stands": 19, "lon": -73.57544, "address": "Marquette / Mont-Royal", "lat": 45.53229}, "geometry": {"type": "Point", "coordinates": [-73.57544, 45.53229]}, "type": "Feature"}, {"properties": {"bikes": 0, "status": "OPEN", "name": "Garnier / Mont-Royal", "stands": 27, "lon": -73.57674, "address": "Garnier / Mont-Royal", "lat": 45.53092}, "geometry": {"type": "Point", "coordinates": [-73.57674, 45.53092]}, "type": "Feature"}, {"properties": {"bikes": 0, "status": "OPEN", "name": "Marie-Anne / de la Roche", "stands": 19, "lon": -73.576249480247, "address": "Marie-Anne / de la Roche", "lat": 45.527738413791}, "geometry": {"type": "Point", "coordinates": [-73.576249480247, 45.527738413791]}, "type": "Feature"}, {"properties": {"bikes": 0, "status": "OPEN", "name": "de la Roche / Mont-Royal", "stands": 22, "lon": -73.57828, "address": "de la Roche / Mont-Royal", "lat": 45.52856}, "geometry": {"type": "Point", "coordinates": [-73.57828, 45.52856]}, "type": "Feature"}, {"properties": {"bikes": 0, "status": "OPEN", "name": "Gilford / Br\u00e9beuf", "stands": 19, "lon": -73.58153, "address": "Gilford / Br\u00e9beuf", "lat": 45.53073}, "geometry": {"type": "Point", "coordinates": [-73.58153, 45.53073]}, "type": "Feature"}, {"properties": {"bikes": 0, "status": "OPEN", "name": "Garnier / Saint-Joseph", "stands": 23, "lon": -73.58118, "address": "Garnier / Saint-Joseph", "lat": 45.53297}, "geometry": {"type": "Point", "coordinates": [-73.58118, 45.53297]}, "type": "Feature"}, {"properties": {"bikes": 0, "status": "OPEN", "name": "Cartier / Saint-Joseph", "stands": 18, "lon": -73.57867, "address": "Cartier / Saint-Joseph", "lat": 45.53576}, "geometry": {"type": "Point", "coordinates": [-73.57867, 45.53576]}, "type": "Feature"}, {"properties": {"bikes": 0, "status": "OPEN", "name": "Fullum / Saint-Joseph", "stands": 15, "lon": -73.575158, "address": "Fullum / Saint-Joseph", "lat": 45.54003}, "geometry": {"type": "Point", "coordinates": [-73.575158, 45.54003]}, "type": "Feature"}, {"properties": {"bikes": 0, "status": "OPEN", "name": "Marquette / Laurier", "stands": 23, "lon": -73.5822, "address": "Marquette / Laurier", "lat": 45.53543}, "geometry": {"type": "Point", "coordinates": [-73.5822, 45.53543]}, "type": "Feature"}, {"properties": {"bikes": 0, "status": "OPEN", "name": "Lanaudi\u00e8re / Laurier", "stands": 19, "lon": -73.583717, "address": "Lanaudi\u00e8re / Laurier", "lat": 45.533381}, "geometry": {"type": "Point", "coordinates": [-73.583717, 45.533381]}, "type": "Feature"}, {"properties": {"bikes": 0, "status": "OPEN", "name": "Br\u00e9beuf / Laurier", "stands": 35, "lon": -73.58507, "address": "Br\u00e9beuf / Laurier", "lat": 45.53248}, "geometry": {"type": "Point", "coordinates": [-73.58507, 45.53248]}, "type": "Feature"}, {"properties": {"bikes": 0, "status": "OPEN", "name": "Br\u00e9beuf / Saint-Gr\u00e9goire", "stands": 26, "lon": -73.58852, "address": "Br\u00e9beuf / Saint-Gr\u00e9goire", "lat": 45.5341}, "geometry": {"type": "Point", "coordinates": [-73.58852, 45.5341]}, "type": "Feature"}, {"properties": {"bikes": 0, "status": "OPEN", "name": "Marquette / Saint-Gr\u00e9goire", "stands": 11, "lon": -73.58584, "address": "Marquette / Saint-Gr\u00e9goire", "lat": 45.53703}, "geometry": {"type": "Point", "coordinates": [-73.58584, 45.53703]}, "type": "Feature"}, {"properties": {"bikes": 0, "status": "OPEN", "name": "Hotel de ville/Viger", "stands": 23, "lon": -73.5571602, "address": "Hotel de ville/Viger", "lat": 45.50938453}, "geometry": {"type": "Point", "coordinates": [-73.5571602, 45.50938453]}, "type": "Feature"}, {"properties": {"bikes": 0, "status": "OPEN", "name": "St-Andr\u00e9/Laurier", "stands": 15, "lon": -73.587479, "address": "St-Andr\u00e9/Laurier", "lat": 45.529511}, "geometry": {"type": "Point", "coordinates": [-73.587479, 45.529511]}, "type": "Feature"}, {"properties": {"bikes": 0, "status": "OPEN", "name": "de Mentana / Laurier", "stands": 19, "lon": -73.58677, "address": "de Mentana / Laurier", "lat": 45.530046}, "geometry": {"type": "Point", "coordinates": [-73.58677, 45.530046]}, "type": "Feature"}, {"properties": {"bikes": 0, "status": "OPEN", "name": "Wolfe/Robin", "stands": 27, "lon": -73.560269, "address": "Wolfe/Robin", "lat": 45.5195}, "geometry": {"type": "Point", "coordinates": [-73.560269, 45.5195]}, "type": "Feature"}, {"properties": {"bikes": 0, "status": "OPEN", "name": "Cherrier / Berri", "stands": 35, "lon": -73.5692414, "address": "Cherrier / Berri", "lat": 45.5191458}, "geometry": {"type": "Point", "coordinates": [-73.5692414, 45.5191458]}, "type": "Feature"}, {"properties": {"bikes": 0, "status": "OPEN", "name": "Roy / Saint-Denis", "stands": 22, "lon": -73.5727, "address": "Roy / Saint-Denis", "lat": 45.51908}, "geometry": {"type": "Point", "coordinates": [-73.5727, 45.51908]}, "type": "Feature"}, {"properties": {"bikes": 0, "status": "OPEN", "name": "St-Andr\u00e9/Cherrier", "stands": 22, "lon": -73.567733, "address": "St-Andr\u00e9/Cherrier", "lat": 45.520578}, "geometry": {"type": "Point", "coordinates": [-73.567733, 45.520578]}, "type": "Feature"}, {"properties": {"bikes": 0, "status": "OPEN", "name": "St-Andr\u00e9 / Duluth", "stands": 19, "lon": -73.573431, "address": "St-Andr\u00e9 / Duluth", "lat": 45.523171}, "geometry": {"type": "Point", "coordinates": [-73.573431, 45.523171]}, "type": "Feature"}, {"properties": {"bikes": 0, "status": "OPEN", "name": "Saint-Andr\u00e9 / Rachel", "stands": 0, "lon": -73.575771, "address": "Saint-Andr\u00e9 / Rachel", "lat": 45.524222}, "geometry": {"type": "Point", "coordinates": [-73.575771, 45.524222]}, "type": "Feature"}, {"properties": {"bikes": 0, "status": "OPEN", "name": "Rivard /Rachel", "stands": 18, "lon": -73.5775906, "address": "Rivard /Rachel", "lat": 45.5222776}, "geometry": {"type": "Point", "coordinates": [-73.5775906, 45.5222776]}, "type": "Feature"}, {"properties": {"bikes": 0, "status": "OPEN", "name": "Duluth/St-Denis", "stands": 6, "lon": -73.575871, "address": "Duluth/St-Denis", "lat": 45.520655}, "geometry": {"type": "Point", "coordinates": [-73.575871, 45.520655]}, "type": "Feature"}, {"properties": {"bikes": 0, "status": "OPEN", "name": "Place de la paix (St-Dominique/place du march\u00e9)", "stands": 18, "lon": -73.561976, "address": "Place de la paix (St-Dominique/place du march\u00e9)", "lat": 45.50965}, "geometry": {"type": "Point", "coordinates": [-73.561976, 45.50965]}, "type": "Feature"}, {"properties": {"bikes": 0, "status": "OPEN", "name": "Clark/Rachel", "stands": 23, "lon": -73.582648, "address": "Clark/Rachel", "lat": 45.516853}, "geometry": {"type": "Point", "coordinates": [-73.582648, 45.516853]}, "type": "Feature"}, {"properties": {"bikes": 0, "status": "OPEN", "name": "Bullion / Mont-Royal", "stands": 11, "lon": -73.5851, "address": "Bullion / Mont-Royal", "lat": 45.5215}, "geometry": {"type": "Point", "coordinates": [-73.5851, 45.5215]}, "type": "Feature"}, {"properties": {"bikes": 0, "status": "OPEN", "name": "Laval / Mont-Royal", "stands": 23, "lon": -73.584129810333, "address": "Laval / Mont-Royal", "lat": 45.522412909217}, "geometry": {"type": "Point", "coordinates": [-73.584129810333, 45.522412909217]}, "type": "Feature"}, {"properties": {"bikes": 0, "status": "OPEN", "name": "M\u00e9tro Mont-Royal (Rivard/Mont-Royal)", "stands": 35, "lon": -73.58255, "address": "M\u00e9tro Mont-Royal (Rivard/Mont-Royal)", "lat": 45.524673}, "geometry": {"type": "Point", "coordinates": [-73.58255, 45.524673]}, "type": "Feature"}, {"properties": {"bikes": 0, "status": "OPEN", "name": "Des \u00e9rables/B\u00e9langer", "stands": 15, "lon": -73.601006, "address": "Des \u00e9rables/B\u00e9langer", "lat": 45.549286}, "geometry": {"type": "Point", "coordinates": [-73.601006, 45.549286]}, "type": "Feature"}, {"properties": {"bikes": 0, "status": "OPEN", "name": "Boyer / Mont-Royal", "stands": 27, "lon": -73.58002, "address": "Boyer / Mont-Royal", "lat": 45.52743}, "geometry": {"type": "Point", "coordinates": [-73.58002, 45.52743]}, "type": "Feature"}, {"properties": {"bikes": 0, "status": "OPEN", "name": "St-Andr\u00e9/ Mont-Royal", "stands": 3, "lon": -73.580927, "address": "St-Andr\u00e9/ Mont-Royal", "lat": 45.526466}, "geometry": {"type": "Point", "coordinates": [-73.580927, 45.526466]}, "type": "Feature"}, {"properties": {"bikes": 0, "status": "OPEN", "name": "Mentana / Marie-Anne", "stands": 23, "lon": -73.577808, "address": "Mentana / Marie-Anne", "lat": 45.525983}, "geometry": {"type": "Point", "coordinates": [-73.577808, 45.525983]}, "type": "Feature"}, {"properties": {"bikes": 0, "status": "OPEN", "name": "Chabot/Everett", "stands": 11, "lon": -73.609477, "address": "Chabot/Everett", "lat": 45.550634}, "geometry": {"type": "Point", "coordinates": [-73.609477, 45.550634]}, "type": "Feature"}, {"properties": {"bikes": 0, "status": "OPEN", "name": "Pontiac/Gilford", "stands": 15, "lon": -73.585852, "address": "Pontiac/Gilford", "lat": 45.527008}, "geometry": {"type": "Point", "coordinates": [-73.585852, 45.527008]}, "type": "Feature"}, {"properties": {"bikes": 0, "status": "OPEN", "name": "St-Zotique/Clark", "stands": 0, "lon": -73.612674, "address": "St-Zotique/Clark", "lat": 45.531401}, "geometry": {"type": "Point", "coordinates": [-73.612674, 45.531401]}, "type": "Feature"}, {"properties": {"bikes": 0, "status": "OPEN", "name": "Berri/St-Gr\u00e9goire", "stands": 19, "lon": -73.591766, "address": "Berri/St-Gr\u00e9goire", "lat": 45.529802}, "geometry": {"type": "Point", "coordinates": [-73.591766, 45.529802]}, "type": "Feature"}, {"properties": {"bikes": 0, "status": "OPEN", "name": "Esplanade/Fairmount", "stands": 19, "lon": -73.596758, "address": "Esplanade/Fairmount", "lat": 45.521495}, "geometry": {"type": "Point", "coordinates": [-73.596758, 45.521495]}, "type": "Feature"}, {"properties": {"bikes": 0, "status": "OPEN", "name": "Gasp\u00e9 / Fairmount ", "stands": 19, "lon": -73.593016, "address": "Gasp\u00e9 / Fairmount ", "lat": 45.525669}, "geometry": {"type": "Point", "coordinates": [-73.593016, 45.525669]}, "type": "Feature"}, {"properties": {"bikes": 0, "status": "OPEN", "name": "de Bullion / Boul. Saint-Joseph", "stands": 19, "lon": -73.58978, "address": "de Bullion / Boul. Saint-Joseph", "lat": 45.52377}, "geometry": {"type": "Point", "coordinates": [-73.58978, 45.52377]}, "type": "Feature"}, {"properties": {"bikes": 0, "status": "OPEN", "name": "Villeneuve/St-Laurent", "stands": 19, "lon": -73.58918, "address": "Villeneuve/St-Laurent", "lat": 45.52157}, "geometry": {"type": "Point", "coordinates": [-73.58918, 45.52157]}, "type": "Feature"}, {"properties": {"bikes": 0, "status": "OPEN", "name": "Cartier/Masson", "stands": 19, "lon": -73.583502, "address": "Cartier/Masson", "lat": 45.537985}, "geometry": {"type": "Point", "coordinates": [-73.583502, 45.537985]}, "type": "Feature"}, {"properties": {"bikes": 0, "status": "OPEN", "name": "H\u00e9l\u00e8ne-Baillargeon / Saint-Denis", "stands": 4, "lon": -73.59527, "address": "H\u00e9l\u00e8ne-Baillargeon / Saint-Denis", "lat": 45.52974}, "geometry": {"type": "Point", "coordinates": [-73.59527, 45.52974]}, "type": "Feature"}, {"properties": {"bikes": 0, "status": "OPEN", "name": "Clark / Saint-Viateur", "stands": 19, "lon": -73.599375486374, "address": "Clark / Saint-Viateur", "lat": 45.525171560973}, "geometry": {"type": "Point", "coordinates": [-73.599375486374, 45.525171560973]}, "type": "Feature"}, {"properties": {"bikes": 0, "status": "OPEN", "name": "Maguire / Saint-Laurent", "stands": 7, "lon": -73.59588, "address": "Maguire / Saint-Laurent", "lat": 45.52457}, "geometry": {"type": "Point", "coordinates": [-73.59588, 45.52457]}, "type": "Feature"}, {"properties": {"bikes": 0, "status": "OPEN", "name": "Villeneuve / de l'H\u00f4tel-de-Ville", "stands": 23, "lon": -73.587509393692, "address": "Villeneuve / de l'H\u00f4tel-de-Ville", "lat": 45.52352540631}, "geometry": {"type": "Point", "coordinates": [-73.587509393692, 45.52352540631]}, "type": "Feature"}, {"properties": {"bikes": 0, "status": "OPEN", "name": "Hutchison / Sherbrooke", "stands": 3, "lon": -73.57208, "address": "Hutchison / Sherbrooke", "lat": 45.50781}, "geometry": {"type": "Point", "coordinates": [-73.57208, 45.50781]}, "type": "Feature"}, {"properties": {"bikes": 0, "status": "OPEN", "name": "Milton / du Parc", "stands": 31, "lon": -73.57354, "address": "Milton / du Parc", "lat": 45.50971}, "geometry": {"type": "Point", "coordinates": [-73.57354, 45.50971]}, "type": "Feature"}, {"properties": {"bikes": 0, "status": "OPEN", "name": "Prince-Arthur / du Parc", "stands": 0, "lon": -73.57547, "address": "Prince-Arthur / du Parc", "lat": 45.51059}, "geometry": {"type": "Point", "coordinates": [-73.57547, 45.51059]}, "type": "Feature"}, {"properties": {"bikes": 0, "status": "OPEN", "name": "Sainte-Famille / des Pins", "stands": 15, "lon": -73.577016592026, "address": "Sainte-Famille / des Pins", "lat": 45.512812949535}, "geometry": {"type": "Point", "coordinates": [-73.577016592026, 45.512812949535]}, "type": "Feature"}, {"properties": {"bikes": 0, "status": "OPEN", "name": "Hutchison / des Pins", "stands": 19, "lon": -73.57805, "address": "Hutchison / des Pins", "lat": 45.51069}, "geometry": {"type": "Point", "coordinates": [-73.57805, 45.51069]}, "type": "Feature"}, {"properties": {"bikes": 0, "status": "OPEN", "name": "Milton / Clark", "stands": 23, "lon": -73.57062, "address": "Milton / Clark", "lat": 45.51252}, "geometry": {"type": "Point", "coordinates": [-73.57062, 45.51252]}, "type": "Feature"}, {"properties": {"bikes": 0, "status": "OPEN", "name": "Metro  Sauv\u00e9 (Sauv\u00e9/Berri)", "stands": 15, "lon": -73.656, "address": "Metro  Sauv\u00e9 (Sauv\u00e9/Berri)", "lat": 45.5509}, "geometry": {"type": "Point", "coordinates": [-73.656, 45.5509]}, "type": "Feature"}, {"properties": {"bikes": 0, "status": "OPEN", "name": "Roy / Saint-Laurent", "stands": 23, "lon": -73.57569, "address": "Roy / Saint-Laurent", "lat": 45.51561}, "geometry": {"type": "Point", "coordinates": [-73.57569, 45.51561]}, "type": "Feature"}, {"properties": {"bikes": 0, "status": "OPEN", "name": "Duluth/Esplanade", "stands": 14, "lon": -73.581394, "address": "Duluth/Esplanade", "lat": 45.515201}, "geometry": {"type": "Point", "coordinates": [-73.581394, 45.515201]}, "type": "Feature"}, {"properties": {"bikes": 0, "status": "OPEN", "name": "Duluth / Saint-Laurent", "stands": 15, "lon": -73.57921, "address": "Duluth / Saint-Laurent", "lat": 45.5171}, "geometry": {"type": "Point", "coordinates": [-73.57921, 45.5171]}, "type": "Feature"}, {"properties": {"bikes": 0, "status": "OPEN", "name": "Square Saint-Louis", "stands": 9, "lon": -73.56906, "address": "Square Saint-Louis", "lat": 45.51735}, "geometry": {"type": "Point", "coordinates": [-73.56906, 45.51735]}, "type": "Feature"}, {"properties": {"bikes": 0, "status": "OPEN", "name": "Saint-Cuthbert / Saint-Urbain", "stands": 19, "lon": -73.57821, "address": "Saint-Cuthbert / Saint-Urbain", "lat": 45.51494}, "geometry": {"type": "Point", "coordinates": [-73.57821, 45.51494]}, "type": "Feature"}, {"properties": {"bikes": 0, "status": "OPEN", "name": "Parc du Mont-Royal", "stands": 34, "lon": -73.58503, "address": "Parc du Mont-Royal", "lat": 45.51496}, "geometry": {"type": "Point", "coordinates": [-73.58503, 45.51496]}, "type": "Feature"}, {"properties": {"bikes": 0, "status": "OPEN", "name": "Marie-Anne/St-Dominique", "stands": 23, "lon": -73.583618, "address": "Marie-Anne/St-Dominique", "lat": 45.519523}, "geometry": {"type": "Point", "coordinates": [-73.583618, 45.519523]}, "type": "Feature"}, {"properties": {"bikes": 0, "status": "OPEN", "name": "H\u00f4tel de Ville/Roy ", "stands": 0, "lon": -73.574361, "address": "H\u00f4tel de Ville/Roy ", "lat": 45.51725}, "geometry": {"type": "Point", "coordinates": [-73.574361, 45.51725]}, "type": "Feature"}, {"properties": {"bikes": 0, "status": "OPEN", "name": "Laval / Duluth", "stands": 15, "lon": -73.577215075493, "address": "Laval / Duluth", "lat": 45.519236909648}, "geometry": {"type": "Point", "coordinates": [-73.577215075493, 45.519236909648]}, "type": "Feature"}, {"properties": {"bikes": 0, "status": "OPEN", "name": "Mont-Royal / Clark", "stands": 23, "lon": -73.58685, "address": "Mont-Royal / Clark", "lat": 45.51941}, "geometry": {"type": "Point", "coordinates": [-73.58685, 45.51941]}, "type": "Feature"}, {"properties": {"bikes": 0, "status": "OPEN", "name": "Jeanne Mance / Mont-Royal", "stands": 11, "lon": -73.5889283, "address": "Jeanne Mance / Mont-Royal", "lat": 45.5176432}, "geometry": {"type": "Point", "coordinates": [-73.5889283, 45.5176432]}, "type": "Feature"}, {"properties": {"bikes": 0, "status": "OPEN", "name": "Mont-Royal / du Parc", "stands": 33, "lon": -73.589, "address": "Mont-Royal / du Parc", "lat": 45.517}, "geometry": {"type": "Point", "coordinates": [-73.589, 45.517]}, "type": "Feature"}, {"properties": {"bikes": 0, "status": "OPEN", "name": "Villeneuve/ Parc", "stands": 15, "lon": -73.59235, "address": "Villeneuve/ Parc", "lat": 45.51829}, "geometry": {"type": "Point", "coordinates": [-73.59235, 45.51829]}, "type": "Feature"}, {"properties": {"bikes": 0, "status": "OPEN", "name": "Villeneuve / St-Urbain", "stands": 11, "lon": -73.590559, "address": "Villeneuve / St-Urbain", "lat": 45.520188}, "geometry": {"type": "Point", "coordinates": [-73.590559, 45.520188]}, "type": "Feature"}, {"properties": {"bikes": 0, "status": "OPEN", "name": "Hopital Maisonneuve Rosemont (Rosemont/Chatelain)", "stands": 19, "lon": -73.561562, "address": "Hopital Maisonneuve Rosemont (Rosemont/Chatelain)", "lat": 45.575707}, "geometry": {"type": "Point", "coordinates": [-73.561562, 45.575707]}, "type": "Feature"}, {"properties": {"bikes": 0, "status": "OPEN", "name": "Esplanade/Laurier", "stands": 23, "lon": -73.594499, "address": "Esplanade/Laurier", "lat": 45.520906}, "geometry": {"type": "Point", "coordinates": [-73.594499, 45.520906]}, "type": "Feature"}, {"properties": {"bikes": 0, "status": "OPEN", "name": "Coloniale/ Mont-Royal", "stands": 15, "lon": -73.585514, "address": "Coloniale/ Mont-Royal", "lat": 45.52102}, "geometry": {"type": "Point", "coordinates": [-73.585514, 45.52102]}, "type": "Feature"}, {"properties": {"bikes": 0, "status": "OPEN", "name": "Waverly / Saint-Viateur", "stands": 15, "lon": -73.60042154789, "address": "Waverly / Saint-Viateur", "lat": 45.524025271152}, "geometry": {"type": "Point", "coordinates": [-73.60042154789, 45.524025271152]}, "type": "Feature"}, {"properties": {"bikes": 0, "status": "OPEN", "name": "Saint-Viateur / du Parc", "stands": 23, "lon": -73.6019, "address": "Saint-Viateur / du Parc", "lat": 45.52246}, "geometry": {"type": "Point", "coordinates": [-73.6019, 45.52246]}, "type": "Feature"}, {"properties": {"bikes": 0, "status": "OPEN", "name": "Bernard / Clark", "stands": 23, "lon": -73.60261, "address": "Bernard / Clark", "lat": 45.52697}, "geometry": {"type": "Point", "coordinates": [-73.60261, 45.52697]}, "type": "Feature"}, {"properties": {"bikes": 0, "status": "OPEN", "name": "Saint-Dominique / Saint-Viateur", "stands": 19, "lon": -73.598232865334, "address": "Saint-Dominique / Saint-Viateur", "lat": 45.52654331973}, "geometry": {"type": "Point", "coordinates": [-73.598232865334, 45.52654331973]}, "type": "Feature"}, {"properties": {"bikes": 0, "status": "OPEN", "name": " Bordeaux/Laurier", "stands": 31, "lon": -73.579291, "address": " Bordeaux/Laurier", "lat": 45.537456}, "geometry": {"type": "Point", "coordinates": [-73.579291, 45.537456]}, "type": "Feature"}, {"properties": {"bikes": 0, "status": "OPEN", "name": "Gilford/Lanaudi\u00e8re", "stands": 14, "lon": -73.580541, "address": "Gilford/Lanaudi\u00e8re", "lat": 45.532013}, "geometry": {"type": "Point", "coordinates": [-73.580541, 45.532013]}, "type": "Feature"}, {"properties": {"bikes": 0, "status": "OPEN", "name": "Napoleon/St-Dominique", "stands": 23, "lon": -73.577784, "address": "Napoleon/St-Dominique", "lat": 45.516777}, "geometry": {"type": "Point", "coordinates": [-73.577784, 45.516777]}, "type": "Feature"}, {"properties": {"bikes": 0, "status": "OPEN", "name": "de Bordeaux / Jean-Talon", "stands": 15, "lon": -73.6055123806, "address": "de Bordeaux / Jean-Talon", "lat": 45.549704078239}, "geometry": {"type": "Point", "coordinates": [-73.6055123806, 45.549704078239]}, "type": "Feature"}, {"properties": {"bikes": 0, "status": "OPEN", "name": "Hudson/Kent", "stands": 23, "lon": -73.629593, "address": "Hudson/Kent", "lat": 45.505973}, "geometry": {"type": "Point", "coordinates": [-73.629593, 45.505973]}, "type": "Feature"}, {"properties": {"bikes": 0, "status": "OPEN", "name": "Querbes / Laurier", "stands": 15, "lon": -73.597724, "address": "Querbes / Laurier", "lat": 45.517345}, "geometry": {"type": "Point", "coordinates": [-73.597724, 45.517345]}, "type": "Feature"}, {"properties": {"bikes": 0, "status": "OPEN", "name": "Bloomfield / Bernard", "stands": 19, "lon": -73.606786, "address": "Bloomfield / Bernard", "lat": 45.519861}, "geometry": {"type": "Point", "coordinates": [-73.606786, 45.519861]}, "type": "Feature"}, {"properties": {"bikes": 0, "status": "OPEN", "name": "Bloomfield / Van Horne", "stands": 14, "lon": -73.61265779, "address": "Bloomfield / Van Horne", "lat": 45.5225858}, "geometry": {"type": "Point", "coordinates": [-73.61265779, 45.5225858]}, "type": "Feature"}, {"properties": {"bikes": 0, "status": "OPEN", "name": "M\u00e9tro Outremont (Wiseman / Van Horne)", "stands": 20, "lon": -73.614887, "address": "M\u00e9tro Outremont (Wiseman / Van Horne)", "lat": 45.520265}, "geometry": {"type": "Point", "coordinates": [-73.614887, 45.520265]}, "type": "Feature"}, {"properties": {"bikes": 0, "status": "OPEN", "name": "Casgrain / Saint-Zotique", "stands": 15, "lon": -73.61108, "address": "Casgrain / Saint-Zotique", "lat": 45.53304}, "geometry": {"type": "Point", "coordinates": [-73.61108, 45.53304]}, "type": "Feature"}, {"properties": {"bikes": 0, "status": "OPEN", "name": "St-Dominique/Rachel", "stands": 23, "lon": -73.581566, "address": "St-Dominique/Rachel", "lat": 45.518593}, "geometry": {"type": "Point", "coordinates": [-73.581566, 45.518593]}, "type": "Feature"}, {"properties": {"bikes": 0, "status": "OPEN", "name": "B\u00e9langer / Saint-Denis", "stands": 15, "lon": -73.61199, "address": "B\u00e9langer / Saint-Denis", "lat": 45.53696}, "geometry": {"type": "Point", "coordinates": [-73.61199, 45.53696]}, "type": "Feature"}, {"properties": {"bikes": 0, "status": "OPEN", "name": "Henri-Julien / Jean-Talon", "stands": 23, "lon": -73.61529, "address": "Henri-Julien / Jean-Talon", "lat": 45.53707}, "geometry": {"type": "Point", "coordinates": [-73.61529, 45.53707]}, "type": "Feature"}, {"properties": {"bikes": 0, "status": "OPEN", "name": "Gasp\u00e9/Dante", "stands": 19, "lon": -73.612278, "address": "Gasp\u00e9/Dante", "lat": 45.534377}, "geometry": {"type": "Point", "coordinates": [-73.612278, 45.534377]}, "type": "Feature"}, {"properties": {"bikes": 0, "status": "OPEN", "name": "Mozart / Saint-Laurent", "stands": 2, "lon": -73.61544, "address": "Mozart / Saint-Laurent", "lat": 45.53318}, "geometry": {"type": "Point", "coordinates": [-73.61544, 45.53318]}, "type": "Feature"}, {"properties": {"bikes": 0, "status": "OPEN", "name": "Lajeunesse / Jean-Talon", "stands": 15, "lon": -73.614256381989, "address": "Lajeunesse / Jean-Talon", "lat": 45.539736803045}, "geometry": {"type": "Point", "coordinates": [-73.614256381989, 45.539736803045]}, "type": "Feature"}, {"properties": {"bikes": 0, "status": "OPEN", "name": "Boyer / B\u00e9langer", "stands": 19, "lon": -73.60897, "address": "Boyer / B\u00e9langer", "lat": 45.54006}, "geometry": {"type": "Point", "coordinates": [-73.60897, 45.54006]}, "type": "Feature"}, {"properties": {"bikes": 0, "status": "OPEN", "name": "Boyer / Saint-Zotique", "stands": 19, "lon": -73.60556, "address": "Boyer / Saint-Zotique", "lat": 45.53848}, "geometry": {"type": "Point", "coordinates": [-73.60556, 45.53848]}, "type": "Feature"}, {"properties": {"bikes": 0, "status": "OPEN", "name": "Saint-Vallier / Saint-Zotique", "stands": 15, "lon": -73.607773, "address": "Saint-Vallier / Saint-Zotique", "lat": 45.536299}, "geometry": {"type": "Point", "coordinates": [-73.607773, 45.536299]}, "type": "Feature"}, {"properties": {"bikes": 0, "status": "OPEN", "name": "Parc P\u00e8re-Marquette (Chambord / Rosemont)", "stands": 31, "lon": -73.593126, "address": "Parc P\u00e8re-Marquette (Chambord / Rosemont)", "lat": 45.537035}, "geometry": {"type": "Point", "coordinates": [-73.593126, 45.537035]}, "type": "Feature"}, {"properties": {"bikes": 0, "status": "OPEN", "name": "Dandurand/De Lorimier", "stands": 14, "lon": -73.584157, "address": "Dandurand/De Lorimier", "lat": 45.540881}, "geometry": {"type": "Point", "coordinates": [-73.584157, 45.540881]}, "type": "Feature"}, {"properties": {"bikes": 0, "status": "OPEN", "name": "Dandurand/Papineau", "stands": 19, "lon": -73.586302, "address": "Dandurand/Papineau", "lat": 45.538589}, "geometry": {"type": "Point", "coordinates": [-73.586302, 45.538589]}, "type": "Feature"}, {"properties": {"bikes": 0, "status": "OPEN", "name": "Louis H\u00e9mon / Rosemont", "stands": 19, "lon": -73.588069, "address": "Louis H\u00e9mon / Rosemont", "lat": 45.54458}, "geometry": {"type": "Point", "coordinates": [-73.588069, 45.54458]}, "type": "Feature"}, {"properties": {"bikes": 0, "status": "OPEN", "name": "de la Roche /  Bellechasse ", "stands": 1, "lon": -73.597884, "address": "de la Roche /  Bellechasse ", "lat": 45.537202}, "geometry": {"type": "Point", "coordinates": [-73.597884, 45.537202]}, "type": "Feature"}, {"properties": {"bikes": 0, "status": "OPEN", "name": "Hampton/Monkland", "stands": 15, "lon": -73.6266, "address": "Hampton/Monkland", "lat": 45.4714}, "geometry": {"type": "Point", "coordinates": [-73.6266, 45.4714]}, "type": "Feature"}, {"properties": {"bikes": 0, "status": "OPEN", "name": "Chabot / Bellechasse", "stands": 15, "lon": -73.59212, "address": "Chabot / Bellechasse", "lat": 45.5427}, "geometry": {"type": "Point", "coordinates": [-73.59212, 45.5427]}, "type": "Feature"}, {"properties": {"bikes": 0, "status": "OPEN", "name": "Parthenais / Laurier", "stands": 19, "lon": -73.577338, "address": "Parthenais / Laurier", "lat": 45.539259}, "geometry": {"type": "Point", "coordinates": [-73.577338, 45.539259]}, "type": "Feature"}, {"properties": {"bikes": 0, "status": "OPEN", "name": "Louis-H\u00e9bert / Beaubien", "stands": 19, "lon": -73.59268, "address": "Louis-H\u00e9bert / Beaubien", "lat": 45.54857}, "geometry": {"type": "Point", "coordinates": [-73.59268, 45.54857]}, "type": "Feature"}, {"properties": {"bikes": 0, "status": "OPEN", "name": "de Bordeaux / Beaubien", "stands": 2, "lon": -73.5949, "address": "de Bordeaux / Beaubien", "lat": 45.54475}, "geometry": {"type": "Point", "coordinates": [-73.5949, 45.54475]}, "type": "Feature"}, {"properties": {"bikes": 0, "status": "OPEN", "name": "Chambord / Beaubien", "stands": 19, "lon": -73.599716, "address": "Chambord / Beaubien", "lat": 45.539964}, "geometry": {"type": "Point", "coordinates": [-73.599716, 45.539964]}, "type": "Feature"}, {"properties": {"bikes": 0, "status": "OPEN", "name": "de Normanville / Saint-Zotique", "stands": 7, "lon": -73.60384, "address": "de Normanville / Saint-Zotique", "lat": 45.54083}, "geometry": {"type": "Point", "coordinates": [-73.60384, 45.54083]}, "type": "Feature"}, {"properties": {"bikes": 0, "status": "OPEN", "name": "Fabre / Saint-Zotique", "stands": 19, "lon": -73.600982, "address": "Fabre / Saint-Zotique", "lat": 45.543541}, "geometry": {"type": "Point", "coordinates": [-73.600982, 45.543541]}, "type": "Feature"}, {"properties": {"bikes": 0, "status": "OPEN", "name": "Casgrain / de Bellechasse", "stands": 23, "lon": -73.604214, "address": "Casgrain / de Bellechasse", "lat": 45.529993}, "geometry": {"type": "Point", "coordinates": [-73.604214, 45.529993]}, "type": "Feature"}, {"properties": {"bikes": 0, "status": "OPEN", "name": "Bordeaux / Saint-Zotique", "stands": 15, "lon": -73.598442, "address": "Bordeaux / Saint-Zotique", "lat": 45.546526}, "geometry": {"type": "Point", "coordinates": [-73.598442, 45.546526]}, "type": "Feature"}, {"properties": {"bikes": 0, "status": "OPEN", "name": "Cartier / B\u00e9langer", "stands": 19, "lon": -73.602616, "address": "Cartier / B\u00e9langer", "lat": 45.546939}, "geometry": {"type": "Point", "coordinates": [-73.602616, 45.546939]}, "type": "Feature"}, {"properties": {"bikes": 0, "status": "OPEN", "name": "De la Roche/St-Joseph", "stands": 19, "lon": -73.583695, "address": "De la Roche/St-Joseph", "lat": 45.531164}, "geometry": {"type": "Point", "coordinates": [-73.583695, 45.531164]}, "type": "Feature"}, {"properties": {"bikes": 0, "status": "OPEN", "name": "Chambord / Jean-Talon", "stands": 2, "lon": -73.610458, "address": "Chambord / Jean-Talon", "lat": 45.544828}, "geometry": {"type": "Point", "coordinates": [-73.610458, 45.544828]}, "type": "Feature"}, {"properties": {"bikes": 0, "status": "OPEN", "name": "Chambord / B\u00e9langer", "stands": 15, "lon": -73.606585, "address": "Chambord / B\u00e9langer", "lat": 45.543077}, "geometry": {"type": "Point", "coordinates": [-73.606585, 45.543077]}, "type": "Feature"}, {"properties": {"bikes": 0, "status": "OPEN", "name": "Louis-H\u00e9bert / Saint-Zotique", "stands": 11, "lon": -73.59576, "address": "Louis-H\u00e9bert / Saint-Zotique", "lat": 45.55001}, "geometry": {"type": "Point", "coordinates": [-73.59576, 45.55001]}, "type": "Feature"}, {"properties": {"bikes": 0, "status": "OPEN", "name": "Louis-H\u00e9bert / B\u00e9langer", "stands": 15, "lon": -73.598852, "address": "Louis-H\u00e9bert / B\u00e9langer", "lat": 45.551457}, "geometry": {"type": "Point", "coordinates": [-73.598852, 45.551457]}, "type": "Feature"}, {"properties": {"bikes": 0, "status": "OPEN", "name": "Fabre / Beaubien", "stands": 15, "lon": -73.597793, "address": "Fabre / Beaubien", "lat": 45.542055}, "geometry": {"type": "Point", "coordinates": [-73.597793, 45.542055]}, "type": "Feature"}, {"properties": {"bikes": 0, "status": "OPEN", "name": "Parc Rosemont (Dandurand/d'Iberville)", "stands": 19, "lon": -73.581018, "address": "Parc Rosemont (Dandurand/d'Iberville)", "lat": 45.544377}, "geometry": {"type": "Point", "coordinates": [-73.581018, 45.544377]}, "type": "Feature"}, {"properties": {"bikes": 0, "status": "OPEN", "name": "Chateaubriand/Des Ateliers", "stands": 23, "lon": -73.595666, "address": "Chateaubriand/Des Ateliers", "lat": 45.53192856}, "geometry": {"type": "Point", "coordinates": [-73.595666, 45.53192856]}, "type": "Feature"}, {"properties": {"bikes": 0, "status": "OPEN", "name": "Boyer / Rosemont", "stands": 23, "lon": -73.595478, "address": "Boyer / Rosemont", "lat": 45.534136}, "geometry": {"type": "Point", "coordinates": [-73.595478, 45.534136]}, "type": "Feature"}, {"properties": {"bikes": 0, "status": "OPEN", "name": "Bellechasse/St-Valier", "stands": 19, "lon": -73.601221, "address": "Bellechasse/St-Valier", "lat": 45.533473}, "geometry": {"type": "Point", "coordinates": [-73.601221, 45.533473]}, "type": "Feature"}, {"properties": {"bikes": 0, "status": "OPEN", "name": "Augustin-Cantin / Shearer", "stands": 15, "lon": -73.5634366, "address": "Augustin-Cantin / Shearer", "lat": 45.48401829}, "geometry": {"type": "Point", "coordinates": [-73.5634366, 45.48401829]}, "type": "Feature"}, {"properties": {"bikes": 0, "status": "OPEN", "name": "Marie-anne/ St-Hubert", "stands": 15, "lon": -73.578755, "address": "Marie-anne/ St-Hubert", "lat": 45.524634}, "geometry": {"type": "Point", "coordinates": [-73.578755, 45.524634]}, "type": "Feature"}, {"properties": {"bikes": 0, "status": "OPEN", "name": "\u00c9douard-Montpetit / Stirling", "stands": 19, "lon": -73.615085, "address": "\u00c9douard-Montpetit / Stirling", "lat": 45.50723}, "geometry": {"type": "Point", "coordinates": [-73.615085, 45.50723]}, "type": "Feature"}, {"properties": {"bikes": 0, "status": "OPEN", "name": "Louis-Colin / McKenna", "stands": 23, "lon": -73.618105, "address": "Louis-Colin / McKenna", "lat": 45.500035}, "geometry": {"type": "Point", "coordinates": [-73.618105, 45.500035]}, "type": "Feature"}, {"properties": {"bikes": 0, "status": "OPEN", "name": "Waverly / Van Horne", "stands": 11, "lon": -73.607723, "address": "Waverly / Van Horne", "lat": 45.527363}, "geometry": {"type": "Point", "coordinates": [-73.607723, 45.527363]}, "type": "Feature"}, {"properties": {"bikes": 0, "status": "OPEN", "name": "Hutchison / Van Horne", "stands": 19, "lon": -73.610737323761, "address": "Hutchison / Van Horne", "lat": 45.525021229213}, "geometry": {"type": "Point", "coordinates": [-73.610737323761, 45.525021229213]}, "type": "Feature"}, {"properties": {"bikes": 0, "status": "OPEN", "name": "Bernard / Jeanne-Mance", "stands": 27, "lon": -73.604847192764, "address": "Bernard / Jeanne-Mance", "lat": 45.524295872823}, "geometry": {"type": "Point", "coordinates": [-73.604847192764, 45.524295872823]}, "type": "Feature"}, {"properties": {"bikes": 0, "status": "OPEN", "name": "Basile-Routhier / Chabanel", "stands": 11, "lon": -73.647982, "address": "Basile-Routhier / Chabanel", "lat": 45.549949}, "geometry": {"type": "Point", "coordinates": [-73.647982, 45.549949]}, "type": "Feature"}, {"properties": {"bikes": 0, "status": "OPEN", "name": "10e Avenue / Rosemont", "stands": 14, "lon": -73.581185, "address": "10e Avenue / Rosemont", "lat": 45.552649}, "geometry": {"type": "Point", "coordinates": [-73.581185, 45.552649]}, "type": "Feature"}, {"properties": {"bikes": 0, "status": "OPEN", "name": "Boyer / Beaubien", "stands": 19, "lon": -73.602026, "address": "Boyer / Beaubien", "lat": 45.537041}, "geometry": {"type": "Point", "coordinates": [-73.602026, 45.537041]}, "type": "Feature"}, {"properties": {"bikes": 0, "status": "OPEN", "name": "Peel / Ottawa", "stands": 6, "lon": -73.559644, "address": "Peel / Ottawa", "lat": 45.493962}, "geometry": {"type": "Point", "coordinates": [-73.559644, 45.493962]}, "type": "Feature"}, {"properties": {"bikes": 0, "status": "OPEN", "name": "Notre-Dame / de la Montagne ", "stands": 26, "lon": -73.564817905426, "address": "Notre-Dame / de la Montagne ", "lat": 45.493029012584}, "geometry": {"type": "Point", "coordinates": [-73.564817905426, 45.493029012584]}, "type": "Feature"}, {"properties": {"bikes": 0, "status": "OPEN", "name": "Guy / Notre-Dame", "stands": 19, "lon": -73.567091, "address": "Guy / Notre-Dame", "lat": 45.489951}, "geometry": {"type": "Point", "coordinates": [-73.567091, 45.489951]}, "type": "Feature"}, {"properties": {"bikes": 0, "status": "OPEN", "name": "Louis-H\u00e9mon / Beaubien", "stands": 15, "lon": -73.59353, "address": "Louis-H\u00e9mon / Beaubien", "lat": 45.54705}, "geometry": {"type": "Point", "coordinates": [-73.59353, 45.54705]}, "type": "Feature"}, {"properties": {"bikes": 0, "status": "OPEN", "name": "Fairmount/St-Dominique", "stands": 15, "lon": -73.594059, "address": "Fairmount/St-Dominique", "lat": 45.524611}, "geometry": {"type": "Point", "coordinates": [-73.594059, 45.524611]}, "type": "Feature"}, {"properties": {"bikes": 0, "status": "OPEN", "name": "M\u00e9tro Charlevoix (Centre / Charlevoix)", "stands": 15, "lon": -73.569651246071, "address": "M\u00e9tro Charlevoix (Centre / Charlevoix)", "lat": 45.478227873091}, "geometry": {"type": "Point", "coordinates": [-73.569651246071, 45.478227873091]}, "type": "Feature"}, {"properties": {"bikes": 0, "status": "OPEN", "name": "des Seigneurs / Notre-Dame", "stands": 15, "lon": -73.568868, "address": "des Seigneurs / Notre-Dame", "lat": 45.487676}, "geometry": {"type": "Point", "coordinates": [-73.568868, 45.487676]}, "type": "Feature"}, {"properties": {"bikes": 0, "status": "OPEN", "name": "Sir Georges Etienne Cartier/Ste-\u00c9milie", "stands": 18, "lon": -73.585369, "address": "Sir Georges Etienne Cartier/Ste-\u00c9milie", "lat": 45.472743}, "geometry": {"type": "Point", "coordinates": [-73.585369, 45.472743]}, "type": "Feature"}, {"properties": {"bikes": 0, "status": "OPEN", "name": "Georges-Vanier / Notre-Dame", "stands": 18, "lon": -73.57178, "address": "Georges-Vanier / Notre-Dame", "lat": 45.48501}, "geometry": {"type": "Point", "coordinates": [-73.57178, 45.48501]}, "type": "Feature"}, {"properties": {"bikes": 0, "status": "OPEN", "name": "Quesnel/Vinet", "stands": 23, "lon": -73.577514, "address": "Quesnel/Vinet", "lat": 45.485889}, "geometry": {"type": "Point", "coordinates": [-73.577514, 45.485889]}, "type": "Feature"}, {"properties": {"bikes": 0, "status": "OPEN", "name": "Duvernay/charlevoix ", "stands": 19, "lon": -73.57486278, "address": "Duvernay/charlevoix ", "lat": 45.48203995}, "geometry": {"type": "Point", "coordinates": [-73.57486278, 45.48203995]}, "type": "Feature"}, {"properties": {"bikes": 0, "status": "OPEN", "name": "March\u00e9 Atwater", "stands": 33, "lon": -73.577102, "address": "March\u00e9 Atwater", "lat": 45.480359}, "geometry": {"type": "Point", "coordinates": [-73.577102, 45.480359]}, "type": "Feature"}, {"properties": {"bikes": 0, "status": "OPEN", "name": "M\u00e9tro Lionel-Groulx ( Lionel-Groulx /Charlevoix)", "stands": 31, "lon": -73.57731164, "address": "M\u00e9tro Lionel-Groulx ( Lionel-Groulx /Charlevoix)", "lat": 45.48392802}, "geometry": {"type": "Point", "coordinates": [-73.57731164, 45.48392802]}, "type": "Feature"}, {"properties": {"bikes": 0, "status": "OPEN", "name": "Saint-Antoine / Canning (Metro George-Vanier)", "stands": 17, "lon": -73.57656, "address": "Saint-Antoine / Canning (Metro George-Vanier)", "lat": 45.4891}, "geometry": {"type": "Point", "coordinates": [-73.57656, 45.4891]}, "type": "Feature"}, {"properties": {"bikes": 0, "status": "OPEN", "name": "Laval/Rachel", "stands": 0, "lon": -73.579463, "address": "Laval/Rachel", "lat": 45.520018}, "geometry": {"type": "Point", "coordinates": [-73.579463, 45.520018]}, "type": "Feature"}, {"properties": {"bikes": 0, "status": "OPEN", "name": "5e ave/Verdun", "stands": 19, "lon": -73.571877, "address": "5e ave/Verdun", "lat": 45.456049}, "geometry": {"type": "Point", "coordinates": [-73.571877, 45.456049]}, "type": "Feature"}, {"properties": {"bikes": 0, "status": "OPEN", "name": "Darlington / C\u00f4te-Sainte-Catherine", "stands": 31, "lon": -73.621215, "address": "Darlington / C\u00f4te-Sainte-Catherine", "lat": 45.505514}, "geometry": {"type": "Point", "coordinates": [-73.621215, 45.505514]}, "type": "Feature"}, {"properties": {"bikes": 0, "status": "OPEN", "name": "Palm/St-Remi", "stands": 19, "lon": -73.589848, "address": "Palm/St-Remi", "lat": 45.470303}, "geometry": {"type": "Point", "coordinates": [-73.589848, 45.470303]}, "type": "Feature"}, {"properties": {"bikes": 0, "status": "OPEN", "name": "Kent / C\u00f4te-Des-Neiges", "stands": 23, "lon": -73.633161, "address": "Kent / C\u00f4te-Des-Neiges", "lat": 45.501302}, "geometry": {"type": "Point", "coordinates": [-73.633161, 45.501302]}, "type": "Feature"}, {"properties": {"bikes": 0, "status": "OPEN", "name": "Drolet/St-Zotique", "stands": 19, "lon": -73.609546, "address": "Drolet/St-Zotique", "lat": 45.534795}, "geometry": {"type": "Point", "coordinates": [-73.609546, 45.534795]}, "type": "Feature"}, {"properties": {"bikes": 0, "status": "OPEN", "name": "De Lanaudiere/Marie-Anne", "stands": 19, "lon": -73.574777, "address": "De Lanaudiere/Marie-Anne", "lat": 45.529219}, "geometry": {"type": "Point", "coordinates": [-73.574777, 45.529219]}, "type": "Feature"}, {"properties": {"bikes": 0, "status": "OPEN", "name": "Lacombe / C\u00f4te-des-Neiges", "stands": 15, "lon": -73.6231855, "address": "Lacombe / C\u00f4te-des-Neiges", "lat": 45.49690965}, "geometry": {"type": "Point", "coordinates": [-73.6231855, 45.49690965]}, "type": "Feature"}, {"properties": {"bikes": 0, "status": "OPEN", "name": "Parc Jean-Brillant (Swail / Decelles)", "stands": 27, "lon": -73.618575, "address": "Parc Jean-Brillant (Swail / Decelles)", "lat": 45.497011}, "geometry": {"type": "Point", "coordinates": [-73.618575, 45.497011]}, "type": "Feature"}, {"properties": {"bikes": 0, "status": "OPEN", "name": "Jardin Botanique", "stands": 3, "lon": -73.554902, "address": "Jardin Botanique", "lat": 45.555029}, "geometry": {"type": "Point", "coordinates": [-73.554902, 45.555029]}, "type": "Feature"}, {"properties": {"bikes": 0, "status": "OPEN", "name": "Bordeaux/Gilford", "stands": 23, "lon": -73.57641, "address": "Bordeaux/Gilford", "lat": 45.536178}, "geometry": {"type": "Point", "coordinates": [-73.57641, 45.536178]}, "type": "Feature"}, {"properties": {"bikes": 0, "status": "OPEN", "name": "M\u00e9tro Pr\u00e9fontaine (Moreau / Hochelaga)", "stands": 21, "lon": -73.554635, "address": "M\u00e9tro Pr\u00e9fontaine (Moreau / Hochelaga)", "lat": 45.541814}, "geometry": {"type": "Point", "coordinates": [-73.554635, 45.541814]}, "type": "Feature"}, {"properties": {"bikes": 0, "status": "OPEN", "name": "M\u00e9tro Joliette  (joliette/Hochelaga)", "stands": 19, "lon": -73.551739, "address": "M\u00e9tro Joliette  (joliette/Hochelaga)", "lat": 45.547179}, "geometry": {"type": "Point", "coordinates": [-73.551739, 45.547179]}, "type": "Feature"}, {"properties": {"bikes": 0, "status": "OPEN", "name": "D'Orl\u00e9ans / Hochelaga", "stands": 11, "lon": -73.549502, "address": "D'Orl\u00e9ans / Hochelaga", "lat": 45.550668}, "geometry": {"type": "Point", "coordinates": [-73.549502, 45.550668]}, "type": "Feature"}, {"properties": {"bikes": 0, "status": "OPEN", "name": "Boyer / Jean-Talon", "stands": 15, "lon": -73.612441, "address": "Boyer / Jean-Talon", "lat": 45.541484}, "geometry": {"type": "Point", "coordinates": [-73.612441, 45.541484]}, "type": "Feature"}, {"properties": {"bikes": 0, "status": "OPEN", "name": "Aylwin / Ontario", "stands": 13, "lon": -73.545609, "address": "Aylwin / Ontario", "lat": 45.544136}, "geometry": {"type": "Point", "coordinates": [-73.545609, 45.544136]}, "type": "Feature"}, {"properties": {"bikes": 0, "status": "OPEN", "name": "Ontario / D\u00e9z\u00e9ry", "stands": 33, "lon": -73.547407, "address": "Ontario / D\u00e9z\u00e9ry", "lat": 45.541044}, "geometry": {"type": "Point", "coordinates": [-73.547407, 45.541044]}, "type": "Feature"}, {"properties": {"bikes": 0, "status": "OPEN", "name": "Valois / Ontario", "stands": 23, "lon": -73.5438269, "address": "Valois / Ontario", "lat": 45.54730353}, "geometry": {"type": "Point", "coordinates": [-73.5438269, 45.54730353]}, "type": "Feature"}, {"properties": {"bikes": 0, "status": "OPEN", "name": "Pierre-de-Coubertin / Aird", "stands": 40, "lon": -73.548687, "address": "Pierre-de-Coubertin / Aird", "lat": 45.55896}, "geometry": {"type": "Point", "coordinates": [-73.548687, 45.55896]}, "type": "Feature"}, {"properties": {"bikes": 0, "status": "OPEN", "name": "March\u00e9 Maisonneuve", "stands": 23, "lon": -73.53931, "address": "March\u00e9 Maisonneuve", "lat": 45.553491}, "geometry": {"type": "Point", "coordinates": [-73.53931, 45.553491]}, "type": "Feature"}, {"properties": {"bikes": 0, "status": "OPEN", "name": "Desjardins / Ontario", "stands": 27, "lon": -73.540764, "address": "Desjardins / Ontario", "lat": 45.551119}, "geometry": {"type": "Point", "coordinates": [-73.540764, 45.551119]}, "type": "Feature"}, {"properties": {"bikes": 0, "status": "OPEN", "name": "Guizot / Saint-Laurent", "stands": 15, "lon": -73.634319, "address": "Guizot / Saint-Laurent", "lat": 45.539964}, "geometry": {"type": "Point", "coordinates": [-73.634319, 45.539964]}, "type": "Feature"}, {"properties": {"bikes": 0, "status": "OPEN", "name": "Faillon / Saint-Denis", "stands": 15, "lon": -73.62038255, "address": "Faillon / Saint-Denis", "lat": 45.53985704}, "geometry": {"type": "Point", "coordinates": [-73.62038255, 45.53985704]}, "type": "Feature"}, {"properties": {"bikes": 0, "status": "OPEN", "name": "Gounod / Saint-Denis", "stands": 15, "lon": -73.625894, "address": "Gounod / Saint-Denis", "lat": 45.541791}, "geometry": {"type": "Point", "coordinates": [-73.625894, 45.541791]}, "type": "Feature"}, {"properties": {"bikes": 0, "status": "OPEN", "name": "De Gasp\u00e9 / Jarry", "stands": 15, "lon": -73.630089, "address": "De Gasp\u00e9 / Jarry", "lat": 45.540627}, "geometry": {"type": "Point", "coordinates": [-73.630089, 45.540627]}, "type": "Feature"}, {"properties": {"bikes": 0, "status": "OPEN", "name": "Guizot / Saint-Denis", "stands": 0, "lon": -73.632267, "address": "Guizot / Saint-Denis", "lat": 45.543376}, "geometry": {"type": "Point", "coordinates": [-73.632267, 45.543376]}, "type": "Feature"}, {"properties": {"bikes": 0, "status": "OPEN", "name": "De Gasp\u00e9 / De Li\u00e8ge", "stands": 15, "lon": -73.636557, "address": "De Gasp\u00e9 / De Li\u00e8ge", "lat": 45.542579}, "geometry": {"type": "Point", "coordinates": [-73.636557, 45.542579]}, "type": "Feature"}, {"properties": {"bikes": 0, "status": "OPEN", "name": "Leman/Chateaubriand", "stands": 15, "lon": -73.631103, "address": "Leman/Chateaubriand", "lat": 45.547218}, "geometry": {"type": "Point", "coordinates": [-73.631103, 45.547218]}, "type": "Feature"}, {"properties": {"bikes": 0, "status": "OPEN", "name": "Lajeunesse / Jarry", "stands": 19, "lon": -73.6284, "address": "Lajeunesse / Jarry", "lat": 45.543583}, "geometry": {"type": "Point", "coordinates": [-73.6284, 45.543583]}, "type": "Feature"}, {"properties": {"bikes": 0, "status": "OPEN", "name": "Du Rosaire / Saint-Hubert", "stands": 15, "lon": -73.621581, "address": "Du Rosaire / Saint-Hubert", "lat": 45.54467}, "geometry": {"type": "Point", "coordinates": [-73.621581, 45.54467]}, "type": "Feature"}, {"properties": {"bikes": 0, "status": "OPEN", "name": "Faillon / Saint-Hubert", "stands": 19, "lon": -73.617822, "address": "Faillon / Saint-Hubert", "lat": 45.542892}, "geometry": {"type": "Point", "coordinates": [-73.617822, 45.542892]}, "type": "Feature"}, {"properties": {"bikes": 0, "status": "OPEN", "name": "Boyer / Jarry", "stands": 14, "lon": -73.625377, "address": "Boyer / Jarry", "lat": 45.547283}, "geometry": {"type": "Point", "coordinates": [-73.625377, 45.547283]}, "type": "Feature"}, {"properties": {"bikes": 0, "status": "OPEN", "name": "Harvard/Monkland", "stands": 15, "lon": -73.6237, "address": "Harvard/Monkland", "lat": 45.4743}, "geometry": {"type": "Point", "coordinates": [-73.6237, 45.4743]}, "type": "Feature"}, {"properties": {"bikes": 0, "status": "OPEN", "name": "De La Roche / Everett", "stands": 18, "lon": -73.614841, "address": "De La Roche / Everett", "lat": 45.544867}, "geometry": {"type": "Point", "coordinates": [-73.614841, 45.544867]}, "type": "Feature"}, {"properties": {"bikes": 0, "status": "OPEN", "name": "Regina / Verdun", "stands": 15, "lon": -73.570769, "address": "Regina / Verdun", "lat": 45.467369}, "geometry": {"type": "Point", "coordinates": [-73.570769, 45.467369]}, "type": "Feature"}, {"properties": {"bikes": 0, "status": "OPEN", "name": "Marquette / Villeray", "stands": 1, "lon": -73.615021, "address": "Marquette / Villeray", "lat": 45.550551}, "geometry": {"type": "Point", "coordinates": [-73.615021, 45.550551]}, "type": "Feature"}, {"properties": {"bikes": 0, "status": "OPEN", "name": "Louis-H\u00e9mon / Villeray", "stands": 15, "lon": -73.610711, "address": "Louis-H\u00e9mon / Villeray", "lat": 45.554931}, "geometry": {"type": "Point", "coordinates": [-73.610711, 45.554931]}, "type": "Feature"}, {"properties": {"bikes": 0, "status": "OPEN", "name": "Valois/Ste-Catherine", "stands": 3, "lon": -73.537669, "address": "Valois/Ste-Catherine", "lat": 45.545409}, "geometry": {"type": "Point", "coordinates": [-73.537669, 45.545409]}, "type": "Feature"}, {"properties": {"bikes": 0, "status": "OPEN", "name": "M\u00e9tro St-Michel ( Shaughnessy/St-Michel)", "stands": 11, "lon": -73.599658, "address": "M\u00e9tro St-Michel ( Shaughnessy/St-Michel)", "lat": 45.559199}, "geometry": {"type": "Point", "coordinates": [-73.599658, 45.559199]}, "type": "Feature"}, {"properties": {"bikes": 0, "status": "OPEN", "name": "Ryde/Charlevoix", "stands": 19, "lon": -73.5646007, "address": "Ryde/Charlevoix", "lat": 45.4757434}, "geometry": {"type": "Point", "coordinates": [-73.5646007, 45.4757434]}, "type": "Feature"}, {"properties": {"bikes": 0, "status": "OPEN", "name": "Island/Centre", "stands": 22, "lon": -73.5644, "address": "Island/Centre", "lat": 45.4815}, "geometry": {"type": "Point", "coordinates": [-73.5644, 45.4815]}, "type": "Feature"}, {"properties": {"bikes": 0, "status": "OPEN", "name": "St-Dominique / Villeray", "stands": 15, "lon": -73.624872, "address": "St-Dominique / Villeray", "lat": 45.537813}, "geometry": {"type": "Point", "coordinates": [-73.624872, 45.537813]}, "type": "Feature"}, {"properties": {"bikes": 0, "status": "OPEN", "name": "de Li\u00e8ge / Lajeunesse", "stands": 15, "lon": -73.634748458862, "address": "de Li\u00e8ge / Lajeunesse", "lat": 45.545541556277}, "geometry": {"type": "Point", "coordinates": [-73.634748458862, 45.545541556277]}, "type": "Feature"}, {"properties": {"bikes": 0, "status": "OPEN", "name": "Drolet / Villeray", "stands": 11, "lon": -73.6234, "address": "Drolet / Villeray", "lat": 45.5401}, "geometry": {"type": "Point", "coordinates": [-73.6234, 45.5401]}, "type": "Feature"}, {"properties": {"bikes": 0, "status": "OPEN", "name": "Marcil/Sherbrooke", "stands": 2, "lon": -73.613924, "address": "Marcil/Sherbrooke", "lat": 45.471743}, "geometry": {"type": "Point", "coordinates": [-73.613924, 45.471743]}, "type": "Feature"}, {"properties": {"bikes": 0, "status": "OPEN", "name": "Sicard/Ontario", "stands": 19, "lon": -73.5373, "address": "Sicard/Ontario", "lat": 45.5566}, "geometry": {"type": "Point", "coordinates": [-73.5373, 45.5566]}, "type": "Feature"}, {"properties": {"bikes": 0, "status": "OPEN", "name": "Monkland/Girouard", "stands": 15, "lon": -73.6212, "address": "Monkland/Girouard", "lat": 45.4771}, "geometry": {"type": "Point", "coordinates": [-73.6212, 45.4771]}, "type": "Feature"}, {"properties": {"bikes": 0, "status": "OPEN", "name": "12e Avenue / Saint-Zotique", "stands": 15, "lon": -73.58925, "address": "12e Avenue / Saint-Zotique", "lat": 45.556905}, "geometry": {"type": "Point", "coordinates": [-73.58925, 45.556905]}, "type": "Feature"}, {"properties": {"bikes": 0, "status": "OPEN", "name": "6e avenue /St-Zotique", "stands": 19, "lon": -73.592336, "address": "6e avenue /St-Zotique", "lat": 45.553243}, "geometry": {"type": "Point", "coordinates": [-73.592336, 45.553243]}, "type": "Feature"}, {"properties": {"bikes": 0, "status": "OPEN", "name": "M\u00e9tro Champs-de-Mars (Viger/Sanguinet)", "stands": 25, "lon": -73.55653, "address": "M\u00e9tro Champs-de-Mars (Viger/Sanguinet)", "lat": 45.510499}, "geometry": {"type": "Point", "coordinates": [-73.55653, 45.510499]}, "type": "Feature"}, {"properties": {"bikes": 0, "status": "OPEN", "name": "8e Avenue / Beaubien", "stands": 4, "lon": -73.58752, "address": "8e Avenue / Beaubien", "lat": 45.553215}, "geometry": {"type": "Point", "coordinates": [-73.58752, 45.553215]}, "type": "Feature"}, {"properties": {"bikes": 0, "status": "OPEN", "name": "1ere Avenue / Beaubien", "stands": 15, "lon": -73.590446, "address": "1ere Avenue / Beaubien", "lat": 45.550476}, "geometry": {"type": "Point", "coordinates": [-73.590446, 45.550476]}, "type": "Feature"}, {"properties": {"bikes": 0, "status": "OPEN", "name": "1ere Avenue / Rosemont", "stands": 19, "lon": -73.58523, "address": "1ere Avenue / Rosemont", "lat": 45.547997}, "geometry": {"type": "Point", "coordinates": [-73.58523, 45.547997]}, "type": "Feature"}, {"properties": {"bikes": 0, "status": "OPEN", "name": "C\u00f4te St-Antoine/Royal", "stands": 15, "lon": -73.6198, "address": "C\u00f4te St-Antoine/Royal", "lat": 45.4688}, "geometry": {"type": "Point", "coordinates": [-73.6198, 45.4688]}, "type": "Feature"}, {"properties": {"bikes": 0, "status": "OPEN", "name": "Chambly / Rachel", "stands": 15, "lon": -73.558292, "address": "Chambly / Rachel", "lat": 45.549639}, "geometry": {"type": "Point", "coordinates": [-73.558292, 45.549639]}, "type": "Feature"}, {"properties": {"bikes": 0, "status": "OPEN", "name": "Wilderton  / Van Horne", "stands": 15, "lon": -73.624835, "address": "Wilderton  / Van Horne", "lat": 45.510042}, "geometry": {"type": "Point", "coordinates": [-73.624835, 45.510042]}, "type": "Feature"}, {"properties": {"bikes": 0, "status": "OPEN", "name": "3e Avenue / Dandurand", "stands": 15, "lon": -73.579221, "address": "3e Avenue / Dandurand", "lat": 45.547362}, "geometry": {"type": "Point", "coordinates": [-73.579221, 45.547362]}, "type": "Feature"}, {"properties": {"bikes": 0, "status": "OPEN", "name": "10e Avenue / Masson", "stands": 19, "lon": -73.573755, "address": "10e Avenue / Masson", "lat": 45.550321}, "geometry": {"type": "Point", "coordinates": [-73.573755, 45.550321]}, "type": "Feature"}, {"properties": {"bikes": 0, "status": "OPEN", "name": "West Broadway/Sherbrooke", "stands": 9, "lon": -73.6402148, "address": "West Broadway/Sherbrooke", "lat": 45.45639046}, "geometry": {"type": "Point", "coordinates": [-73.6402148, 45.45639046]}, "type": "Feature"}, {"properties": {"bikes": 0, "status": "OPEN", "name": "D'Orl\u00e9ans / Masson", "stands": 15, "lon": -73.569847, "address": "D'Orl\u00e9ans / Masson", "lat": 45.557192}, "geometry": {"type": "Point", "coordinates": [-73.569847, 45.557192]}, "type": "Feature"}, {"properties": {"bikes": 0, "status": "OPEN", "name": "4e Avenue / Masson", "stands": 30, "lon": -73.575515, "address": "4e Avenue / Masson", "lat": 45.546978}, "geometry": {"type": "Point", "coordinates": [-73.575515, 45.546978]}, "type": "Feature"}, {"properties": {"bikes": 0, "status": "OPEN", "name": "Molson / Masson", "stands": 23, "lon": -73.576931, "address": "Molson / Masson", "lat": 45.544099}, "geometry": {"type": "Point", "coordinates": [-73.576931, 45.544099]}, "type": "Feature"}, {"properties": {"bikes": 0, "status": "OPEN", "name": "9e Avenue / Saint-Joseph", "stands": 11, "lon": -73.569351, "address": "9e Avenue / Saint-Joseph", "lat": 45.548327}, "geometry": {"type": "Point", "coordinates": [-73.569351, 45.548327]}, "type": "Feature"}, {"properties": {"bikes": 0, "status": "OPEN", "name": "15e Avenue / Laurier", "stands": 19, "lon": -73.569531, "address": "15e Avenue / Laurier", "lat": 45.553408}, "geometry": {"type": "Point", "coordinates": [-73.569531, 45.553408]}, "type": "Feature"}, {"properties": {"bikes": 0, "status": "OPEN", "name": "Metro Place St-Henri (St-Ferdinand/St-Jacques)", "stands": 19, "lon": -73.587238, "address": "Metro Place St-Henri (St-Ferdinand/St-Jacques)", "lat": 45.477249}, "geometry": {"type": "Point", "coordinates": [-73.587238, 45.477249]}, "type": "Feature"}, {"properties": {"bikes": 0, "status": "OPEN", "name": "18e Avenue / Saint-Joseph", "stands": 14, "lon": -73.564742, "address": "18e Avenue / Saint-Joseph", "lat": 45.554165}, "geometry": {"type": "Point", "coordinates": [-73.564742, 45.554165]}, "type": "Feature"}, {"properties": {"bikes": 0, "status": "OPEN", "name": "Grand trunk/Hibernia", "stands": 19, "lon": -73.56385, "address": "Grand trunk/Hibernia", "lat": 45.47968}, "geometry": {"type": "Point", "coordinates": [-73.56385, 45.47968]}, "type": "Feature"}, {"properties": {"bikes": 0, "status": "OPEN", "name": "Bannantyne /de l'Eglise", "stands": 15, "lon": -73.575621, "address": "Bannantyne /de l'Eglise", "lat": 45.463257}, "geometry": {"type": "Point", "coordinates": [-73.575621, 45.463257]}, "type": "Feature"}, {"properties": {"bikes": 0, "status": "OPEN", "name": "Parc J.-Arthur-Champagne (Chambly/Mont-Royal)", "stands": 19, "lon": -73.561916, "address": "Parc J.-Arthur-Champagne (Chambly/Mont-Royal)", "lat": 45.551584}, "geometry": {"type": "Point", "coordinates": [-73.561916, 45.551584]}, "type": "Feature"}, {"properties": {"bikes": 0, "status": "OPEN", "name": "Omer-Lavall\u00e9e / Midway", "stands": 23, "lon": -73.561937, "address": "Omer-Lavall\u00e9e / Midway", "lat": 45.545474}, "geometry": {"type": "Point", "coordinates": [-73.561937, 45.545474]}, "type": "Feature"}, {"properties": {"bikes": 0, "status": "OPEN", "name": "Darling / Sherbrooke", "stands": 3, "lon": -73.556527, "address": "Darling / Sherbrooke", "lat": 45.545425}, "geometry": {"type": "Point", "coordinates": [-73.556527, 45.545425]}, "type": "Feature"}, {"properties": {"bikes": 0, "status": "OPEN", "name": "M\u00e9tro Pie-IX (Pierre-de-Coubertin / Pie-IX)", "stands": 41, "lon": -73.551761, "address": "M\u00e9tro Pie-IX (Pierre-de-Coubertin / Pie-IX)", "lat": 45.553879}, "geometry": {"type": "Point", "coordinates": [-73.551761, 45.553879]}, "type": "Feature"}, {"properties": {"bikes": 0, "status": "OPEN", "name": "Parc Outremont (Bloomfield / Elmwood)", "stands": 15, "lon": -73.603251, "address": "Parc Outremont (Bloomfield / Elmwood)", "lat": 45.518215}, "geometry": {"type": "Point", "coordinates": [-73.603251, 45.518215]}, "type": "Feature"}, {"properties": {"bikes": 0, "status": "OPEN", "name": "Stuart / C\u00f4te-Ste-Catherine", "stands": 15, "lon": -73.60628, "address": "Stuart / C\u00f4te-Ste-Catherine", "lat": 45.51529}, "geometry": {"type": "Point", "coordinates": [-73.60628, 45.51529]}, "type": "Feature"}, {"properties": {"bikes": 0, "status": "OPEN", "name": "Dunlop / Van Horne", "stands": 11, "lon": -73.619682, "address": "Dunlop / Van Horne", "lat": 45.514905}, "geometry": {"type": "Point", "coordinates": [-73.619682, 45.514905]}, "type": "Feature"}, {"properties": {"bikes": 0, "status": "OPEN", "name": "Rockland / Lajoie", "stands": 15, "lon": -73.614991, "address": "Rockland / Lajoie", "lat": 45.515617}, "geometry": {"type": "Point", "coordinates": [-73.614991, 45.515617]}, "type": "Feature"}, {"properties": {"bikes": 0, "status": "OPEN", "name": "Davaar / C\u00f4te-Sainte-Catherine", "stands": 15, "lon": -73.610871, "address": "Davaar / C\u00f4te-Sainte-Catherine", "lat": 45.514379}, "geometry": {"type": "Point", "coordinates": [-73.610871, 45.514379]}, "type": "Feature"}, {"properties": {"bikes": 0, "status": "OPEN", "name": "Mont-Royal / Vincent-D'Indy ", "stands": 38, "lon": -73.611429, "address": "Mont-Royal / Vincent-D'Indy ", "lat": 45.510086}, "geometry": {"type": "Point", "coordinates": [-73.611429, 45.510086]}, "type": "Feature"}, {"properties": {"bikes": 0, "status": "OPEN", "name": "Gary Carter / St-Laurent", "stands": 0, "lon": -73.622351, "address": "Gary Carter / St-Laurent", "lat": 45.536152}, "geometry": {"type": "Point", "coordinates": [-73.622351, 45.536152]}, "type": "Feature"}, {"properties": {"bikes": 0, "status": "OPEN", "name": "Saint-Dominique / Jean talon", "stands": 23, "lon": -73.617459, "address": "Saint-Dominique / Jean talon", "lat": 45.535189}, "geometry": {"type": "Point", "coordinates": [-73.617459, 45.535189]}, "type": "Feature"}, {"properties": {"bikes": 0, "status": "OPEN", "name": "Lionel-Groulx / George-Vanier", "stands": 19, "lon": -73.573286, "address": "Lionel-Groulx / George-Vanier", "lat": 45.486457}, "geometry": {"type": "Point", "coordinates": [-73.573286, 45.486457]}, "type": "Feature"}, {"properties": {"bikes": 0, "status": "OPEN", "name": "De l'H\u00f4tel-de-Ville / Sherbrooke", "stands": 15, "lon": -73.568471074104, "address": "De l'H\u00f4tel-de-Ville / Sherbrooke", "lat": 45.514530838669}, "geometry": {"type": "Point", "coordinates": [-73.568471074104, 45.514530838669]}, "type": "Feature"}, {"properties": {"bikes": 0, "status": "OPEN", "name": "Mansfield / Ste-Catherine ", "stands": 0, "lon": -73.5718136, "address": "Mansfield / Ste-Catherine ", "lat": 45.5014018}, "geometry": {"type": "Point", "coordinates": [-73.5718136, 45.5014018]}, "type": "Feature"}, {"properties": {"bikes": 0, "status": "OPEN", "name": "Prince-Arthur / Saint-Urbain", "stands": 19, "lon": -73.573489, "address": "Prince-Arthur / Saint-Urbain", "lat": 45.512762}, "geometry": {"type": "Point", "coordinates": [-73.573489, 45.512762]}, "type": "Feature"}, {"properties": {"bikes": 0, "status": "OPEN", "name": "M\u00e9tro Jean-Drapeau", "stands": 27, "lon": -73.53382, "address": "M\u00e9tro Jean-Drapeau", "lat": 45.512097}, "geometry": {"type": "Point", "coordinates": [-73.53382, 45.512097]}, "type": "Feature"}, {"properties": {"bikes": 0, "status": "OPEN", "name": "Quai de la navette fluviale", "stands": 19, "lon": -73.537658, "address": "Quai de la navette fluviale", "lat": 45.511146}, "geometry": {"type": "Point", "coordinates": [-73.537658, 45.511146]}, "type": "Feature"}, {"properties": {"bikes": 0, "status": "OPEN", "name": "M\u00e9tro Parc  (Ogilvy/Hutchison)", "stands": 17, "lon": -73.624052, "address": "M\u00e9tro Parc  (Ogilvy/Hutchison)", "lat": 45.530617}, "geometry": {"type": "Point", "coordinates": [-73.624052, 45.530617]}, "type": "Feature"}, {"properties": {"bikes": 0, "status": "OPEN", "name": "La Ronde", "stands": 14, "lon": -73.534859, "address": "La Ronde", "lat": 45.521769}, "geometry": {"type": "Point", "coordinates": [-73.534859, 45.521769]}, "type": "Feature"}, {"properties": {"bikes": 0, "status": "OPEN", "name": "Wilson/Sherbrooke", "stands": 15, "lon": -73.6162, "address": "Wilson/Sherbrooke", "lat": 45.4703}, "geometry": {"type": "Point", "coordinates": [-73.6162, 45.4703]}, "type": "Feature"},