{"type": "FeatureCollection", "features": [{"type": "Feature", "properties": {"status": "OPEN", "address": "Notre Dame / Place Jacques Cartier", "lat": 45.508498, "bikes": 0, "stands": 27, "lon": -73.553786, "name": "Notre Dame / Place Jacques Cartier"}, "geometry": {"type": "Point", "coordinates": [-73.553786, 45.508498]}}, {"type": "Feature", "properties": {"status": "OPEN", "address": "D\u00e9zery/Ste-Catherine", "lat": 45.539185, "bikes": 0, "stands": 21, "lon": -73.541019, "name": "D\u00e9zery/Ste-Catherine"}, "geometry": {"type": "Point", "coordinates": [-73.541019, 45.539185]}}, {"type": "Feature", "properties": {"status": "OPEN", "address": "Evans/Clark", "lat": 45.511119, "bikes": 0, "stands": 23, "lon": -73.567974, "name": "Evans/Clark"}, "geometry": {"type": "Point", "coordinates": [-73.567974, 45.511119]}}, {"type": "Feature", "properties": {"status": "OPEN", "address": "Berri / Saint-Antoine", "lat": 45.512053603271, "bikes": 0, "stands": 0, "lon": -73.553930819035, "name": "Berri / Saint-Antoine"}, "geometry": {"type": "Point", "coordinates": [-73.553930819035, 45.512053603271]}}, {"type": "Feature", "properties": {"status": "OPEN", "address": "Pr\u00e9sident-kennedy/Jeanne Mance", "lat": 45.508349, "bikes": 0, "stands": 23, "lon": -73.5689, "name": "Pr\u00e9sident-kennedy/Jeanne Mance"}, "geometry": {"type": "Point", "coordinates": [-73.5689, 45.508349]}}, {"type": "Feature", "properties": {"status": "OPEN", "address": "16e avenue/Rosemont", "lat": 45.556752, "bikes": 0, "stands": 3, "lon": -73.577684, "name": "16e avenue/Rosemont"}, "geometry": {"type": "Point", "coordinates": [-73.577684, 45.556752]}}, {"type": "Feature", "properties": {"status": "OPEN", "address": "de l'H\u00f4tel-de-Ville / Sainte-Catherine", "lat": 45.511640093571, "bikes": 0, "stands": 27, "lon": -73.562183976173, "name": "de l'H\u00f4tel-de-Ville / Sainte-Catherine"}, "geometry": {"type": "Point", "coordinates": [-73.562183976173, 45.511640093571]}}, {"type": "Feature", "properties": {"status": "OPEN", "address": "Sanguinet /Ste-Catherine", "lat": 45.512738, "bikes": 0, "stands": 23, "lon": -73.561438, "name": "Sanguinet /Ste-Catherine"}, "geometry": {"type": "Point", "coordinates": [-73.561438, 45.512738]}}, {"type": "Feature", "properties": {"status": "OPEN", "address": "Berri / Sainte-Catherine", "lat": 45.514624813586, "bikes": 0, "stands": 2, "lon": -73.559775352478, "name": "Berri / Sainte-Catherine"}, "geometry": {"type": "Point", "coordinates": [-73.559775352478, 45.514624813586]}}, {"type": "Feature", "properties": {"status": "OPEN", "address": "Sainte-Catherine / Saint-Denis", "lat": 45.513711370744, "bikes": 0, "stands": 39, "lon": -73.560547828674, "name": "Sainte-Catherine / Saint-Denis"}, "geometry": {"type": "Point", "coordinates": [-73.560547828674, 45.513711370744]}}, {"type": "Feature", "properties": {"status": "OPEN", "address": "Saint-Andr\u00e9 / Saint-Antoine", "lat": 45.514076, "bikes": 0, "stands": 15, "lon": -73.552439, "name": "Saint-Andr\u00e9 / Saint-Antoine"}, "geometry": {"type": "Point", "coordinates": [-73.552439, 45.514076]}}, {"type": "Feature", "properties": {"status": "OPEN", "address": "M\u00e9tro Saint-Laurent (Maisonneuve / St-Laurent)", "lat": 45.51066, "bikes": 0, "stands": 48, "lon": -73.56497, "name": "M\u00e9tro Saint-Laurent (Maisonneuve / St-Laurent)"}, "geometry": {"type": "Point", "coordinates": [-73.56497, 45.51066]}}, {"type": "Feature", "properties": {"status": "OPEN", "address": "Sanguinet / de Maisonneuve", "lat": 45.51339, "bikes": 0, "stands": 7, "lon": -73.56255, "name": "Sanguinet / de Maisonneuve"}, "geometry": {"type": "Point", "coordinates": [-73.56255, 45.51339]}}, {"type": "Feature", "properties": {"status": "OPEN", "address": "St-Denis / de Maisonneuve", "lat": 45.514649, "bikes": 0, "stands": 0, "lon": -73.562152, "name": "St-Denis / de Maisonneuve"}, "geometry": {"type": "Point", "coordinates": [-73.562152, 45.514649]}}, {"type": "Feature", "properties": {"status": "OPEN", "address": "Berri / de Maisonneuve", "lat": 45.515299, "bikes": 0, "stands": 27, "lon": -73.561273, "name": "Berri / de Maisonneuve"}, "geometry": {"type": "Point", "coordinates": [-73.561273, 45.515299]}}, {"type": "Feature", "properties": {"status": "OPEN", "address": "Jacques Le Ber/Ch Pointe Nord", "lat": 45.472503, "bikes": 0, "stands": 2, "lon": -73.539285, "name": "Jacques Le Ber/Ch Pointe Nord"}, "geometry": {"type": "Point", "coordinates": [-73.539285, 45.472503]}}, {"type": "Feature", "properties": {"status": "OPEN", "address": "Square Ahmerst/Wolfe", "lat": 45.52106924, "bikes": 0, "stands": 14, "lon": -73.5637571, "name": "Square Ahmerst/Wolfe"}, "geometry": {"type": "Point", "coordinates": [-73.5637571, 45.52106924]}}, {"type": "Feature", "properties": {"status": "OPEN", "address": "Saint-Andr\u00e9 / Ontario", "lat": 45.51889, "bikes": 0, "stands": 17, "lon": -73.56353, "name": "Saint-Andr\u00e9 / Ontario"}, "geometry": {"type": "Point", "coordinates": [-73.56353, 45.51889]}}, {"type": "Feature", "properties": {"status": "OPEN", "address": "Berri / Sherbrooke", "lat": 45.517836, "bikes": 0, "stands": 27, "lon": -73.567205, "name": "Berri / Sherbrooke"}, "geometry": {"type": "Point", "coordinates": [-73.567205, 45.517836]}}, {"type": "Feature", "properties": {"status": "OPEN", "address": "Sanguinet / Ontario", "lat": 45.514784, "bikes": 0, "stands": 23, "lon": -73.565338, "name": "Sanguinet / Ontario"}, "geometry": {"type": "Point", "coordinates": [-73.565338, 45.514784]}}, {"type": "Feature", "properties": {"status": "OPEN", "address": "Montcalm/Ontario", "lat": 45.521165, "bikes": 0, "stands": 19, "lon": -73.562441, "name": "Montcalm/Ontario"}, "geometry": {"type": "Point", "coordinates": [-73.562441, 45.521165]}}, {"type": "Feature", "properties": {"status": "OPEN", "address": "de la Commune / Berri", "lat": 45.51086, "bikes": 0, "stands": 36, "lon": -73.54983, "name": "de la Commune / Berri"}, "geometry": {"type": "Point", "coordinates": [-73.54983, 45.51086]}}, {"type": "Feature", "properties": {"status": "OPEN", "address": "Des \u00c9rables/ Sherbrooke", "lat": 45.531367, "bikes": 0, "stands": 15, "lon": -73.562624, "name": "Des \u00c9rables/ Sherbrooke"}, "geometry": {"type": "Point", "coordinates": [-73.562624, 45.531367]}}, {"type": "Feature", "properties": {"status": "OPEN", "address": "Notre-Dame / Saint-Gabriel", "lat": 45.507143919284, "bikes": 0, "stands": 0, "lon": -73.555119037628, "name": "Notre-Dame / Saint-Gabriel"}, "geometry": {"type": "Point", "coordinates": [-73.555119037628, 45.507143919284]}}, {"type": "Feature", "properties": {"status": "OPEN", "address": "de la Commune / Place Jacques-Cartier", "lat": 45.507192792674, "bikes": 0, "stands": 54, "lon": -73.552007675171, "name": "de la Commune / Place Jacques-Cartier"}, "geometry": {"type": "Point", "coordinates": [-73.552007675171, 45.507192792674]}}, {"type": "Feature", "properties": {"status": "OPEN", "address": "Belair/St-Antoine", "lat": 45.482843, "bikes": 0, "stands": 23, "lon": -73.584352, "name": "Belair/St-Antoine"}, "geometry": {"type": "Point", "coordinates": [-73.584352, 45.482843]}}, {"type": "Feature", "properties": {"status": "OPEN", "address": "Saint-Antoine / Saint-Fran\u00e7ois-Xavier", "lat": 45.50449, "bikes": 0, "stands": 15, "lon": -73.5592, "name": "Saint-Antoine / Saint-Fran\u00e7ois-Xavier"}, "geometry": {"type": "Point", "coordinates": [-73.5592, 45.50449]}}, {"type": "Feature", "properties": {"status": "OPEN", "address": "M\u00e9tro Place-d'Armes (Viger/St-Urbain)", "lat": 45.50623, "bikes": 0, "stands": 0, "lon": -73.55976, "name": "M\u00e9tro Place-d'Armes (Viger/St-Urbain)"}, "geometry": {"type": "Point", "coordinates": [-73.55976, 45.50623]}}, {"type": "Feature", "properties": {"status": "OPEN", "address": "18e av/beaubien", "lat": 45.559761, "bikes": 0, "stands": 27, "lon": -73.582429, "name": "18e av/beaubien"}, "geometry": {"type": "Point", "coordinates": [-73.582429, 45.559761]}}, {"type": "Feature", "properties": {"status": "OPEN", "address": "Saint-Urbain / Ren\u00e9-L\u00e9vesque", "lat": 45.5079, "bikes": 0, "stands": 39, "lon": -73.563112, "name": "Saint-Urbain / Ren\u00e9-L\u00e9vesque"}, "geometry": {"type": "Point", "coordinates": [-73.563112, 45.5079]}}, {"type": "Feature", "properties": {"status": "OPEN", "address": "Viger/Jeanne Mance", "lat": 45.504803, "bikes": 0, "stands": 3, "lon": -73.5612, "name": "Viger/Jeanne Mance"}, "geometry": {"type": "Point", "coordinates": [-73.5612, 45.504803]}}, {"type": "Feature", "properties": {"status": "OPEN", "address": "de la Commune / Saint-Sulpice", "lat": 45.504068569843, "bikes": 0, "stands": 43, "lon": -73.553606271744, "name": "de la Commune / Saint-Sulpice"}, "geometry": {"type": "Point", "coordinates": [-73.553606271744, 45.504068569843]}}, {"type": "Feature", "properties": {"status": "OPEN", "address": "Saint-Nicolas / Place d'Youville", "lat": 45.501974378779, "bikes": 0, "stands": 14, "lon": -73.555156588554, "name": "Saint-Nicolas / Place d'Youville"}, "geometry": {"type": "Point", "coordinates": [-73.555156588554, 45.501974378779]}}, {"type": "Feature", "properties": {"status": "OPEN", "address": "McGill / d'Youville", "lat": 45.49975, "bikes": 0, "stands": 23, "lon": -73.55566, "name": "McGill / d'Youville"}, "geometry": {"type": "Point", "coordinates": [-73.55566, 45.49975]}}, {"type": "Feature", "properties": {"status": "OPEN", "address": "McGill / des R\u00e9collets", "lat": 45.500779, "bikes": 0, "stands": 12, "lon": -73.558826, "name": "McGill / des R\u00e9collets"}, "geometry": {"type": "Point", "coordinates": [-73.558826, 45.500779]}}, {"type": "Feature", "properties": {"status": "OPEN", "address": "Saint-Jacques / Saint-Pierre", "lat": 45.5028, "bikes": 0, "stands": 22, "lon": -73.55917, "name": "Saint-Jacques / Saint-Pierre"}, "geometry": {"type": "Point", "coordinates": [-73.55917, 45.5028]}}, {"type": "Feature", "properties": {"status": "OPEN", "address": "Saint-Jacques / Gauvin", "lat": 45.500674, "bikes": 0, "stands": 10, "lon": -73.561082, "name": "Saint-Jacques / Gauvin"}, "geometry": {"type": "Point", "coordinates": [-73.561082, 45.500674]}}, {"type": "Feature", "properties": {"status": "OPEN", "address": "de la Gaucheti\u00e8re / University", "lat": 45.500675, "bikes": 0, "stands": 3, "lon": -73.565354, "name": "de la Gaucheti\u00e8re / University"}, "geometry": {"type": "Point", "coordinates": [-73.565354, 45.500675]}}, {"type": "Feature", "properties": {"status": "OPEN", "address": "Square Victoria", "lat": 45.50206, "bikes": 0, "stands": 1, "lon": -73.56295, "name": "Square Victoria"}, "geometry": {"type": "Point", "coordinates": [-73.56295, 45.50206]}}, {"type": "Feature", "properties": {"status": "OPEN", "address": "Rue St-Andr\u00e9 / Roy", "lat": 45.52169, "bikes": 0, "stands": 15, "lon": -73.570209, "name": "Rue St-Andr\u00e9 / Roy"}, "geometry": {"type": "Point", "coordinates": [-73.570209, 45.52169]}}, {"type": "Feature", "properties": {"status": "OPEN", "address": "de la Gaucheti\u00e8re / Mansfield", "lat": 45.49871, "bikes": 0, "stands": 0, "lon": -73.56671, "name": "de la Gaucheti\u00e8re / Mansfield"}, "geometry": {"type": "Point", "coordinates": [-73.56671, 45.49871]}}, {"type": "Feature", "properties": {"status": "OPEN", "address": "Milton / Durocher", "lat": 45.508231, "bikes": 0, "stands": 31, "lon": -73.574707, "name": "Milton / Durocher"}, "geometry": {"type": "Point", "coordinates": [-73.574707, 45.508231]}}, {"type": "Feature", "properties": {"status": "OPEN", "address": "King / Wellington", "lat": 45.4982, "bikes": 0, "stands": 0, "lon": -73.55488, "name": "King / Wellington"}, "geometry": {"type": "Point", "coordinates": [-73.55488, 45.4982]}}, {"type": "Feature", "properties": {"status": "OPEN", "address": "de la Commune / McGill", "lat": 45.49886, "bikes": 0, "stands": 3, "lon": -73.55232, "name": "de la Commune / McGill"}, "geometry": {"type": "Point", "coordinates": [-73.55232, 45.49886]}}, {"type": "Feature", "properties": {"status": "OPEN", "address": "De Gasp\u00e9 / Marmier", "lat": 45.529686, "bikes": 0, "stands": 3, "lon": -73.601728, "name": "De Gasp\u00e9 / Marmier"}, "geometry": {"type": "Point", "coordinates": [-73.601728, 45.529686]}}, {"type": "Feature", "properties": {"status": "OPEN", "address": "De la Commune / King", "lat": 45.497438, "bikes": 0, "stands": 39, "lon": -73.552802, "name": "De la Commune / King"}, "geometry": {"type": "Point", "coordinates": [-73.552802, 45.497438]}}, {"type": "Feature", "properties": {"status": "OPEN", "address": "Belmont / Beaver Hall", "lat": 45.502326, "bikes": 0, "stands": 16, "lon": -73.565138, "name": "Belmont / Beaver Hall"}, "geometry": {"type": "Point", "coordinates": [-73.565138, 45.502326]}}, {"type": "Feature", "properties": {"status": "OPEN", "address": "Peel / ave des Canadiens de Montr\u00e9al", "lat": 45.497697, "bikes": 0, "stands": 0, "lon": -73.568646, "name": "Peel / ave des Canadiens de Montr\u00e9al"}, "geometry": {"type": "Point", "coordinates": [-73.568646, 45.497697]}}, {"type": "Feature", "properties": {"status": "OPEN", "address": "Drummond / Rene Levesque", "lat": 45.497196, "bikes": 0, "stands": 0, "lon": -73.571384, "name": "Drummond / Rene Levesque"}, "geometry": {"type": "Point", "coordinates": [-73.571384, 45.497196]}}, {"type": "Feature", "properties": {"status": "OPEN", "address": "Metcalfe / Sainte-Catherine", "lat": 45.500684739422, "bikes": 0, "stands": 31, "lon": -73.572156429291, "name": "Metcalfe / Sainte-Catherine"}, "geometry": {"type": "Point", "coordinates": [-73.572156429291, 45.500684739422]}}, {"type": "Feature", "properties": {"status": "OPEN", "address": "Mansfield / Ren\u00e9-L\u00e9vesque", "lat": 45.50015, "bikes": 0, "stands": 6, "lon": -73.56928, "name": "Mansfield / Ren\u00e9-L\u00e9vesque"}, "geometry": {"type": "Point", "coordinates": [-73.56928, 45.50015]}}, {"type": "Feature", "properties": {"status": "OPEN", "address": "Sainte-Catherine / McGill College", "lat": 45.50176, "bikes": 0, "stands": 0, "lon": -73.57128, "name": "Sainte-Catherine / McGill College"}, "geometry": {"type": "Point", "coordinates": [-73.57128, 45.50176]}}, {"type": "Feature", "properties": {"status": "OPEN", "address": "Drummond / Sainte-Catherine", "lat": 45.498639303304, "bikes": 0, "stands": 0, "lon": -73.57422709465, "name": "Drummond / Sainte-Catherine"}, "geometry": {"type": "Point", "coordinates": [-73.57422709465, 45.498639303304]}}, {"type": "Feature", "properties": {"status": "OPEN", "address": "Drummond / de Maisonneuve", "lat": 45.49947, "bikes": 0, "stands": 0, "lon": -73.57591, "name": "Drummond / de Maisonneuve"}, "geometry": {"type": "Point", "coordinates": [-73.57591, 45.49947]}}, {"type": "Feature", "properties": {"status": "OPEN", "address": "de Maisonneuve / Stanley", "lat": 45.50038, "bikes": 0, "stands": 41, "lon": -73.57507, "name": "de Maisonneuve / Stanley"}, "geometry": {"type": "Point", "coordinates": [-73.57507, 45.50038]}}, {"type": "Feature", "properties": {"status": "OPEN", "address": "de la montagne / Sherbrooke", "lat": 45.499532, "bikes": 0, "stands": 18, "lon": -73.57869, "name": "de la montagne / Sherbrooke"}, "geometry": {"type": "Point", "coordinates": [-73.57869, 45.499532]}}, {"type": "Feature", "properties": {"status": "OPEN", "address": "de Maisonneuve / University", "lat": 45.503475, "bikes": 0, "stands": 23, "lon": -73.572103, "name": "de Maisonneuve / University"}, "geometry": {"type": "Point", "coordinates": [-73.572103, 45.503475]}}, {"type": "Feature", "properties": {"status": "OPEN", "address": "Mansfield / Sherbrooke", "lat": 45.50297, "bikes": 0, "stands": 12, "lon": -73.57505, "name": "Mansfield / Sherbrooke"}, "geometry": {"type": "Point", "coordinates": [-73.57505, 45.50297]}}, {"type": "Feature", "properties": {"status": "OPEN", "address": "University / Milton", "lat": 45.50624, "bikes": 0, "stands": 0, "lon": -73.57622, "name": "University / Milton"}, "geometry": {"type": "Point", "coordinates": [-73.57622, 45.50624]}}, {"type": "Feature", "properties": {"status": "OPEN", "address": "de Maisonneuve / Aylmer", "lat": 45.50501, "bikes": 0, "stands": 0, "lon": -73.57069, "name": "de Maisonneuve / Aylmer"}, "geometry": {"type": "Point", "coordinates": [-73.57069, 45.50501]}}, {"type": "Feature", "properties": {"status": "OPEN", "address": "St-Cl\u00e9ment/Ste-Catherine", "lat": 45.556225, "bikes": 0, "stands": 18, "lon": -73.530067, "name": "St-Cl\u00e9ment/Ste-Catherine"}, "geometry": {"type": "Point", "coordinates": [-73.530067, 45.556225]}}, {"type": "Feature", "properties": {"status": "OPEN", "address": "de Maisonneuve / de Bleury", "lat": 45.50708, "bikes": 0, "stands": 68, "lon": -73.56917, "name": "de Maisonneuve / de Bleury"}, "geometry": {"type": "Point", "coordinates": [-73.56917, 45.50708]}}, {"type": "Feature", "properties": {"status": "OPEN", "address": "Mackay / Ren\u00e9-L\u00e9vesque", "lat": 45.494499323782, "bikes": 0, "stands": 3, "lon": -73.57417345047, "name": "Mackay / Ren\u00e9-L\u00e9vesque"}, "geometry": {"type": "Point", "coordinates": [-73.57417345047, 45.494499323782]}}, {"type": "Feature", "properties": {"status": "OPEN", "address": "  Saint-Alexandre / Sainte-Catherine", "lat": 45.50537693, "bikes": 0, "stands": 33, "lon": -73.5676195, "name": "  Saint-Alexandre / Sainte-Catherine"}, "geometry": {"type": "Point", "coordinates": [-73.5676195, 45.50537693]}}, {"type": "Feature", "properties": {"status": "OPEN", "address": "6e avenue/Rosemont", "lat": 45.550613, "bikes": 0, "stands": 13, "lon": -73.582883, "name": "6e avenue/Rosemont"}, "geometry": {"type": "Point", "coordinates": [-73.582883, 45.550613]}}, {"type": "Feature", "properties": {"status": "OPEN", "address": "Square Phillips", "lat": 45.5041581, "bikes": 0, "stands": 31, "lon": -73.5686929, "name": "Square Phillips"}, "geometry": {"type": "Point", "coordinates": [-73.5686929, 45.5041581]}}, {"type": "Feature", "properties": {"status": "OPEN", "address": "Lambert-Closse / Tupper", "lat": 45.489609, "bikes": 0, "stands": 19, "lon": -73.582445, "name": "Lambert-Closse / Tupper"}, "geometry": {"type": "Point", "coordinates": [-73.582445, 45.489609]}}, {"type": "Feature", "properties": {"status": "OPEN", "address": "Notre-Dame / Peel", "lat": 45.4952, "bikes": 0, "stands": 38, "lon": -73.56328, "name": "Notre-Dame / Peel"}, "geometry": {"type": "Point", "coordinates": [-73.56328, 45.4952]}}, {"type": "Feature", "properties": {"status": "OPEN", "address": "Saint-Jacques / Guy", "lat": 45.49138, "bikes": 0, "stands": 15, "lon": -73.57015, "name": "Saint-Jacques / Guy"}, "geometry": {"type": "Point", "coordinates": [-73.57015, 45.49138]}}, {"type": "Feature", "properties": {"status": "OPEN", "address": "M\u00e9tro Lucien-L'Allier  (Lucien l'Allier/Argyle)", "lat": 45.49486, "bikes": 0, "stands": 17, "lon": -73.57108, "name": "M\u00e9tro Lucien-L'Allier  (Lucien l'Allier/Argyle)"}, "geometry": {"type": "Point", "coordinates": [-73.57108, 45.49486]}}, {"type": "Feature", "properties": {"status": "OPEN", "address": "Joseph Manceau / Ren\u00e9-L\u00e9vesque", "lat": 45.492147, "bikes": 0, "stands": 0, "lon": -73.576453, "name": "Joseph Manceau / Ren\u00e9-L\u00e9vesque"}, "geometry": {"type": "Point", "coordinates": [-73.576453, 45.492147]}}, {"type": "Feature", "properties": {"status": "OPEN", "address": "Crescent / Ren\u00e9-L\u00e9vesque", "lat": 45.49606, "bikes": 0, "stands": 0, "lon": -73.57348, "name": "Crescent / Ren\u00e9-L\u00e9vesque"}, "geometry": {"type": "Point", "coordinates": [-73.57348, 45.49606]}}, {"type": "Feature", "properties": {"status": "OPEN", "address": "Chateaubriand / Beaubien", "lat": 45.535431, "bikes": 0, "stands": 27, "lon": -73.603522, "name": "Chateaubriand / Beaubien"}, "geometry": {"type": "Point", "coordinates": [-73.603522, 45.535431]}}, {"type": "Feature", "properties": {"status": "OPEN", "address": "M\u00e9tro Atwater (Atwater / Maisonneuve)", "lat": 45.489904, "bikes": 0, "stands": 15, "lon": -73.585962, "name": "M\u00e9tro Atwater (Atwater / Maisonneuve)"}, "geometry": {"type": "Point", "coordinates": [-73.585962, 45.489904]}}, {"type": "Feature", "properties": {"status": "OPEN", "address": "Chomedey / de Maisonneuve", "lat": 45.49156, "bikes": 0, "stands": 19, "lon": -73.5838, "name": "Chomedey / de Maisonneuve"}, "geometry": {"type": "Point", "coordinates": [-73.5838, 45.49156]}}, {"type": "Feature", "properties": {"status": "OPEN", "address": "Lucien L'Allier / St-Jacques", "lat": 45.49352163, "bikes": 0, "stands": 16, "lon": -73.5684255, "name": "Lucien L'Allier / St-Jacques"}, "geometry": {"type": "Point", "coordinates": [-73.5684255, 45.49352163]}}, {"type": "Feature", "properties": {"status": "OPEN", "address": "Towers/ Ste-Catherine", "lat": 45.492504, "bikes": 0, "stands": 25, "lon": -73.581088, "name": "Towers/ Ste-Catherine"}, "geometry": {"type": "Point", "coordinates": [-73.581088, 45.492504]}}, {"type": "Feature", "properties": {"status": "OPEN", "address": "Bishop / Sainte-Catherine", "lat": 45.49642, "bikes": 0, "stands": 27, "lon": -73.57616, "name": "Bishop / Sainte-Catherine"}, "geometry": {"type": "Point", "coordinates": [-73.57616, 45.49642]}}, {"type": "Feature", "properties": {"status": "OPEN", "address": "Bishop / de Maisonneuve", "lat": 45.49742103, "bikes": 0, "stands": 0, "lon": -73.57791245, "name": "Bishop / de Maisonneuve"}, "geometry": {"type": "Point", "coordinates": [-73.57791245, 45.49742103]}}, {"type": "Feature", "properties": {"status": "OPEN", "address": "de Maisonneuve / Mackay", "lat": 45.49659, "bikes": 0, "stands": 34, "lon": -73.57851, "name": "de Maisonneuve / Mackay"}, "geometry": {"type": "Point", "coordinates": [-73.57851, 45.49659]}}, {"type": "Feature", "properties": {"status": "OPEN", "address": "Metro Villa Maria (D\u00e9carie / Monkland)", "lat": 45.479483, "bikes": 0, "stands": 11, "lon": -73.61979, "name": "Metro Villa Maria (D\u00e9carie / Monkland)"}, "geometry": {"type": "Point", "coordinates": [-73.61979, 45.479483]}}, {"type": "Feature", "properties": {"status": "OPEN", "address": "Lincoln / Dufort", "lat": 45.493034, "bikes": 0, "stands": 15, "lon": -73.583836, "name": "Lincoln / Dufort"}, "geometry": {"type": "Point", "coordinates": [-73.583836, 45.493034]}}, {"type": "Feature", "properties": {"status": "OPEN", "address": "Lesp\u00e9rance/Rouen", "lat": 45.538799, "bikes": 0, "stands": 19, "lon": -73.552496, "name": "Lesp\u00e9rance/Rouen"}, "geometry": {"type": "Point", "coordinates": [-73.552496, 45.538799]}}, {"type": "Feature", "properties": {"status": "OPEN", "address": "Wolfe / Ren\u00e9-L\u00e9vesque", "lat": 45.516872646827, "bikes": 0, "stands": 12, "lon": -73.554174900055, "name": "Wolfe / Ren\u00e9-L\u00e9vesque"}, "geometry": {"type": "Point", "coordinates": [-73.554174900055, 45.516872646827]}}, {"type": "Feature", "properties": {"status": "OPEN", "address": "Plessis / Ren\u00e9-L\u00e9vesque", "lat": 45.51954, "bikes": 0, "stands": 19, "lon": -73.552, "name": "Plessis / Ren\u00e9-L\u00e9vesque"}, "geometry": {"type": "Point", "coordinates": [-73.552, 45.51954]}}, {"type": "Feature", "properties": {"status": "OPEN", "address": "Ren\u00e9-L\u00e9vesque / Papineau", "lat": 45.52114, "bikes": 0, "stands": 4, "lon": -73.54926, "name": "Ren\u00e9-L\u00e9vesque / Papineau"}, "geometry": {"type": "Point", "coordinates": [-73.54926, 45.52114]}}, {"type": "Feature", "properties": {"status": "OPEN", "address": "St-Mathieu /Ste-Catherine ", "lat": 45.493718, "bikes": 0, "stands": 21, "lon": -73.579186, "name": "St-Mathieu /Ste-Catherine "}, "geometry": {"type": "Point", "coordinates": [-73.579186, 45.493718]}}, {"type": "Feature", "properties": {"status": "OPEN", "address": "Logan / Fullum", "lat": 45.528448693514, "bikes": 0, "stands": 19, "lon": -73.55108499527, "name": "Logan / Fullum"}, "geometry": {"type": "Point", "coordinates": [-73.55108499527, 45.528448693514]}}, {"type": "Feature", "properties": {"status": "OPEN", "address": "Plage du parc Jean-Drapeau", "lat": 45.498293, "bikes": 0, "stands": 15, "lon": -73.52186, "name": "Plage du parc Jean-Drapeau"}, "geometry": {"type": "Point", "coordinates": [-73.52186, 45.498293]}}, {"type": "Feature", "properties": {"status": "OPEN", "address": "Poupart / Sainte-Catherine", "lat": 45.529033, "bikes": 0, "stands": 14, "lon": -73.54641, "name": "Poupart / Sainte-Catherine"}, "geometry": {"type": "Point", "coordinates": [-73.54641, 45.529033]}}, {"type": "Feature", "properties": {"status": "OPEN", "address": "Parthenais / Sainte-Catherine", "lat": 45.52622, "bikes": 0, "stands": 18, "lon": -73.54933, "name": "Parthenais / Sainte-Catherine"}, "geometry": {"type": "Point", "coordinates": [-73.54933, 45.52622]}}, {"type": "Feature", "properties": {"status": "OPEN", "address": "Montcalm/Maisonneuve", "lat": 45.519157, "bikes": 0, "stands": 19, "lon": -73.55786, "name": "Montcalm/Maisonneuve"}, "geometry": {"type": "Point", "coordinates": [-73.55786, 45.519157]}}, {"type": "Feature", "properties": {"status": "OPEN", "address": "Alexandre-DeS\u00e8ve / Maisonneuve", "lat": 45.5219, "bikes": 0, "stands": 19, "lon": -73.55534, "name": "Alexandre-DeS\u00e8ve / Maisonneuve"}, "geometry": {"type": "Point", "coordinates": [-73.55534, 45.5219]}}, {"type": "Feature", "properties": {"status": "OPEN", "address": "M\u00e9tro Papineau (Cartier / Ste-Catherine)", "lat": 45.52353, "bikes": 0, "stands": 24, "lon": -73.55199, "name": "M\u00e9tro Papineau (Cartier / Ste-Catherine)"}, "geometry": {"type": "Point", "coordinates": [-73.55199, 45.52353]}}, {"type": "Feature", "properties": {"status": "OPEN", "address": "Benny/ Monkland", "lat": 45.466965, "bikes": 0, "stands": 15, "lon": -73.631664, "name": "Benny/ Monkland"}, "geometry": {"type": "Point", "coordinates": [-73.631664, 45.466965]}}, {"type": "Feature", "properties": {"status": "OPEN", "address": "Plessis / Ontario", "lat": 45.523584, "bikes": 0, "stands": 19, "lon": -73.560941, "name": "Plessis / Ontario"}, "geometry": {"type": "Point", "coordinates": [-73.560941, 45.523584]}}, {"type": "Feature", "properties": {"status": "OPEN", "address": "Robin / de la Visitation", "lat": 45.52087, "bikes": 0, "stands": 15, "lon": -73.55922, "name": "Robin / de la Visitation"}, "geometry": {"type": "Point", "coordinates": [-73.55922, 45.52087]}}, {"type": "Feature", "properties": {"status": "OPEN", "address": "Champlain / Ontario", "lat": 45.5250475373, "bikes": 0, "stands": 19, "lon": -73.560035526752, "name": "Champlain / Ontario"}, "geometry": {"type": "Point", "coordinates": [-73.560035526752, 45.5250475373]}}, {"type": "Feature", "properties": {"status": "OPEN", "address": "Dorion / Ontario", "lat": 45.52697, "bikes": 0, "stands": 23, "lon": -73.558021, "name": "Dorion / Ontario"}, "geometry": {"type": "Point", "coordinates": [-73.558021, 45.52697]}}, {"type": "Feature", "properties": {"status": "OPEN", "address": "Ontario/Du Havre", "lat": 45.5336609, "bikes": 0, "stands": 0, "lon": -73.5521968, "name": "Ontario/Du Havre"}, "geometry": {"type": "Point", "coordinates": [-73.5521968, 45.5336609]}}, {"type": "Feature", "properties": {"status": "OPEN", "address": "Du havre/Rouen", "lat": 45.53480699, "bikes": 0, "stands": 23, "lon": -73.5553577, "name": "Du havre/Rouen"}, "geometry": {"type": "Point", "coordinates": [-73.5553577, 45.53480699]}}, {"type": "Feature", "properties": {"status": "OPEN", "address": "Logan / d'Iberville", "lat": 45.53057, "bikes": 0, "stands": 13, "lon": -73.54913, "name": "Logan / d'Iberville"}, "geometry": {"type": "Point", "coordinates": [-73.54913, 45.53057]}}, {"type": "Feature", "properties": {"status": "OPEN", "address": "Alexandre de S\u00e8ve / La Fontaine", "lat": 45.523217, "bikes": 0, "stands": 14, "lon": -73.558187, "name": "Alexandre de S\u00e8ve / La Fontaine"}, "geometry": {"type": "Point", "coordinates": [-73.558187, 45.523217]}}, {"type": "Feature", "properties": {"status": "OPEN", "address": "Poupart/Ontario", "lat": 45.531834, "bikes": 0, "stands": 23, "lon": -73.553478, "name": "Poupart/Ontario"}, "geometry": {"type": "Point", "coordinates": [-73.553478, 45.531834]}}, {"type": "Feature", "properties": {"status": "OPEN", "address": "Ellendale/C\u00f4te-Des-Neiges", "lat": 45.499757, "bikes": 0, "stands": 13, "lon": -73.629298, "name": "Ellendale/C\u00f4te-Des-Neiges"}, "geometry": {"type": "Point", "coordinates": [-73.629298, 45.499757]}}, {"type": "Feature", "properties": {"status": "OPEN", "address": "Rouen / Fullum", "lat": 45.53217, "bikes": 0, "stands": 0, "lon": -73.55859, "name": "Rouen / Fullum"}, "geometry": {"type": "Point", "coordinates": [-73.55859, 45.53217]}}, {"type": "Feature", "properties": {"status": "OPEN", "address": "Henri Julien/Castelneau", "lat": 45.537877, "bikes": 0, "stands": 11, "lon": -73.618323, "name": "Henri Julien/Castelneau"}, "geometry": {"type": "Point", "coordinates": [-73.618323, 45.537877]}}, {"type": "Feature", "properties": {"status": "OPEN", "address": "Wurtele / Ontario", "lat": 45.53643778, "bikes": 0, "stands": 0, "lon": -73.5502642, "name": "Wurtele / Ontario"}, "geometry": {"type": "Point", "coordinates": [-73.5502642, 45.53643778]}}, {"type": "Feature", "properties": {"status": "OPEN", "address": "Sherbrooke / Frontenac", "lat": 45.5367, "bikes": 0, "stands": 15, "lon": -73.56081, "name": "Sherbrooke / Frontenac"}, "geometry": {"type": "Point", "coordinates": [-73.56081, 45.5367]}}, {"type": "Feature", "properties": {"status": "OPEN", "address": "Fullum / Sherbrooke ", "lat": 45.533924, "bikes": 0, "stands": 35, "lon": -73.562425, "name": "Fullum / Sherbrooke "}, "geometry": {"type": "Point", "coordinates": [-73.562425, 45.533924]}}, {"type": "Feature", "properties": {"status": "OPEN", "address": "Terasse Mercure / Fulum", "lat": 45.535614, "bikes": 0, "stands": 19, "lon": -73.566014, "name": "Terasse Mercure / Fulum"}, "geometry": {"type": "Point", "coordinates": [-73.566014, 45.535614]}}, {"type": "Feature", "properties": {"status": "OPEN", "address": "de Bordeaux / Sherbrooke", "lat": 45.530027060788, "bikes": 0, "stands": 15, "lon": -73.563176393509, "name": "de Bordeaux / Sherbrooke"}, "geometry": {"type": "Point", "coordinates": [-73.563176393509, 45.530027060788]}}, {"type": "Feature", "properties": {"status": "OPEN", "address": "Sainte-Famille / Sherbrooke", "lat": 45.510016, "bikes": 0, "stands": 23, "lon": -73.570654, "name": "Sainte-Famille / Sherbrooke"}, "geometry": {"type": "Point", "coordinates": [-73.570654, 45.510016]}}, {"type": "Feature", "properties": {"status": "OPEN", "address": "University / Prince-Arthur", "lat": 45.50733, "bikes": 0, "stands": 39, "lon": -73.57845, "name": "University / Prince-Arthur"}, "geometry": {"type": "Point", "coordinates": [-73.57845, 45.50733]}}, {"type": "Feature", "properties": {"status": "OPEN", "address": "Hutchison/ Prince Arthur", "lat": 45.509864, "bikes": 0, "stands": 0, "lon": -73.576105, "name": "Hutchison/ Prince Arthur"}, "geometry": {"type": "Point", "coordinates": [-73.576105, 45.509864]}}, {"type": "Feature", "properties": {"status": "OPEN", "address": "Molson / William - Tremblay", "lat": 45.541532, "bikes": 0, "stands": 18, "lon": -73.565258, "name": "Molson / William - Tremblay"}, "geometry": {"type": "Point", "coordinates": [-73.565258, 45.541532]}}, {"type": "Feature", "properties": {"status": "OPEN", "address": "Atwater / Sherbrooke", "lat": 45.491321748861, "bikes": 0, "stands": 22, "lon": -73.587809801102, "name": "Atwater / Sherbrooke"}, "geometry": {"type": "Point", "coordinates": [-73.587809801102, 45.491321748861]}}, {"type": "Feature", "properties": {"status": "OPEN", "address": "Drolet / Beaubien", "lat": 45.533348, "bikes": 0, "stands": 19, "lon": -73.605834, "name": "Drolet / Beaubien"}, "geometry": {"type": "Point", "coordinates": [-73.605834, 45.533348]}}, {"type": "Feature", "properties": {"status": "OPEN", "address": "Casgrain/ Beaubien", "lat": 45.53136864, "bikes": 0, "stands": 19, "lon": -73.607339, "name": "Casgrain/ Beaubien"}, "geometry": {"type": "Point", "coordinates": [-73.607339, 45.53136864]}}, {"type": "Feature", "properties": {"status": "OPEN", "address": "Parc du P\u00e9lican (2e ave/St-Joseph)", "lat": 45.544513, "bikes": 0, "stands": 19, "lon": -73.571564, "name": "Parc du P\u00e9lican (2e ave/St-Joseph)"}, "geometry": {"type": "Point", "coordinates": [-73.571564, 45.544513]}}, {"type": "Feature", "properties": {"status": "OPEN", "address": "9e Avenue / Dandurand", "lat": 45.550769, "bikes": 0, "stands": 11, "lon": -73.57711, "name": "9e Avenue / Dandurand"}, "geometry": {"type": "Point", "coordinates": [-73.57711, 45.550769]}}, {"type": "Feature", "properties": {"status": "OPEN", "address": "Marquette / Jean-Talon", "lat": 45.547356123152, "bikes": 0, "stands": 19, "lon": -73.60760986805, "name": "Marquette / Jean-Talon"}, "geometry": {"type": "Point", "coordinates": [-73.60760986805, 45.547356123152]}}, {"type": "Feature", "properties": {"status": "OPEN", "address": "des \u00c9cores / Jean-Talon", "lat": 45.552442609135, "bikes": 0, "stands": 19, "lon": -73.603001832962, "name": "des \u00c9cores / Jean-Talon"}, "geometry": {"type": "Point", "coordinates": [-73.603001832962, 45.552442609135]}}, {"type": "Feature", "properties": {"status": "OPEN", "address": "Union/Maisonneuve", "lat": 45.504844, "bikes": 0, "stands": 31, "lon": -73.571226, "name": "Union/Maisonneuve"}, "geometry": {"type": "Point", "coordinates": [-73.571226, 45.504844]}}, {"type": "Feature", "properties": {"status": "OPEN", "address": "University / des Pins", "lat": 45.508356, "bikes": 0, "stands": 0, "lon": -73.580498, "name": "University / des Pins"}, "geometry": {"type": "Point", "coordinates": [-73.580498, 45.508356]}}, {"type": "Feature", "properties": {"status": "OPEN", "address": "Gascon/Rachel", "lat": 45.537964, "bikes": 0, "stands": 19, "lon": -73.562643, "name": "Gascon/Rachel"}, "geometry": {"type": "Point", "coordinates": [-73.562643, 45.537964]}}, {"type": "Feature", "properties": {"status": "OPEN", "address": "Larivi\u00e8re / de Lorimier", "lat": 45.529155206246, "bikes": 0, "stands": 23, "lon": -73.559410572052, "name": "Larivi\u00e8re / de Lorimier"}, "geometry": {"type": "Point", "coordinates": [-73.559410572052, 45.529155206246]}}, {"type": "Feature", "properties": {"status": "OPEN", "address": "M\u00e9tro Laurier (Rivard/Laurier)", "lat": 45.52761627, "bikes": 0, "stands": 15, "lon": -73.5891147, "name": "M\u00e9tro Laurier (Rivard/Laurier)"}, "geometry": {"type": "Point", "coordinates": [-73.5891147, 45.52761627]}}, {"type": "Feature", "properties": {"status": "OPEN", "address": "Gauthier / Papineau", "lat": 45.530202, "bikes": 0, "stands": 0, "lon": -73.56663, "name": "Gauthier / Papineau"}, "geometry": {"type": "Point", "coordinates": [-73.56663, 45.530202]}}, {"type": "Feature", "properties": {"status": "OPEN", "address": "Gauthier / De Lorimier", "lat": 45.531818, "bikes": 0, "stands": 11, "lon": -73.565317, "name": "Gauthier / De Lorimier"}, "geometry": {"type": "Point", "coordinates": [-73.565317, 45.531818]}}, {"type": "Feature", "properties": {"status": "OPEN", "address": "Gauthier / des \u00c9rables", "lat": 45.53237, "bikes": 0, "stands": 11, "lon": -73.56437, "name": "Gauthier / des \u00c9rables"}, "geometry": {"type": "Point", "coordinates": [-73.56437, 45.53237]}}, {"type": "Feature", "properties": {"status": "OPEN", "address": "Marquette / Rachel", "lat": 45.529801582461, "bikes": 0, "stands": 15, "lon": -73.570289611816, "name": "Marquette / Rachel"}, "geometry": {"type": "Point", "coordinates": [-73.570289611816, 45.529801582461]}}, {"type": "Feature", "properties": {"status": "OPEN", "address": "de Bordeaux / Rachel", "lat": 45.53227, "bikes": 0, "stands": 27, "lon": -73.56828, "name": "de Bordeaux / Rachel"}, "geometry": {"type": "Point", "coordinates": [-73.56828, 45.53227]}}, {"type": "Feature", "properties": {"status": "OPEN", "address": "Calixa Laval\u00e9e / Rachel", "lat": 45.527791, "bikes": 0, "stands": 31, "lon": -73.572056, "name": "Calixa Laval\u00e9e / Rachel"}, "geometry": {"type": "Point", "coordinates": [-73.572056, 45.527791]}}, {"type": "Feature", "properties": {"status": "OPEN", "address": "Rachel / Br\u00e9beuf", "lat": 45.52689, "bikes": 0, "stands": 14, "lon": -73.57264, "name": "Rachel / Br\u00e9beuf"}, "geometry": {"type": "Point", "coordinates": [-73.57264, 45.52689]}}, {"type": "Feature", "properties": {"status": "OPEN", "address": "du Parc-La Fontaine / Duluth", "lat": 45.52469, "bikes": 0, "stands": 19, "lon": -73.57221, "name": "du Parc-La Fontaine / Duluth"}, "geometry": {"type": "Point", "coordinates": [-73.57221, 45.52469]}}, {"type": "Feature", "properties": {"status": "OPEN", "address": "du Parc-La Fontaine / Roy", "lat": 45.523084, "bikes": 0, "stands": 19, "lon": -73.568731, "name": "du Parc-La Fontaine / Roy"}, "geometry": {"type": "Point", "coordinates": [-73.568731, 45.523084]}}, {"type": "Feature", "properties": {"status": "OPEN", "address": "Calixa-Lavall\u00e9e / Sherbrooke", "lat": 45.52479, "bikes": 0, "stands": 27, "lon": -73.56545, "name": "Calixa-Lavall\u00e9e / Sherbrooke"}, "geometry": {"type": "Point", "coordinates": [-73.56545, 45.52479]}}, {"type": "Feature", "properties": {"status": "OPEN", "address": "\u00c9mile-Duploy\u00e9 / Sherbrooke", "lat": 45.52729, "bikes": 0, "stands": 31, "lon": -73.56463, "name": "\u00c9mile-Duploy\u00e9 / Sherbrooke"}, "geometry": {"type": "Point", "coordinates": [-73.56463, 45.52729]}}, {"type": "Feature", "properties": {"status": "OPEN", "address": "Chapleau / Mont-Royal", "lat": 45.53867, "bikes": 0, "stands": 27, "lon": -73.56936, "name": "Chapleau / Mont-Royal"}, "geometry": {"type": "Point", "coordinates": [-73.56936, 45.53867]}}, {"type": "Feature", "properties": {"status": "OPEN", "address": "Messier/Mont-Royal", "lat": 45.53711414, "bikes": 0, "stands": 17, "lon": -73.5710031, "name": "Messier/Mont-Royal"}, "geometry": {"type": "Point", "coordinates": [-73.5710031, 45.53711414]}}, {"type": "Feature", "properties": {"status": "OPEN", "address": "des \u00c9rables / Mont-Royal", "lat": 45.53565, "bikes": 0, "stands": 19, "lon": -73.57172, "name": "des \u00c9rables / Mont-Royal"}, "geometry": {"type": "Point", "coordinates": [-73.57172, 45.53565]}}, {"type": "Feature", "properties": {"status": "OPEN", "address": "Chabot / Mont-Royal", "lat": 45.534134366108, "bikes": 0, "stands": 1, "lon": -73.57349216938, "name": "Chabot / Mont-Royal"}, "geometry": {"type": "Point", "coordinates": [-73.57349216938, 45.534134366108]}}, {"type": "Feature", "properties": {"status": "OPEN", "address": "Cartier/Marie-Anne", "lat": 45.532674, "bikes": 0, "stands": 0, "lon": -73.571776, "name": "Cartier/Marie-Anne"}, "geometry": {"type": "Point", "coordinates": [-73.571776, 45.532674]}}, {"type": "Feature", "properties": {"status": "OPEN", "address": "Marquette / Mont-Royal", "lat": 45.53229, "bikes": 0, "stands": 19, "lon": -73.57544, "name": "Marquette / Mont-Royal"}, "geometry": {"type": "Point", "coordinates": [-73.57544, 45.53229]}}, {"type": "Feature", "properties": {"status": "OPEN", "address": "Garnier / Mont-Royal", "lat": 45.53092, "bikes": 0, "stands": 27, "lon": -73.57674, "name": "Garnier / Mont-Royal"}, "geometry": {"type": "Point", "coordinates": [-73.57674, 45.53092]}}, {"type": "Feature", "properties": {"status": "OPEN", "address": "Marie-Anne / de la Roche", "lat": 45.527738413791, "bikes": 0, "stands": 19, "lon": -73.576249480247, "name": "Marie-Anne / de la Roche"}, "geometry": {"type": "Point", "coordinates": [-73.576249480247, 45.527738413791]}}, {"type": "Feature", "properties": {"status": "OPEN", "address": "de la Roche / Mont-Royal", "lat": 45.52856, "bikes": 0, "stands": 22, "lon": -73.57828, "name": "de la Roche / Mont-Royal"}, "geometry": {"type": "Point", "coordinates": [-73.57828, 45.52856]}}, {"type": "Feature", "properties": {"status": "OPEN", "address": "Gilford / Br\u00e9beuf", "lat": 45.53073, "bikes": 0, "stands": 19, "lon": -73.58153, "name": "Gilford / Br\u00e9beuf"}, "geometry": {"type": "Point", "coordinates": [-73.58153, 45.53073]}}, {"type": "Feature", "properties": {"status": "OPEN", "address": "Garnier / Saint-Joseph", "lat": 45.53297, "bikes": 0, "stands": 23, "lon": -73.58118, "name": "Garnier / Saint-Joseph"}, "geometry": {"type": "Point", "coordinates": [-73.58118, 45.53297]}}, {"type": "Feature", "properties": {"status": "OPEN", "address": "Cartier / Saint-Joseph", "lat": 45.53576, "bikes": 0, "stands": 18, "lon": -73.57867, "name": "Cartier / Saint-Joseph"}, "geometry": {"type": "Point", "coordinates": [-73.57867, 45.53576]}}, {"type": "Feature", "properties": {"status": "OPEN", "address": "Fullum / Saint-Joseph", "lat": 45.54003, "bikes": 0, "stands": 15, "lon": -73.575158, "name": "Fullum / Saint-Joseph"}, "geometry": {"type": "Point", "coordinates": [-73.575158, 45.54003]}}, {"type": "Feature", "properties": {"status": "OPEN", "address": "Marquette / Laurier", "lat": 45.53543, "bikes": 0, "stands": 23, "lon": -73.5822, "name": "Marquette / Laurier"}, "geometry": {"type": "Point", "coordinates": [-73.5822, 45.53543]}}, {"type": "Feature", "properties": {"status": "OPEN", "address": "Lanaudi\u00e8re / Laurier", "lat": 45.533381, "bikes": 0, "stands": 19, "lon": -73.583717, "name": "Lanaudi\u00e8re / Laurier"}, "geometry": {"type": "Point", "coordinates": [-73.583717, 45.533381]}}, {"type": "Feature", "properties": {"status": "OPEN", "address": "Br\u00e9beuf / Laurier", "lat": 45.53248, "bikes": 0, "stands": 35, "lon": -73.58507, "name": "Br\u00e9beuf / Laurier"}, "geometry": {"type": "Point", "coordinates": [-73.58507, 45.53248]}}, {"type": "Feature", "properties": {"status": "OPEN", "address": "Br\u00e9beuf / Saint-Gr\u00e9goire", "lat": 45.5341, "bikes": 0, "stands": 26, "lon": -73.58852, "name": "Br\u00e9beuf / Saint-Gr\u00e9goire"}, "geometry": {"type": "Point", "coordinates": [-73.58852, 45.5341]}}, {"type": "Feature", "properties": {"status": "OPEN", "address": "Marquette / Saint-Gr\u00e9goire", "lat": 45.53703, "bikes": 0, "stands": 11, "lon": -73.58584, "name": "Marquette / Saint-Gr\u00e9goire"}, "geometry": {"type": "Point", "coordinates": [-73.58584, 45.53703]}}, {"type": "Feature", "properties": {"status": "OPEN", "address": "Hotel de ville/Viger", "lat": 45.50938453, "bikes": 0, "stands": 23, "lon": -73.5571602, "name": "Hotel de ville/Viger"}, "geometry": {"type": "Point", "coordinates": [-73.5571602, 45.50938453]}}, {"type": "Feature", "properties": {"status": "OPEN", "address": "St-Andr\u00e9/Laurier", "lat": 45.529511, "bikes": 0, "stands": 15, "lon": -73.587479, "name": "St-Andr\u00e9/Laurier"}, "geometry": {"type": "Point", "coordinates": [-73.587479, 45.529511]}}, {"type": "Feature", "properties": {"status": "OPEN", "address": "de Mentana / Laurier", "lat": 45.530046, "bikes": 0, "stands": 19, "lon": -73.58677, "name": "de Mentana / Laurier"}, "geometry": {"type": "Point", "coordinates": [-73.58677, 45.530046]}}, {"type": "Feature", "properties": {"status": "OPEN", "address": "Wolfe/Robin", "lat": 45.5195, "bikes": 0, "stands": 27, "lon": -73.560269, "name": "Wolfe/Robin"}, "geometry": {"type": "Point", "coordinates": [-73.560269, 45.5195]}}, {"type": "Feature", "properties": {"status": "OPEN", "address": "Cherrier / Berri", "lat": 45.5191458, "bikes": 0, "stands": 35, "lon": -73.5692414, "name": "Cherrier / Berri"}, "geometry": {"type": "Point", "coordinates": [-73.5692414, 45.5191458]}}, {"type": "Feature", "properties": {"status": "OPEN", "address": "Roy / Saint-Denis", "lat": 45.51908, "bikes": 0, "stands": 22, "lon": -73.5727, "name": "Roy / Saint-Denis"}, "geometry": {"type": "Point", "coordinates": [-73.5727, 45.51908]}}, {"type": "Feature", "properties": {"status": "OPEN", "address": "St-Andr\u00e9/Cherrier", "lat": 45.520578, "bikes": 0, "stands": 22, "lon": -73.567733, "name": "St-Andr\u00e9/Cherrier"}, "geometry": {"type": "Point", "coordinates": [-73.567733, 45.520578]}}, {"type": "Feature", "properties": {"status": "OPEN", "address": "St-Andr\u00e9 / Duluth", "lat": 45.523171, "bikes": 0, "stands": 19, "lon": -73.573431, "name": "St-Andr\u00e9 / Duluth"}, "geometry": {"type": "Point", "coordinates": [-73.573431, 45.523171]}}, {"type": "Feature", "properties": {"status": "OPEN", "address": "Saint-Andr\u00e9 / Rachel", "lat": 45.524222, "bikes": 0, "stands": 0, "lon": -73.575771, "name": "Saint-Andr\u00e9 / Rachel"}, "geometry": {"type": "Point", "coordinates": [-73.575771, 45.524222]}}, {"type": "Feature", "properties": {"status": "OPEN", "address": "Rivard /Rachel", "lat": 45.5222776, "bikes": 0, "stands": 18, "lon": -73.5775906, "name": "Rivard /Rachel"}, "geometry": {"type": "Point", "coordinates": [-73.5775906, 45.5222776]}}, {"type": "Feature", "properties": {"status": "OPEN", "address": "Duluth/St-Denis", "lat": 45.520655, "bikes": 0, "stands": 6, "lon": -73.575871, "name": "Duluth/St-Denis"}, "geometry": {"type": "Point", "coordinates": [-73.575871, 45.520655]}}, {"type": "Feature", "properties": {"status": "OPEN", "address": "Place de la paix (St-Dominique/place du march\u00e9)", "lat": 45.50965, "bikes": 0, "stands": 18, "lon": -73.561976, "name": "Place de la paix (St-Dominique/place du march\u00e9)"}, "geometry": {"type": "Point", "coordinates": [-73.561976, 45.50965]}}, {"type": "Feature", "properties": {"status": "OPEN", "address": "Clark/Rachel", "lat": 45.516853, "bikes": 0, "stands": 23, "lon": -73.582648, "name": "Clark/Rachel"}, "geometry": {"type": "Point", "coordinates": [-73.582648, 45.516853]}}, {"type": "Feature", "properties": {"status": "OPEN", "address": "Bullion / Mont-Royal", "lat": 45.5215, "bikes": 0, "stands": 11, "lon": -73.5851, "name": "Bullion / Mont-Royal"}, "geometry": {"type": "Point", "coordinates": [-73.5851, 45.5215]}}, {"type": "Feature", "properties": {"status": "OPEN", "address": "Laval / Mont-Royal", "lat": 45.522412909217, "bikes": 0, "stands": 23, "lon": -73.584129810333, "name": "Laval / Mont-Royal"}, "geometry": {"type": "Point", "coordinates": [-73.584129810333, 45.522412909217]}}, {"type": "Feature", "properties": {"status": "OPEN", "address": "M\u00e9tro Mont-Royal (Rivard/Mont-Royal)", "lat": 45.524673, "bikes": 0, "stands": 35, "lon": -73.58255, "name": "M\u00e9tro Mont-Royal (Rivard/Mont-Royal)"}, "geometry": {"type": "Point", "coordinates": [-73.58255, 45.524673]}}, {"type": "Feature", "properties": {"status": "OPEN", "address": "Des \u00e9rables/B\u00e9langer", "lat": 45.549286, "bikes": 0, "stands": 15, "lon": -73.601006, "name": "Des \u00e9rables/B\u00e9langer"}, "geometry": {"type": "Point", "coordinates": [-73.601006, 45.549286]}}, {"type": "Feature", "properties": {"status": "OPEN", "address": "Boyer / Mont-Royal", "lat": 45.52743, "bikes": 0, "stands": 27, "lon": -73.58002, "name": "Boyer / Mont-Royal"}, "geometry": {"type": "Point", "coordinates": [-73.58002, 45.52743]}}, {"type": "Feature", "properties": {"status": "OPEN", "address": "St-Andr\u00e9/ Mont-Royal", "lat": 45.526466, "bikes": 0, "stands": 3, "lon": -73.580927, "name": "St-Andr\u00e9/ Mont-Royal"}, "geometry": {"type": "Point", "coordinates": [-73.580927, 45.526466]}}, {"type": "Feature", "properties": {"status": "OPEN", "address": "Mentana / Marie-Anne", "lat": 45.525983, "bikes": 0, "stands": 23, "lon": -73.577808, "name": "Mentana / Marie-Anne"}, "geometry": {"type": "Point", "coordinates": [-73.577808, 45.525983]}}, {"type": "Feature", "properties": {"status": "OPEN", "address": "Chabot/Everett", "lat": 45.550634, "bikes": 0, "stands": 11, "lon": -73.609477, "name": "Chabot/Everett"}, "geometry": {"type": "Point", "coordinates": [-73.609477, 45.550634]}}, {"type": "Feature", "properties": {"status": "OPEN", "address": "Pontiac/Gilford", "lat": 45.527008, "bikes": 0, "stands": 15, "lon": -73.585852, "name": "Pontiac/Gilford"}, "geometry": {"type": "Point", "coordinates": [-73.585852, 45.527008]}}, {"type": "Feature", "properties": {"status": "OPEN", "address": "St-Zotique/Clark", "lat": 45.531401, "bikes": 0, "stands": 0, "lon": -73.612674, "name": "St-Zotique/Clark"}, "geometry": {"type": "Point", "coordinates": [-73.612674, 45.531401]}}, {"type": "Feature", "properties": {"status": "OPEN", "address": "Berri/St-Gr\u00e9goire", "lat": 45.529802, "bikes": 0, "stands": 19, "lon": -73.591766, "name": "Berri/St-Gr\u00e9goire"}, "geometry": {"type": "Point", "coordinates": [-73.591766, 45.529802]}}, {"type": "Feature", "properties": {"status": "OPEN", "address": "Esplanade/Fairmount", "lat": 45.521495, "bikes": 0, "stands": 19, "lon": -73.596758, "name": "Esplanade/Fairmount"}, "geometry": {"type": "Point", "coordinates": [-73.596758, 45.521495]}}, {"type": "Feature", "properties": {"status": "OPEN", "address": "Gasp\u00e9 / Fairmount ", "lat": 45.525669, "bikes": 0, "stands": 19, "lon": -73.593016, "name": "Gasp\u00e9 / Fairmount "}, "geometry": {"type": "Point", "coordinates": [-73.593016, 45.525669]}}, {"type": "Feature", "properties": {"status": "OPEN", "address": "de Bullion / Boul. Saint-Joseph", "lat": 45.52377, "bikes": 0, "stands": 19, "lon": -73.58978, "name": "de Bullion / Boul. Saint-Joseph"}, "geometry": {"type": "Point", "coordinates": [-73.58978, 45.52377]}}, {"type": "Feature", "properties": {"status": "OPEN", "address": "Villeneuve/St-Laurent", "lat": 45.52157, "bikes": 0, "stands": 19, "lon": -73.58918, "name": "Villeneuve/St-Laurent"}, "geometry": {"type": "Point", "coordinates": [-73.58918, 45.52157]}}, {"type": "Feature", "properties": {"status": "OPEN", "address": "Cartier/Masson", "lat": 45.537985, "bikes": 0, "stands": 19, "lon": -73.583502, "name": "Cartier/Masson"}, "geometry": {"type": "Point", "coordinates": [-73.583502, 45.537985]}}, {"type": "Feature", "properties": {"status": "OPEN", "address": "H\u00e9l\u00e8ne-Baillargeon / Saint-Denis", "lat": 45.52974, "bikes": 0, "stands": 4, "lon": -73.59527, "name": "H\u00e9l\u00e8ne-Baillargeon / Saint-Denis"}, "geometry": {"type": "Point", "coordinates": [-73.59527, 45.52974]}}, {"type": "Feature", "properties": {"status": "OPEN", "address": "Clark / Saint-Viateur", "lat": 45.525171560973, "bikes": 0, "stands": 19, "lon": -73.599375486374, "name": "Clark / Saint-Viateur"}, "geometry": {"type": "Point", "coordinates": [-73.599375486374, 45.525171560973]}}, {"type": "Feature", "properties": {"status": "OPEN", "address": "Maguire / Saint-Laurent", "lat": 45.52457, "bikes": 0, "stands": 7, "lon": -73.59588, "name": "Maguire / Saint-Laurent"}, "geometry": {"type": "Point", "coordinates": [-73.59588, 45.52457]}}, {"type": "Feature", "properties": {"status": "OPEN", "address": "Villeneuve / de l'H\u00f4tel-de-Ville", "lat": 45.52352540631, "bikes": 0, "stands": 23, "lon": -73.587509393692, "name": "Villeneuve / de l'H\u00f4tel-de-Ville"}, "geometry": {"type": "Point", "coordinates": [-73.587509393692, 45.52352540631]}}, {"type": "Feature", "properties": {"status": "OPEN", "address": "Hutchison / Sherbrooke", "lat": 45.50781, "bikes": 0, "stands": 3, "lon": -73.57208, "name": "Hutchison / Sherbrooke"}, "geometry": {"type": "Point", "coordinates": [-73.57208, 45.50781]}}, {"type": "Feature", "properties": {"status": "OPEN", "address": "Milton / du Parc", "lat": 45.50971, "bikes": 0, "stands": 31, "lon": -73.57354, "name": "Milton / du Parc"}, "geometry": {"type": "Point", "coordinates": [-73.57354, 45.50971]}}, {"type": "Feature", "properties": {"status": "OPEN", "address": "Prince-Arthur / du Parc", "lat": 45.51059, "bikes": 0, "stands": 0, "lon": -73.57547, "name": "Prince-Arthur / du Parc"}, "geometry": {"type": "Point", "coordinates": [-73.57547, 45.51059]}}, {"type": "Feature", "properties": {"status": "OPEN", "address": "Sainte-Famille / des Pins", "lat": 45.512812949535, "bikes": 0, "stands": 15, "lon": -73.577016592026, "name": "Sainte-Famille / des Pins"}, "geometry": {"type": "Point", "coordinates": [-73.577016592026, 45.512812949535]}}, {"type": "Feature", "properties": {"status": "OPEN", "address": "Hutchison / des Pins", "lat": 45.51069, "bikes": 0, "stands": 19, "lon": -73.57805, "name": "Hutchison / des Pins"}, "geometry": {"type": "Point", "coordinates": [-73.57805, 45.51069]}}, {"type": "Feature", "properties": {"status": "OPEN", "address": "Milton / Clark", "lat": 45.51252, "bikes": 0, "stands": 23, "lon": -73.57062, "name": "Milton / Clark"}, "geometry": {"type": "Point", "coordinates": [-73.57062, 45.51252]}}, {"type": "Feature", "properties": {"status": "OPEN", "address": "Metro  Sauv\u00e9 (Sauv\u00e9/Berri)", "lat": 45.5509, "bikes": 0, "stands": 15, "lon": -73.656, "name": "Metro  Sauv\u00e9 (Sauv\u00e9/Berri)"}, "geometry": {"type": "Point", "coordinates": [-73.656, 45.5509]}}, {"type": "Feature", "properties": {"status": "OPEN", "address": "Roy / Saint-Laurent", "lat": 45.51561, "bikes": 0, "stands": 23, "lon": -73.57569, "name": "Roy / Saint-Laurent"}, "geometry": {"type": "Point", "coordinates": [-73.57569, 45.51561]}}, {"type": "Feature", "properties": {"status": "OPEN", "address": "Duluth/Esplanade", "lat": 45.515201, "bikes": 0, "stands": 14, "lon": -73.581394, "name": "Duluth/Esplanade"}, "geometry": {"type": "Point", "coordinates": [-73.581394, 45.515201]}}, {"type": "Feature", "properties": {"status": "OPEN", "address": "Duluth / Saint-Laurent", "lat": 45.5171, "bikes": 0, "stands": 15, "lon": -73.57921, "name": "Duluth / Saint-Laurent"}, "geometry": {"type": "Point", "coordinates": [-73.57921, 45.5171]}}, {"type": "Feature", "properties": {"status": "OPEN", "address": "Square Saint-Louis", "lat": 45.51735, "bikes": 0, "stands": 9, "lon": -73.56906, "name": "Square Saint-Louis"}, "geometry": {"type": "Point", "coordinates": [-73.56906, 45.51735]}}, {"type": "Feature", "properties": {"status": "OPEN", "address": "Saint-Cuthbert / Saint-Urbain", "lat": 45.51494, "bikes": 0, "stands": 19, "lon": -73.57821, "name": "Saint-Cuthbert / Saint-Urbain"}, "geometry": {"type": "Point", "coordinates": [-73.57821, 45.51494]}}, {"type": "Feature", "properties": {"status": "OPEN", "address": "Parc du Mont-Royal", "lat": 45.51496, "bikes": 0, "stands": 34, "lon": -73.58503, "name": "Parc du Mont-Royal"}, "geometry": {"type": "Point", "coordinates": [-73.58503, 45.51496]}}, {"type": "Feature", "properties": {"status": "OPEN", "address": "Marie-Anne/St-Dominique", "lat": 45.519523, "bikes": 0, "stands": 23, "lon": -73.583618, "name": "Marie-Anne/St-Dominique"}, "geometry": {"type": "Point", "coordinates": [-73.583618, 45.519523]}}, {"type": "Feature", "properties": {"status": "OPEN", "address": "H\u00f4tel de Ville/Roy ", "lat": 45.51725, "bikes": 0, "stands": 0, "lon": -73.574361, "name": "H\u00f4tel de Ville/Roy "}, "geometry": {"type": "Point", "coordinates": [-73.574361, 45.51725]}}, {"type": "Feature", "properties": {"status": "OPEN", "address": "Laval / Duluth", "lat": 45.519236909648, "bikes": 0, "stands": 15, "lon": -73.577215075493, "name": "Laval / Duluth"}, "geometry": {"type": "Point", "coordinates": [-73.577215075493, 45.519236909648]}}, {"type": "Feature", "properties": {"status": "OPEN", "address": "Mont-Royal / Clark", "lat": 45.51941, "bikes": 0, "stands": 23, "lon": -73.58685, "name": "Mont-Royal / Clark"}, "geometry": {"type": "Point", "coordinates": [-73.58685, 45.51941]}}, {"type": "Feature", "properties": {"status": "OPEN", "address": "Jeanne Mance / Mont-Royal", "lat": 45.5176432, "bikes": 0, "stands": 11, "lon": -73.5889283, "name": "Jeanne Mance / Mont-Royal"}, "geometry": {"type": "Point", "coordinates": [-73.5889283, 45.5176432]}}, {"type": "Feature", "properties": {"status": "OPEN", "address": "Mont-Royal / du Parc", "lat": 45.517, "bikes": 0, "stands": 33, "lon": -73.589, "name": "Mont-Royal / du Parc"}, "geometry": {"type": "Point", "coordinates": [-73.589, 45.517]}}, {"type": "Feature", "properties": {"status": "OPEN", "address": "Villeneuve/ Parc", "lat": 45.51829, "bikes": 0, "stands": 15, "lon": -73.59235, "name": "Villeneuve/ Parc"}, "geometry": {"type": "Point", "coordinates": [-73.59235, 45.51829]}}, {"type": "Feature", "properties": {"status": "OPEN", "address": "Villeneuve / St-Urbain", "lat": 45.520188, "bikes": 0, "stands": 11, "lon": -73.590559, "name": "Villeneuve / St-Urbain"}, "geometry": {"type": "Point", "coordinates": [-73.590559, 45.520188]}}, {"type": "Feature", "properties": {"status": "OPEN", "address": "Hopital Maisonneuve Rosemont (Rosemont/Chatelain)", "lat": 45.575707, "bikes": 0, "stands": 19, "lon": -73.561562, "name": "Hopital Maisonneuve Rosemont (Rosemont/Chatelain)"}, "geometry": {"type": "Point", "coordinates": [-73.561562, 45.575707]}}, {"type": "Feature", "properties": {"status": "OPEN", "address": "Esplanade/Laurier", "lat": 45.520906, "bikes": 0, "stands": 23, "lon": -73.594499, "name": "Esplanade/Laurier"}, "geometry": {"type": "Point", "coordinates": [-73.594499, 45.520906]}}, {"type": "Feature", "properties": {"status": "OPEN", "address": "Coloniale/ Mont-Royal", "lat": 45.52102, "bikes": 0, "stands": 15, "lon": -73.585514, "name": "Coloniale/ Mont-Royal"}, "geometry": {"type": "Point", "coordinates": [-73.585514, 45.52102]}}, {"type": "Feature", "properties": {"status": "OPEN", "address": "Waverly / Saint-Viateur", "lat": 45.524025271152, "bikes": 0, "stands": 15, "lon": -73.60042154789, "name": "Waverly / Saint-Viateur"}, "geometry": {"type": "Point", "coordinates": [-73.60042154789, 45.524025271152]}}, {"type": "Feature", "properties": {"status": "OPEN", "address": "Saint-Viateur / du Parc", "lat": 45.52246, "bikes": 0, "stands": 23, "lon": -73.6019, "name": "Saint-Viateur / du Parc"}, "geometry": {"type": "Point", "coordinates": [-73.6019, 45.52246]}}, {"type": "Feature", "properties": {"status": "OPEN", "address": "Bernard / Clark", "lat": 45.52697, "bikes": 0, "stands": 23, "lon": -73.60261, "name": "Bernard / Clark"}, "geometry": {"type": "Point", "coordinates": [-73.60261, 45.52697]}}, {"type": "Feature", "properties": {"status": "OPEN", "address": "Saint-Dominique / Saint-Viateur", "lat": 45.52654331973, "bikes": 0, "stands": 19, "lon": -73.598232865334, "name": "Saint-Dominique / Saint-Viateur"}, "geometry": {"type": "Point", "coordinates": [-73.598232865334, 45.52654331973]}}, {"type": "Feature", "properties": {"status": "OPEN", "address": " Bordeaux/Laurier", "lat": 45.537456, "bikes": 0, "stands": 31, "lon": -73.579291, "name": " Bordeaux/Laurier"}, "geometry": {"type": "Point", "coordinates": [-73.579291, 45.537456]}}, {"type": "Feature", "properties": {"status": "OPEN", "address": "Gilford/Lanaudi\u00e8re", "lat": 45.532013, "bikes": 0, "stands": 14, "lon": -73.580541, "name": "Gilford/Lanaudi\u00e8re"}, "geometry": {"type": "Point", "coordinates": [-73.580541, 45.532013]}}, {"type": "Feature", "properties": {"status": "OPEN", "address": "Napoleon/St-Dominique", "lat": 45.516777, "bikes": 0, "stands": 23, "lon": -73.577784, "name": "Napoleon/St-Dominique"}, "geometry": {"type": "Point", "coordinates": [-73.577784, 45.516777]}}, {"type": "Feature", "properties": {"status": "OPEN", "address": "de Bordeaux / Jean-Talon", "lat": 45.549704078239, "bikes": 0, "stands": 15, "lon": -73.6055123806, "name": "de Bordeaux / Jean-Talon"}, "geometry": {"type": "Point", "coordinates": [-73.6055123806, 45.549704078239]}}, {"type": "Feature", "properties": {"status": "OPEN", "address": "Hudson/Kent", "lat": 45.505973, "bikes": 0, "stands": 23, "lon": -73.629593, "name": "Hudson/Kent"}, "geometry": {"type": "Point", "coordinates": [-73.629593, 45.505973]}}, {"type": "Feature", "properties": {"status": "OPEN", "address": "Querbes / Laurier", "lat": 45.517345, "bikes": 0, "stands": 15, "lon": -73.597724, "name": "Querbes / Laurier"}, "geometry": {"type": "Point", "coordinates": [-73.597724, 45.517345]}}, {"type": "Feature", "properties": {"status": "OPEN", "address": "Bloomfield / Bernard", "lat": 45.519861, "bikes": 0, "stands": 19, "lon": -73.606786, "name": "Bloomfield / Bernard"}, "geometry": {"type": "Point", "coordinates": [-73.606786, 45.519861]}}, {"type": "Feature", "properties": {"status": "OPEN", "address": "Bloomfield / Van Horne", "lat": 45.5225858, "bikes": 0, "stands": 14, "lon": -73.61265779, "name": "Bloomfield / Van Horne"}, "geometry": {"type": "Point", "coordinates": [-73.61265779, 45.5225858]}}, {"type": "Feature", "properties": {"status": "OPEN", "address": "M\u00e9tro Outremont (Wiseman / Van Horne)", "lat": 45.520265, "bikes": 0, "stands": 20, "lon": -73.614887, "name": "M\u00e9tro Outremont (Wiseman / Van Horne)"}, "geometry": {"type": "Point", "coordinates": [-73.614887, 45.520265]}}, {"type": "Feature", "properties": {"status": "OPEN", "address": "Casgrain / Saint-Zotique", "lat": 45.53304, "bikes": 0, "stands": 15, "lon": -73.61108, "name": "Casgrain / Saint-Zotique"}, "geometry": {"type": "Point", "coordinates": [-73.61108, 45.53304]}}, {"type": "Feature", "properties": {"status": "OPEN", "address": "St-Dominique/Rachel", "lat": 45.518593, "bikes": 0, "stands": 23, "lon": -73.581566, "name": "St-Dominique/Rachel"}, "geometry": {"type": "Point", "coordinates": [-73.581566, 45.518593]}}, {"type": "Feature", "properties": {"status": "OPEN", "address": "B\u00e9langer / Saint-Denis", "lat": 45.53696, "bikes": 0, "stands": 15, "lon": -73.61199, "name": "B\u00e9langer / Saint-Denis"}, "geometry": {"type": "Point", "coordinates": [-73.61199, 45.53696]}}, {"type": "Feature", "properties": {"status": "OPEN", "address": "Henri-Julien / Jean-Talon", "lat": 45.53707, "bikes": 0, "stands": 23, "lon": -73.61529, "name": "Henri-Julien / Jean-Talon"}, "geometry": {"type": "Point", "coordinates": [-73.61529, 45.53707]}}, {"type": "Feature", "properties": {"status": "OPEN", "address": "Gasp\u00e9/Dante", "lat": 45.534377, "bikes": 0, "stands": 19, "lon": -73.612278, "name": "Gasp\u00e9/Dante"}, "geometry": {"type": "Point", "coordinates": [-73.612278, 45.534377]}}, {"type": "Feature", "properties": {"status": "OPEN", "address": "Mozart / Saint-Laurent", "lat": 45.53318, "bikes": 0, "stands": 2, "lon": -73.61544, "name": "Mozart / Saint-Laurent"}, "geometry": {"type": "Point", "coordinates": [-73.61544, 45.53318]}}, {"type": "Feature", "properties": {"status": "OPEN", "address": "Lajeunesse / Jean-Talon", "lat": 45.539736803045, "bikes": 0, "stands": 15, "lon": -73.614256381989, "name": "Lajeunesse / Jean-Talon"}, "geometry": {"type": "Point", "coordinates": [-73.614256381989, 45.539736803045]}}, {"type": "Feature", "properties": {"status": "OPEN", "address": "Boyer / B\u00e9langer", "lat": 45.54006, "bikes": 0, "stands": 19, "lon": -73.60897, "name": "Boyer / B\u00e9langer"}, "geometry": {"type": "Point", "coordinates": [-73.60897, 45.54006]}}, {"type": "Feature", "properties": {"status": "OPEN", "address": "Boyer / Saint-Zotique", "lat": 45.53848, "bikes": 0, "stands": 19, "lon": -73.60556, "name": "Boyer / Saint-Zotique"}, "geometry": {"type": "Point", "coordinates": [-73.60556, 45.53848]}}, {"type": "Feature", "properties": {"status": "OPEN", "address": "Saint-Vallier / Saint-Zotique", "lat": 45.536299, "bikes": 0, "stands": 15, "lon": -73.607773, "name": "Saint-Vallier / Saint-Zotique"}, "geometry": {"type": "Point", "coordinates": [-73.607773, 45.536299]}}, {"type": "Feature", "properties": {"status": "OPEN", "address": "Parc P\u00e8re-Marquette (Chambord / Rosemont)", "lat": 45.537035, "bikes": 0, "stands": 31, "lon": -73.593126, "name": "Parc P\u00e8re-Marquette (Chambord / Rosemont)"}, "geometry": {"type": "Point", "coordinates": [-73.593126, 45.537035]}}, {"type": "Feature", "properties": {"status": "OPEN", "address": "Dandurand/De Lorimier", "lat": 45.540881, "bikes": 0, "stands": 14, "lon": -73.584157, "name": "Dandurand/De Lorimier"}, "geometry": {"type": "Point", "coordinates": [-73.584157, 45.540881]}}, {"type": "Feature", "properties": {"status": "OPEN", "address": "Dandurand/Papineau", "lat": 45.538589, "bikes": 0, "stands": 19, "lon": -73.586302, "name": "Dandurand/Papineau"}, "geometry": {"type": "Point", "coordinates": [-73.586302, 45.538589]}}, {"type": "Feature", "properties": {"status": "OPEN", "address": "Louis H\u00e9mon / Rosemont", "lat": 45.54458, "bikes": 0, "stands": 19, "lon": -73.588069, "name": "Louis H\u00e9mon / Rosemont"}, "geometry": {"type": "Point", "coordinates": [-73.588069, 45.54458]}}, {"type": "Feature", "properties": {"status": "OPEN", "address": "de la Roche /  Bellechasse ", "lat": 45.537202, "bikes": 0, "stands": 1, "lon": -73.597884, "name": "de la Roche /  Bellechasse "}, "geometry": {"type": "Point", "coordinates": [-73.597884, 45.537202]}}, {"type": "Feature", "properties": {"status": "OPEN", "address": "Hampton/Monkland", "lat": 45.4714, "bikes": 0, "stands": 15, "lon": -73.6266, "name": "Hampton/Monkland"}, "geometry": {"type": "Point", "coordinates": [-73.6266, 45.4714]}}, {"type": "Feature", "properties": {"status": "OPEN", "address": "Chabot / Bellechasse", "lat": 45.5427, "bikes": 0, "stands": 15, "lon": -73.59212, "name": "Chabot / Bellechasse"}, "geometry": {"type": "Point", "coordinates": [-73.59212, 45.5427]}}, {"type": "Feature", "properties": {"status": "OPEN", "address": "Parthenais / Laurier", "lat": 45.539259, "bikes": 0, "stands": 19, "lon": -73.577338, "name": "Parthenais / Laurier"}, "geometry": {"type": "Point", "coordinates": [-73.577338, 45.539259]}}, {"type": "Feature", "properties": {"status": "OPEN", "address": "Louis-H\u00e9bert / Beaubien", "lat": 45.54857, "bikes": 0, "stands": 19, "lon": -73.59268, "name": "Louis-H\u00e9bert / Beaubien"}, "geometry": {"type": "Point", "coordinates": [-73.59268, 45.54857]}}, {"type": "Feature", "properties": {"status": "OPEN", "address": "de Bordeaux / Beaubien", "lat": 45.54475, "bikes": 0, "stands": 2, "lon": -73.5949, "name": "de Bordeaux / Beaubien"}, "geometry": {"type": "Point", "coordinates": [-73.5949, 45.54475]}}, {"type": "Feature", "properties": {"status": "OPEN", "address": "Chambord / Beaubien", "lat": 45.539964, "bikes": 0, "stands": 19, "lon": -73.599716, "name": "Chambord / Beaubien"}, "geometry": {"type": "Point", "coordinates": [-73.599716, 45.539964]}}, {"type": "Feature", "properties": {"status": "OPEN", "address": "de Normanville / Saint-Zotique", "lat": 45.54083, "bikes": 0, "stands": 7, "lon": -73.60384, "name": "de Normanville / Saint-Zotique"}, "geometry": {"type": "Point", "coordinates": [-73.60384, 45.54083]}}, {"type": "Feature", "properties": {"status": "OPEN", "address": "Fabre / Saint-Zotique", "lat": 45.543541, "bikes": 0, "stands": 19, "lon": -73.600982, "name": "Fabre / Saint-Zotique"}, "geometry": {"type": "Point", "coordinates": [-73.600982, 45.543541]}}, {"type": "Feature", "properties": {"status": "OPEN", "address": "Casgrain / de Bellechasse", "lat": 45.529993, "bikes": 0, "stands": 23, "lon": -73.604214, "name": "Casgrain / de Bellechasse"}, "geometry": {"type": "Point", "coordinates": [-73.604214, 45.529993]}}, {"type": "Feature", "properties": {"status": "OPEN", "address": "Bordeaux / Saint-Zotique", "lat": 45.546526, "bikes": 0, "stands": 15, "lon": -73.598442, "name": "Bordeaux / Saint-Zotique"}, "geometry": {"type": "Point", "coordinates": [-73.598442, 45.546526]}}, {"type": "Feature", "properties": {"status": "OPEN", "address": "Cartier / B\u00e9langer", "lat": 45.546939, "bikes": 0, "stands": 19, "lon": -73.602616, "name": "Cartier / B\u00e9langer"}, "geometry": {"type": "Point", "coordinates": [-73.602616, 45.546939]}}, {"type": "Feature", "properties": {"status": "OPEN", "address": "De la Roche/St-Joseph", "lat": 45.531164, "bikes": 0, "stands": 19, "lon": -73.583695, "name": "De la Roche/St-Joseph"}, "geometry": {"type": "Point", "coordinates": [-73.583695, 45.531164]}}, {"type": "Feature", "properties": {"status": "OPEN", "address": "Chambord / Jean-Talon", "lat": 45.544828, "bikes": 0, "stands": 2, "lon": -73.610458, "name": "Chambord / Jean-Talon"}, "geometry": {"type": "Point", "coordinates": [-73.610458, 45.544828]}}, {"type": "Feature", "properties": {"status": "OPEN", "address": "Chambord / B\u00e9langer", "lat": 45.543077, "bikes": 0, "stands": 15, "lon": -73.606585, "name": "Chambord / B\u00e9langer"}, "geometry": {"type": "Point", "coordinates": [-73.606585, 45.543077]}}, {"type": "Feature", "properties": {"status": "OPEN", "address": "Louis-H\u00e9bert / Saint-Zotique", "lat": 45.55001, "bikes": 0, "stands": 11, "lon": -73.59576, "name": "Louis-H\u00e9bert / Saint-Zotique"}, "geometry": {"type": "Point", "coordinates": [-73.59576, 45.55001]}}, {"type": "Feature", "properties": {"status": "OPEN", "address": "Louis-H\u00e9bert / B\u00e9langer", "lat": 45.551457, "bikes": 0, "stands": 15, "lon": -73.598852, "name": "Louis-H\u00e9bert / B\u00e9langer"}, "geometry": {"type": "Point", "coordinates": [-73.598852, 45.551457]}}, {"type": "Feature", "properties": {"status": "OPEN", "address": "Fabre / Beaubien", "lat": 45.542055, "bikes": 0, "stands": 15, "lon": -73.597793, "name": "Fabre / Beaubien"}, "geometry": {"type": "Point", "coordinates": [-73.597793, 45.542055]}}, {"type": "Feature", "properties": {"status": "OPEN", "address": "Parc Rosemont (Dandurand/d'Iberville)", "lat": 45.544377, "bikes": 0, "stands": 19, "lon": -73.581018, "name": "Parc Rosemont (Dandurand/d'Iberville)"}, "geometry": {"type": "Point", "coordinates": [-73.581018, 45.544377]}}, {"type": "Feature", "properties": {"status": "OPEN", "address": "Chateaubriand/Des Ateliers", "lat": 45.53192856, "bikes": 0, "stands": 23, "lon": -73.595666, "name": "Chateaubriand/Des Ateliers"}, "geometry": {"type": "Point", "coordinates": [-73.595666, 45.53192856]}}, {"type": "Feature", "properties": {"status": "OPEN", "address": "Boyer / Rosemont", "lat": 45.534136, "bikes": 0, "stands": 23, "lon": -73.595478, "name": "Boyer / Rosemont"}, "geometry": {"type": "Point", "coordinates": [-73.595478, 45.534136]}}, {"type": "Feature", "properties": {"status": "OPEN", "address": "Bellechasse/St-Valier", "lat": 45.533473, "bikes": 0, "stands": 19, "lon": -73.601221, "name": "Bellechasse/St-Valier"}, "geometry": {"type": "Point", "coordinates": [-73.601221, 45.533473]}}, {"type": "Feature", "properties": {"status": "OPEN", "address": "Augustin-Cantin / Shearer", "lat": 45.48401829, "bikes": 0, "stands": 15, "lon": -73.5634366, "name": "Augustin-Cantin / Shearer"}, "geometry": {"type": "Point", "coordinates": [-73.5634366, 45.48401829]}}, {"type": "Feature", "properties": {"status": "OPEN", "address": "Marie-anne/ St-Hubert", "lat": 45.524634, "bikes": 0, "stands": 15, "lon": -73.578755, "name": "Marie-anne/ St-Hubert"}, "geometry": {"type": "Point", "coordinates": [-73.578755, 45.524634]}}, {"type": "Feature", "properties": {"status": "OPEN", "address": "\u00c9douard-Montpetit / Stirling", "lat": 45.50723, "bikes": 0, "stands": 19, "lon": -73.615085, "name": "\u00c9douard-Montpetit / Stirling"}, "geometry": {"type": "Point", "coordinates": [-73.615085, 45.50723]}}, {"type": "Feature", "properties": {"status": "OPEN", "address": "Louis-Colin / McKenna", "lat": 45.500035, "bikes": 0, "stands": 23, "lon": -73.618105, "name": "Louis-Colin / McKenna"}, "geometry": {"type": "Point", "coordinates": [-73.618105, 45.500035]}}, {"type": "Feature", "properties": {"status": "OPEN", "address": "Waverly / Van Horne", "lat": 45.527363, "bikes": 0, "stands": 11, "lon": -73.607723, "name": "Waverly / Van Horne"}, "geometry": {"type": "Point", "coordinates": [-73.607723, 45.527363]}}, {"type": "Feature", "properties": {"status": "OPEN", "address": "Hutchison / Van Horne", "lat": 45.525021229213, "bikes": 0, "stands": 19, "lon": -73.610737323761, "name": "Hutchison / Van Horne"}, "geometry": {"type": "Point", "coordinates": [-73.610737323761, 45.525021229213]}}, {"type": "Feature", "properties": {"status": "OPEN", "address": "Bernard / Jeanne-Mance", "lat": 45.524295872823, "bikes": 0, "stands": 27, "lon": -73.604847192764, "name": "Bernard / Jeanne-Mance"}, "geometry": {"type": "Point", "coordinates": [-73.604847192764, 45.524295872823]}}, {"type": "Feature", "properties": {"status": "OPEN", "address": "Basile-Routhier / Chabanel", "lat": 45.549949, "bikes": 0, "stands": 11, "lon": -73.647982, "name": "Basile-Routhier / Chabanel"}, "geometry": {"type": "Point", "coordinates": [-73.647982, 45.549949]}}, {"type": "Feature", "properties": {"status": "OPEN", "address": "10e Avenue / Rosemont", "lat": 45.552649, "bikes": 0, "stands": 14, "lon": -73.581185, "name": "10e Avenue / Rosemont"}, "geometry": {"type": "Point", "coordinates": [-73.581185, 45.552649]}}, {"type": "Feature", "properties": {"status": "OPEN", "address": "Boyer / Beaubien", "lat": 45.537041, "bikes": 0, "stands": 19, "lon": -73.602026, "name": "Boyer / Beaubien"}, "geometry": {"type": "Point", "coordinates": [-73.602026, 45.537041]}}, {"type": "Feature", "properties": {"status": "OPEN", "address": "Peel / Ottawa", "lat": 45.493962, "bikes": 0, "stands": 6, "lon": -73.559644, "name": "Peel / Ottawa"}, "geometry": {"type": "Point", "coordinates": [-73.559644, 45.493962]}}, {"type": "Feature", "properties": {"status": "OPEN", "address": "Notre-Dame / de la Montagne ", "lat": 45.493029012584, "bikes": 0, "stands": 26, "lon": -73.564817905426, "name": "Notre-Dame / de la Montagne "}, "geometry": {"type": "Point", "coordinates": [-73.564817905426, 45.493029012584]}}, {"type": "Feature", "properties": {"status": "OPEN", "address": "Guy / Notre-Dame", "lat": 45.489951, "bikes": 0, "stands": 19, "lon": -73.567091, "name": "Guy / Notre-Dame"}, "geometry": {"type": "Point", "coordinates": [-73.567091, 45.489951]}}, {"type": "Feature", "properties": {"status": "OPEN", "address": "Louis-H\u00e9mon / Beaubien", "lat": 45.54705, "bikes": 0, "stands": 15, "lon": -73.59353, "name": "Louis-H\u00e9mon / Beaubien"}, "geometry": {"type": "Point", "coordinates": [-73.59353, 45.54705]}}, {"type": "Feature", "properties": {"status": "OPEN", "address": "Fairmount/St-Dominique", "lat": 45.524611, "bikes": 0, "stands": 15, "lon": -73.594059, "name": "Fairmount/St-Dominique"}, "geometry": {"type": "Point", "coordinates": [-73.594059, 45.524611]}}, {"type": "Feature", "properties": {"status": "OPEN", "address": "M\u00e9tro Charlevoix (Centre / Charlevoix)", "lat": 45.478227873091, "bikes": 0, "stands": 15, "lon": -73.569651246071, "name": "M\u00e9tro Charlevoix (Centre / Charlevoix)"}, "geometry": {"type": "Point", "coordinates": [-73.569651246071, 45.478227873091]}}, {"type": "Feature", "properties": {"status": "OPEN", "address": "des Seigneurs / Notre-Dame", "lat": 45.487676, "bikes": 0, "stands": 15, "lon": -73.568868, "name": "des Seigneurs / Notre-Dame"}, "geometry": {"type": "Point", "coordinates": [-73.568868, 45.487676]}}, {"type": "Feature", "properties": {"status": "OPEN", "address": "Sir Georges Etienne Cartier/Ste-\u00c9milie", "lat": 45.472743, "bikes": 0, "stands": 18, "lon": -73.585369, "name": "Sir Georges Etienne Cartier/Ste-\u00c9milie"}, "geometry": {"type": "Point", "coordinates": [-73.585369, 45.472743]}}, {"type": "Feature", "properties": {"status": "OPEN", "address": "Georges-Vanier / Notre-Dame", "lat": 45.48501, "bikes": 0, "stands": 18, "lon": -73.57178, "name": "Georges-Vanier / Notre-Dame"}, "geometry": {"type": "Point", "coordinates": [-73.57178, 45.48501]}}, {"type": "Feature", "properties": {"status": "OPEN", "address": "Quesnel/Vinet", "lat": 45.485889, "bikes": 0, "stands": 23, "lon": -73.577514, "name": "Quesnel/Vinet"}, "geometry": {"type": "Point", "coordinates": [-73.577514, 45.485889]}}, {"type": "Feature", "properties": {"status": "OPEN", "address": "Duvernay/charlevoix ", "lat": 45.48203995, "bikes": 0, "stands": 19, "lon": -73.57486278, "name": "Duvernay/charlevoix "}, "geometry": {"type": "Point", "coordinates": [-73.57486278, 45.48203995]}}, {"type": "Feature", "properties": {"status": "OPEN", "address": "March\u00e9 Atwater", "lat": 45.480359, "bikes": 0, "stands": 33, "lon": -73.577102, "name": "March\u00e9 Atwater"}, "geometry": {"type": "Point", "coordinates": [-73.577102, 45.480359]}}, {"type": "Feature", "properties": {"status": "OPEN", "address": "M\u00e9tro Lionel-Groulx ( Lionel-Groulx /Charlevoix)", "lat": 45.48392802, "bikes": 0, "stands": 31, "lon": -73.57731164, "name": "M\u00e9tro Lionel-Groulx ( Lionel-Groulx /Charlevoix)"}, "geometry": {"type": "Point", "coordinates": [-73.57731164, 45.48392802]}}, {"type": "Feature", "properties": {"status": "OPEN", "address": "Saint-Antoine / Canning (Metro George-Vanier)", "lat": 45.4891, "bikes": 0, "stands": 17, "lon": -73.57656, "name": "Saint-Antoine / Canning (Metro George-Vanier)"}, "geometry": {"type": "Point", "coordinates": [-73.57656, 45.4891]}}, {"type": "Feature", "properties": {"status": "OPEN", "address": "Laval/Rachel", "lat": 45.520018, "bikes": 0, "stands": 0, "lon": -73.579463, "name": "Laval/Rachel"}, "geometry": {"type": "Point", "coordinates": [-73.579463, 45.520018]}}, {"type": "Feature", "properties": {"status": "OPEN", "address": "5e ave/Verdun", "lat": 45.456049, "bikes": 0, "stands": 19, "lon": -73.571877, "name": "5e ave/Verdun"}, "geometry": {"type": "Point", "coordinates": [-73.571877, 45.456049]}}, {"type": "Feature", "properties": {"status": "OPEN", "address": "Darlington / C\u00f4te-Sainte-Catherine", "lat": 45.505514, "bikes": 0, "stands": 31, "lon": -73.621215, "name": "Darlington / C\u00f4te-Sainte-Catherine"}, "geometry": {"type": "Point", "coordinates": [-73.621215, 45.505514]}}, {"type": "Feature", "properties": {"status": "OPEN", "address": "Palm/St-Remi", "lat": 45.470303, "bikes": 0, "stands": 19, "lon": -73.589848, "name": "Palm/St-Remi"}, "geometry": {"type": "Point", "coordinates": [-73.589848, 45.470303]}}, {"type": "Feature", "properties": {"status": "OPEN", "address": "Kent / C\u00f4te-Des-Neiges", "lat": 45.501302, "bikes": 0, "stands": 23, "lon": -73.633161, "name": "Kent / C\u00f4te-Des-Neiges"}, "geometry": {"type": "Point", "coordinates": [-73.633161, 45.501302]}}, {"type": "Feature", "properties": {"status": "OPEN", "address": "Drolet/St-Zotique", "lat": 45.534795, "bikes": 0, "stands": 19, "lon": -73.609546, "name": "Drolet/St-Zotique"}, "geometry": {"type": "Point", "coordinates": [-73.609546, 45.534795]}}, {"type": "Feature", "properties": {"status": "OPEN", "address": "De Lanaudiere/Marie-Anne", "lat": 45.529219, "bikes": 0, "stands": 19, "lon": -73.574777, "name": "De Lanaudiere/Marie-Anne"}, "geometry": {"type": "Point", "coordinates": [-73.574777, 45.529219]}}, {"type": "Feature", "properties": {"status": "OPEN", "address": "Lacombe / C\u00f4te-des-Neiges", "lat": 45.49690965, "bikes": 0, "stands": 15, "lon": -73.6231855, "name": "Lacombe / C\u00f4te-des-Neiges"}, "geometry": {"type": "Point", "coordinates": [-73.6231855, 45.49690965]}}, {"type": "Feature", "properties": {"status": "OPEN", "address": "Parc Jean-Brillant (Swail / Decelles)", "lat": 45.497011, "bikes": 0, "stands": 27, "lon": -73.618575, "name": "Parc Jean-Brillant (Swail / Decelles)"}, "geometry": {"type": "Point", "coordinates": [-73.618575, 45.497011]}}, {"type": "Feature", "properties": {"status": "OPEN", "address": "Jardin Botanique", "lat": 45.555029, "bikes": 0, "stands": 3, "lon": -73.554902, "name": "Jardin Botanique"}, "geometry": {"type": "Point", "coordinates": [-73.554902, 45.555029]}}, {"type": "Feature", "properties": {"status": "OPEN", "address": "Bordeaux/Gilford", "lat": 45.536178, "bikes": 0, "stands": 23, "lon": -73.57641, "name": "Bordeaux/Gilford"}, "geometry": {"type": "Point", "coordinates": [-73.57641, 45.536178]}}, {"type": "Feature", "properties": {"status": "OPEN", "address": "M\u00e9tro Pr\u00e9fontaine (Moreau / Hochelaga)", "lat": 45.541814, "bikes": 0, "stands": 21, "lon": -73.554635, "name": "M\u00e9tro Pr\u00e9fontaine (Moreau / Hochelaga)"}, "geometry": {"type": "Point", "coordinates": [-73.554635, 45.541814]}}, {"type": "Feature", "properties": {"status": "OPEN", "address": "M\u00e9tro Joliette  (joliette/Hochelaga)", "lat": 45.547179, "bikes": 0, "stands": 19, "lon": -73.551739, "name": "M\u00e9tro Joliette  (joliette/Hochelaga)"}, "geometry": {"type": "Point", "coordinates": [-73.551739, 45.547179]}}, {"type": "Feature", "properties": {"status": "OPEN", "address": "D'Orl\u00e9ans / Hochelaga", "lat": 45.550668, "bikes": 0, "stands": 11, "lon": -73.549502, "name": "D'Orl\u00e9ans / Hochelaga"}, "geometry": {"type": "Point", "coordinates": [-73.549502, 45.550668]}}, {"type": "Feature", "properties": {"status": "OPEN", "address": "Boyer / Jean-Talon", "lat": 45.541484, "bikes": 0, "stands": 15, "lon": -73.612441, "name": "Boyer / Jean-Talon"}, "geometry": {"type": "Point", "coordinates": [-73.612441, 45.541484]}}, {"type": "Feature", "properties": {"status": "OPEN", "address": "Aylwin / Ontario", "lat": 45.544136, "bikes": 0, "stands": 13, "lon": -73.545609, "name": "Aylwin / Ontario"}, "geometry": {"type": "Point", "coordinates": [-73.545609, 45.544136]}}, {"type": "Feature", "properties": {"status": "OPEN", "address": "Ontario / D\u00e9z\u00e9ry", "lat": 45.541044, "bikes": 0, "stands": 33, "lon": -73.547407, "name": "Ontario / D\u00e9z\u00e9ry"}, "geometry": {"type": "Point", "coordinates": [-73.547407, 45.541044]}}, {"type": "Feature", "properties": {"status": "OPEN", "address": "Valois / Ontario", "lat": 45.54730353, "bikes": 0, "stands": 23, "lon": -73.5438269, "name": "Valois / Ontario"}, "geometry": {"type": "Point", "coordinates": [-73.5438269, 45.54730353]}}, {"type": "Feature", "properties": {"status": "OPEN", "address": "Pierre-de-Coubertin / Aird", "lat": 45.55896, "bikes": 0, "stands": 40, "lon": -73.548687, "name": "Pierre-de-Coubertin / Aird"}, "geometry": {"type": "Point", "coordinates": [-73.548687, 45.55896]}}, {"type": "Feature", "properties": {"status": "OPEN", "address": "March\u00e9 Maisonneuve", "lat": 45.553491, "bikes": 0, "stands": 23, "lon": -73.53931, "name": "March\u00e9 Maisonneuve"}, "geometry": {"type": "Point", "coordinates": [-73.53931, 45.553491]}}, {"type": "Feature", "properties": {"status": "OPEN", "address": "Desjardins / Ontario", "lat": 45.551119, "bikes": 0, "stands": 27, "lon": -73.540764, "name": "Desjardins / Ontario"}, "geometry": {"type": "Point", "coordinates": [-73.540764, 45.551119]}}, {"type": "Feature", "properties": {"status": "OPEN", "address": "Guizot / Saint-Laurent", "lat": 45.539964, "bikes": 0, "stands": 15, "lon": -73.634319, "name": "Guizot / Saint-Laurent"}, "geometry": {"type": "Point", "coordinates": [-73.634319, 45.539964]}}, {"type": "Feature", "properties": {"status": "OPEN", "address": "Faillon / Saint-Denis", "lat": 45.53985704, "bikes": 0, "stands": 15, "lon": -73.62038255, "name": "Faillon / Saint-Denis"}, "geometry": {"type": "Point", "coordinates": [-73.62038255, 45.53985704]}}, {"type": "Feature", "properties": {"status": "OPEN", "address": "Gounod / Saint-Denis", "lat": 45.541791, "bikes": 0, "stands": 15, "lon": -73.625894, "name": "Gounod / Saint-Denis"}, "geometry": {"type": "Point", "coordinates": [-73.625894, 45.541791]}}, {"type": "Feature", "properties": {"status": "OPEN", "address": "De Gasp\u00e9 / Jarry", "lat": 45.540627, "bikes": 0, "stands": 15, "lon": -73.630089, "name": "De Gasp\u00e9 / Jarry"}, "geometry": {"type": "Point", "coordinates": [-73.630089, 45.540627]}}, {"type": "Feature", "properties": {"status": "OPEN", "address": "Guizot / Saint-Denis", "lat": 45.543376, "bikes": 0, "stands": 0, "lon": -73.632267, "name": "Guizot / Saint-Denis"}, "geometry": {"type": "Point", "coordinates": [-73.632267, 45.543376]}}, {"type": "Feature", "properties": {"status": "OPEN", "address": "De Gasp\u00e9 / De Li\u00e8ge", "lat": 45.542579, "bikes": 0, "stands": 15, "lon": -73.636557, "name": "De Gasp\u00e9 / De Li\u00e8ge"}, "geometry": {"type": "Point", "coordinates": [-73.636557, 45.542579]}}, {"type": "Feature", "properties": {"status": "OPEN", "address": "Leman/Chateaubriand", "lat": 45.547218, "bikes": 0, "stands": 15, "lon": -73.631103, "name": "Leman/Chateaubriand"}, "geometry": {"type": "Point", "coordinates": [-73.631103, 45.547218]}}, {"type": "Feature", "properties": {"status": "OPEN", "address": "Lajeunesse / Jarry", "lat": 45.543583, "bikes": 0, "stands": 19, "lon": -73.6284, "name": "Lajeunesse / Jarry"}, "geometry": {"type": "Point", "coordinates": [-73.6284, 45.543583]}}, {"type": "Feature", "properties": {"status": "OPEN", "address": "Du Rosaire / Saint-Hubert", "lat": 45.54467, "bikes": 0, "stands": 15, "lon": -73.621581, "name": "Du Rosaire / Saint-Hubert"}, "geometry": {"type": "Point", "coordinates": [-73.621581, 45.54467]}}, {"type": "Feature", "properties": {"status": "OPEN", "address": "Faillon / Saint-Hubert", "lat": 45.542892, "bikes": 0, "stands": 19, "lon": -73.617822, "name": "Faillon / Saint-Hubert"}, "geometry": {"type": "Point", "coordinates": [-73.617822, 45.542892]}}, {"type": "Feature", "properties": {"status": "OPEN", "address": "Boyer / Jarry", "lat": 45.547283, "bikes": 0, "stands": 14, "lon": -73.625377, "name": "Boyer / Jarry"}, "geometry": {"type": "Point", "coordinates": [-73.625377, 45.547283]}}, {"type": "Feature", "properties": {"status": "OPEN", "address": "Harvard/Monkland", "lat": 45.4743, "bikes": 0, "stands": 15, "lon": -73.6237, "name": "Harvard/Monkland"}, "geometry": {"type": "Point", "coordinates": [-73.6237, 45.4743]}}, {"type": "Feature", "properties": {"status": "OPEN", "address": "De La Roche / Everett", "lat": 45.544867, "bikes": 0, "stands": 18, "lon": -73.614841, "name": "De La Roche / Everett"}, "geometry": {"type": "Point", "coordinates": [-73.614841, 45.544867]}}, {"type": "Feature", "properties": {"status": "OPEN", "address": "Regina / Verdun", "lat": 45.467369, "bikes": 0, "stands": 15, "lon": -73.570769, "name": "Regina / Verdun"}, "geometry": {"type": "Point", "coordinates": [-73.570769, 45.467369]}}, {"type": "Feature", "properties": {"status": "OPEN", "address": "Marquette / Villeray", "lat": 45.550551, "bikes": 0, "stands": 1, "lon": -73.615021, "name": "Marquette / Villeray"}, "geometry": {"type": "Point", "coordinates": [-73.615021, 45.550551]}}, {"type": "Feature", "properties": {"status": "OPEN", "address": "Louis-H\u00e9mon / Villeray", "lat": 45.554931, "bikes": 0, "stands": 15, "lon": -73.610711, "name": "Louis-H\u00e9mon / Villeray"}, "geometry": {"type": "Point", "coordinates": [-73.610711, 45.554931]}}, {"type": "Feature", "properties": {"status": "OPEN", "address": "Valois/Ste-Catherine", "lat": 45.545409, "bikes": 0, "stands": 3, "lon": -73.537669, "name": "Valois/Ste-Catherine"}, "geometry": {"type": "Point", "coordinates": [-73.537669, 45.545409]}}, {"type": "Feature", "properties": {"status": "OPEN", "address": "M\u00e9tro St-Michel ( Shaughnessy/St-Michel)", "lat": 45.559199, "bikes": 0, "stands": 11, "lon": -73.599658, "name": "M\u00e9tro St-Michel ( Shaughnessy/St-Michel)"}, "geometry": {"type": "Point", "coordinates": [-73.599658, 45.559199]}}, {"type": "Feature", "properties": {"status": "OPEN", "address": "Ryde/Charlevoix", "lat": 45.4757434, "bikes": 0, "stands": 19, "lon": -73.5646007, "name": "Ryde/Charlevoix"}, "geometry": {"type": "Point", "coordinates": [-73.5646007, 45.4757434]}}, {"type": "Feature", "properties": {"status": "OPEN", "address": "Island/Centre", "lat": 45.4815, "bikes": 0, "stands": 22, "lon": -73.5644, "name": "Island/Centre"}, "geometry": {"type": "Point", "coordinates": [-73.5644, 45.4815]}}, {"type": "Feature", "properties": {"status": "OPEN", "address": "St-Dominique / Villeray", "lat": 45.537813, "bikes": 0, "stands": 15, "lon": -73.624872, "name": "St-Dominique / Villeray"}, "geometry": {"type": "Point", "coordinates": [-73.624872, 45.537813]}}, {"type": "Feature", "properties": {"status": "OPEN", "address": "de Li\u00e8ge / Lajeunesse", "lat": 45.545541556277, "bikes": 0, "stands": 15, "lon": -73.634748458862, "name": "de Li\u00e8ge / Lajeunesse"}, "geometry": {"type": "Point", "coordinates": [-73.634748458862, 45.545541556277]}}, {"type": "Feature", "properties": {"status": "OPEN", "address": "Drolet / Villeray", "lat": 45.5401, "bikes": 0, "stands": 11, "lon": -73.6234, "name": "Drolet / Villeray"}, "geometry": {"type": "Point", "coordinates": [-73.6234, 45.5401]}}, {"type": "Feature", "properties": {"status": "OPEN", "address": "Marcil/Sherbrooke", "lat": 45.471743, "bikes": 0, "stands": 2, "lon": -73.613924, "name": "Marcil/Sherbrooke"}, "geometry": {"type": "Point", "coordinates": [-73.613924, 45.471743]}}, {"type": "Feature", "properties": {"status": "OPEN", "address": "Sicard/Ontario", "lat": 45.5566, "bikes": 0, "stands": 19, "lon": -73.5373, "name": "Sicard/Ontario"}, "geometry": {"type": "Point", "coordinates": [-73.5373, 45.5566]}}, {"type": "Feature", "properties": {"status": "OPEN", "address": "Monkland/Girouard", "lat": 45.4771, "bikes": 0, "stands": 15, "lon": -73.6212, "name": "Monkland/Girouard"}, "geometry": {"type": "Point", "coordinates": [-73.6212, 45.4771]}}, {"type": "Feature", "properties": {"status": "OPEN", "address": "12e Avenue / Saint-Zotique", "lat": 45.556905, "bikes": 0, "stands": 15, "lon": -73.58925, "name": "12e Avenue / Saint-Zotique"}, "geometry": {"type": "Point", "coordinates": [-73.58925, 45.556905]}}, {"type": "Feature", "properties": {"status": "OPEN", "address": "6e avenue /St-Zotique", "lat": 45.553243, "bikes": 0, "stands": 19, "lon": -73.592336, "name": "6e avenue /St-Zotique"}, "geometry": {"type": "Point", "coordinates": [-73.592336, 45.553243]}}, {"type": "Feature", "properties": {"status": "OPEN", "address": "M\u00e9tro Champs-de-Mars (Viger/Sanguinet)", "lat": 45.510499, "bikes": 0, "stands": 25, "lon": -73.55653, "name": "M\u00e9tro Champs-de-Mars (Viger/Sanguinet)"}, "geometry": {"type": "Point", "coordinates": [-73.55653, 45.510499]}}, {"type": "Feature", "properties": {"status": "OPEN", "address": "8e Avenue / Beaubien", "lat": 45.553215, "bikes": 0, "stands": 4, "lon": -73.58752, "name": "8e Avenue / Beaubien"}, "geometry": {"type": "Point", "coordinates": [-73.58752, 45.553215]}}, {"type": "Feature", "properties": {"status": "OPEN", "address": "1ere Avenue / Beaubien", "lat": 45.550476, "bikes": 0, "stands": 15, "lon": -73.590446, "name": "1ere Avenue / Beaubien"}, "geometry": {"type": "Point", "coordinates": [-73.590446, 45.550476]}}, {"type": "Feature", "properties": {"status": "OPEN", "address": "1ere Avenue / Rosemont", "lat": 45.547997, "bikes": 0, "stands": 19, "lon": -73.58523, "name": "1ere Avenue / Rosemont"}, "geometry": {"type": "Point", "coordinates": [-73.58523, 45.547997]}}, {"type": "Feature", "properties": {"status": "OPEN", "address": "C\u00f4te St-Antoine/Royal", "lat": 45.4688, "bikes": 0, "stands": 15, "lon": -73.6198, "name": "C\u00f4te St-Antoine/Royal"}, "geometry": {"type": "Point", "coordinates": [-73.6198, 45.4688]}}, {"type": "Feature", "properties": {"status": "OPEN", "address": "Chambly / Rachel", "lat": 45.549639, "bikes": 0, "stands": 15, "lon": -73.558292, "name": "Chambly / Rachel"}, "geometry": {"type": "Point", "coordinates": [-73.558292, 45.549639]}}, {"type": "Feature", "properties": {"status": "OPEN", "address": "Wilderton  / Van Horne", "lat": 45.510042, "bikes": 0, "stands": 15, "lon": -73.624835, "name": "Wilderton  / Van Horne"}, "geometry": {"type": "Point", "coordinates": [-73.624835, 45.510042]}}, {"type": "Feature", "properties": {"status": "OPEN", "address": "3e Avenue / Dandurand", "lat": 45.547362, "bikes": 0, "stands": 15, "lon": -73.579221, "name": "3e Avenue / Dandurand"}, "geometry": {"type": "Point", "coordinates": [-73.579221, 45.547362]}}, {"type": "Feature", "properties": {"status": "OPEN", "address": "10e Avenue / Masson", "lat": 45.550321, "bikes": 0, "stands": 19, "lon": -73.573755, "name": "10e Avenue / Masson"}, "geometry": {"type": "Point", "coordinates": [-73.573755, 45.550321]}}, {"type": "Feature", "properties": {"status": "OPEN", "address": "West Broadway/Sherbrooke", "lat": 45.45639046, "bikes": 0, "stands": 9, "lon": -73.6402148, "name": "West Broadway/Sherbrooke"}, "geometry": {"type": "Point", "coordinates": [-73.6402148, 45.45639046]}}, {"type": "Feature", "properties": {"status": "OPEN", "address": "D'Orl\u00e9ans / Masson", "lat": 45.557192, "bikes": 0, "stands": 15, "lon": -73.569847, "name": "D'Orl\u00e9ans / Masson"}, "geometry": {"type": "Point", "coordinates": [-73.569847, 45.557192]}}, {"type": "Feature", "properties": {"status": "OPEN", "address": "4e Avenue / Masson", "lat": 45.546978, "bikes": 0, "stands": 30, "lon": -73.575515, "name": "4e Avenue / Masson"}, "geometry": {"type": "Point", "coordinates": [-73.575515, 45.546978]}}, {"type": "Feature", "properties": {"status": "OPEN", "address": "Molson / Masson", "lat": 45.544099, "bikes": 0, "stands": 23, "lon": -73.576931, "name": "Molson / Masson"}, "geometry": {"type": "Point", "coordinates": [-73.576931, 45.544099]}}, {"type": "Feature", "properties": {"status": "OPEN", "address": "9e Avenue / Saint-Joseph", "lat": 45.548327, "bikes": 0, "stands": 11, "lon": -73.569351, "name": "9e Avenue / Saint-Joseph"}, "geometry": {"type": "Point", "coordinates": [-73.569351, 45.548327]}}, {"type": "Feature", "properties": {"status": "OPEN", "address": "15e Avenue / Laurier", "lat": 45.553408, "bikes": 0, "stands": 19, "lon": -73.569531, "name": "15e Avenue / Laurier"}, "geometry": {"type": "Point", "coordinates": [-73.569531, 45.553408]}}, {"type": "Feature", "properties": {"status": "OPEN", "address": "Metro Place St-Henri (St-Ferdinand/St-Jacques)", "lat": 45.477249, "bikes": 0, "stands": 19, "lon": -73.587238, "name": "Metro Place St-Henri (St-Ferdinand/St-Jacques)"}, "geometry": {"type": "Point", "coordinates": [-73.587238, 45.477249]}}, {"type": "Feature", "properties": {"status": "OPEN", "address": "18e Avenue / Saint-Joseph", "lat": 45.554165, "bikes": 0, "stands": 14, "lon": -73.564742, "name": "18e Avenue / Saint-Joseph"}, "geometry": {"type": "Point", "coordinates": [-73.564742, 45.554165]}}, {"type": "Feature", "properties": {"status": "OPEN", "address": "Grand trunk/Hibernia", "lat": 45.47968, "bikes": 0, "stands": 19, "lon": -73.56385, "name": "Grand trunk/Hibernia"}, "geometry": {"type": "Point", "coordinates": [-73.56385, 45.47968]}}, {"type": "Feature", "properties": {"status": "OPEN", "address": "Bannantyne /de l'Eglise", "lat": 45.463257, "bikes": 0, "stands": 15, "lon": -73.575621, "name": "Bannantyne /de l'Eglise"}, "geometry": {"type": "Point", "coordinates": [-73.575621, 45.463257]}}, {"type": "Feature", "properties": {"status": "OPEN", "address": "Parc J.-Arthur-Champagne (Chambly/Mont-Royal)", "lat": 45.551584, "bikes": 0, "stands": 19, "lon": -73.561916, "name": "Parc J.-Arthur-Champagne (Chambly/Mont-Royal)"}, "geometry": {"type": "Point", "coordinates": [-73.561916, 45.551584]}}, {"type": "Feature", "properties": {"status": "OPEN", "address": "Omer-Lavall\u00e9e / Midway", "lat": 45.545474, "bikes": 0, "stands": 23, "lon": -73.561937, "name": "Omer-Lavall\u00e9e / Midway"}, "geometry": {"type": "Point", "coordinates": [-73.561937, 45.545474]}}, {"type": "Feature", "properties": {"status": "OPEN", "address": "Darling / Sherbrooke", "lat": 45.545425, "bikes": 0, "stands": 3, "lon": -73.556527, "name": "Darling / Sherbrooke"}, "geometry": {"type": "Point", "coordinates": [-73.556527, 45.545425]}}, {"type": "Feature", "properties": {"status": "OPEN", "address": "M\u00e9tro Pie-IX (Pierre-de-Coubertin / Pie-IX)", "lat": 45.553879, "bikes": 0, "stands": 41, "lon": -73.551761, "name": "M\u00e9tro Pie-IX (Pierre-de-Coubertin / Pie-IX)"}, "geometry": {"type": "Point", "coordinates": [-73.551761, 45.553879]}}, {"type": "Feature", "properties": {"status": "OPEN", "address": "Parc Outremont (Bloomfield / Elmwood)", "lat": 45.518215, "bikes": 0, "stands": 15, "lon": -73.603251, "name": "Parc Outremont (Bloomfield / Elmwood)"}, "geometry": {"type": "Point", "coordinates": [-73.603251, 45.518215]}}, {"type": "Feature", "properties": {"status": "OPEN", "address": "Stuart / C\u00f4te-Ste-Catherine", "lat": 45.51529, "bikes": 0, "stands": 15, "lon": -73.60628, "name": "Stuart / C\u00f4te-Ste-Catherine"}, "geometry": {"type": "Point", "coordinates": [-73.60628, 45.51529]}}, {"type": "Feature", "properties": {"status": "OPEN", "address": "Dunlop / Van Horne", "lat": 45.514905, "bikes": 0, "stands": 11, "lon": -73.619682, "name": "Dunlop / Van Horne"}, "geometry": {"type": "Point", "coordinates": [-73.619682, 45.514905]}}, {"type": "Feature", "properties": {"status": "OPEN", "address": "Rockland / Lajoie", "lat": 45.515617, "bikes": 0, "stands": 15, "lon": -73.614991, "name": "Rockland / Lajoie"}, "geometry": {"type": "Point", "coordinates": [-73.614991, 45.515617]}}, {"type": "Feature", "properties": {"status": "OPEN", "address": "Davaar / C\u00f4te-Sainte-Catherine", "lat": 45.514379, "bikes": 0, "stands": 15, "lon": -73.610871, "name": "Davaar / C\u00f4te-Sainte-Catherine"}, "geometry": {"type": "Point", "coordinates": [-73.610871, 45.514379]}}, {"type": "Feature", "properties": {"status": "OPEN", "address": "Mont-Royal / Vincent-D'Indy ", "lat": 45.510086, "bikes": 0, "stands": 38, "lon": -73.611429, "name": "Mont-Royal / Vincent-D'Indy "}, "geometry": {"type": "Point", "coordinates": [-73.611429, 45.510086]}}, {"type": "Feature", "properties": {"status": "OPEN", "address": "Gary Carter / St-Laurent", "lat": 45.536152, "bikes": 0, "stands": 0, "lon": -73.622351, "name": "Gary Carter / St-Laurent"}, "geometry": {"type": "Point", "coordinates": [-73.622351, 45.536152]}}, {"type": "Feature", "properties": {"status": "OPEN", "address": "Saint-Dominique / Jean talon", "lat": 45.535189, "bikes": 0, "stands": 23, "lon": -73.617459, "name": "Saint-Dominique / Jean talon"}, "geometry": {"type": "Point", "coordinates": [-73.617459, 45.535189]}}, {"type": "Feature", "properties": {"status": "OPEN", "address": "Lionel-Groulx / George-Vanier", "lat": 45.486457, "bikes": 0, "stands": 19, "lon": -73.573286, "name": "Lionel-Groulx / George-Vanier"}, "geometry": {"type": "Point", "coordinates": [-73.573286, 45.486457]}}, {"type": "Feature", "properties": {"status": "OPEN", "address": "De l'H\u00f4tel-de-Ville / Sherbrooke", "lat": 45.514530838669, "bikes": 0, "stands": 15, "lon": -73.568471074104, "name": "De l'H\u00f4tel-de-Ville / Sherbrooke"}, "geometry": {"type": "Point", "coordinates": [-73.568471074104, 45.514530838669]}}, {"type": "Feature", "properties": {"status": "OPEN", "address": "Mansfield / Ste-Catherine ", "lat": 45.5014018, "bikes": 0, "stands": 0, "lon": -73.5718136, "name": "Mansfield / Ste-Catherine "}, "geometry": {"type": "Point", "coordinates": [-73.5718136, 45.5014018]}}, {"type": "Feature", "properties": {"status": "OPEN", "address": "Prince-Arthur / Saint-Urbain", "lat": 45.512762, "bikes": 0, "stands": 19, "lon": -73.573489, "name": "Prince-Arthur / Saint-Urbain"}, "geometry": {"type": "Point", "coordinates": [-73.573489, 45.512762]}}, {"type": "Feature", "properties": {"status": "OPEN", "address": "M\u00e9tro Jean-Drapeau", "lat": 45.512097, "bikes": 0, "stands": 27, "lon": -73.53382, "name": "M\u00e9tro Jean-Drapeau"}, "geometry": {"type": "Point", "coordinates": [-73.53382, 45.512097]}}, {"type": "Feature", "properties": {"status": "OPEN", "address": "Quai de la navette fluviale", "lat": 45.511146, "bikes": 0, "stands": 19, "lon": -73.537658, "name": "Quai de la navette fluviale"}, "geometry": {"type": "Point", "coordinates": [-73.537658, 45.511146]}}, {"type": "Feature", "properties": {"status": "OPEN", "address": "M\u00e9tro Parc  (Ogilvy/Hutchison)", "lat": 45.530617, "bikes": 0, "stands": 17, "lon": -73.624052, "name": "M\u00e9tro Parc  (Ogilvy/Hutchison)"}, "geometry": {"type": "Point", "coordinates": [-73.624052, 45.530617]}}, {"type": "Feature", "properties": {"status": "OPEN", "address": "La Ronde", "lat": 45.521769, "bikes": 0, "stands": 14, "lon": -73.534859, "name": "La Ronde"}, "geometry": {"type": "Point", "coordinates": [-73.534859, 45.521769]}}, {"type": "Feature", "properties": {"status": "OPEN", "address": "Wilson/Sherbrooke", "lat": 45.4703, "bikes": 0, "stands": 15, "lon": -73.6162, "name": "Wilson/Sherbrooke"}, "geometry": {"type": "Point", "coordinates": [-73.6162, 45.4703]}},