{"features": [{"geometry": {"coordinates": [-73.553786, 45.508498], "type": "Point"}, "type": "Feature", "properties": {"status": "OPEN", "lon": -73.553786, "stands": 27, "address": "Notre Dame / Place Jacques Cartier", "name": "Notre Dame / Place Jacques Cartier", "bikes": 0, "lat": 45.508498}}, {"geometry": {"coordinates": [-73.541019, 45.539185], "type": "Point"}, "type": "Feature", "properties": {"status": "OPEN", "lon": -73.541019, "stands": 21, "address": "D\u00e9zery/Ste-Catherine", "name": "D\u00e9zery/Ste-Catherine", "bikes": 0, "lat": 45.539185}}, {"geometry": {"coordinates": [-73.567974, 45.511119], "type": "Point"}, "type": "Feature", "properties": {"status": "OPEN", "lon": -73.567974, "stands": 23, "address": "Evans/Clark", "name": "Evans/Clark", "bikes": 0, "lat": 45.511119}}, {"geometry": {"coordinates": [-73.553930819035, 45.512053603271], "type": "Point"}, "type": "Feature", "properties": {"status": "OPEN", "lon": -73.553930819035, "stands": 0, "address": "Berri / Saint-Antoine", "name": "Berri / Saint-Antoine", "bikes": 0, "lat": 45.512053603271}}, {"geometry": {"coordinates": [-73.5689, 45.508349], "type": "Point"}, "type": "Feature", "properties": {"status": "OPEN", "lon": -73.5689, "stands": 23, "address": "Pr\u00e9sident-kennedy/Jeanne Mance", "name": "Pr\u00e9sident-kennedy/Jeanne Mance", "bikes": 0, "lat": 45.508349}}, {"geometry": {"coordinates": [-73.577684, 45.556752], "type": "Point"}, "type": "Feature", "properties": {"status": "OPEN", "lon": -73.577684, "stands": 3, "address": "16e avenue/Rosemont", "name": "16e avenue/Rosemont", "bikes": 0, "lat": 45.556752}}, {"geometry": {"coordinates": [-73.562183976173, 45.511640093571], "type": "Point"}, "type": "Feature", "properties": {"status": "OPEN", "lon": -73.562183976173, "stands": 27, "address": "de l'H\u00f4tel-de-Ville / Sainte-Catherine", "name": "de l'H\u00f4tel-de-Ville / Sainte-Catherine", "bikes": 0, "lat": 45.511640093571}}, {"geometry": {"coordinates": [-73.561438, 45.512738], "type": "Point"}, "type": "Feature", "properties": {"status": "OPEN", "lon": -73.561438, "stands": 23, "address": "Sanguinet /Ste-Catherine", "name": "Sanguinet /Ste-Catherine", "bikes": 0, "lat": 45.512738}}, {"geometry": {"coordinates": [-73.559775352478, 45.514624813586], "type": "Point"}, "type": "Feature", "properties": {"status": "OPEN", "lon": -73.559775352478, "stands": 2, "address": "Berri / Sainte-Catherine", "name": "Berri / Sainte-Catherine", "bikes": 0, "lat": 45.514624813586}}, {"geometry": {"coordinates": [-73.560547828674, 45.513711370744], "type": "Point"}, "type": "Feature", "properties": {"status": "OPEN", "lon": -73.560547828674, "stands": 39, "address": "Sainte-Catherine / Saint-Denis", "name": "Sainte-Catherine / Saint-Denis", "bikes": 0, "lat": 45.513711370744}}, {"geometry": {"coordinates": [-73.552439, 45.514076], "type": "Point"}, "type": "Feature", "properties": {"status": "OPEN", "lon": -73.552439, "stands": 15, "address": "Saint-Andr\u00e9 / Saint-Antoine", "name": "Saint-Andr\u00e9 / Saint-Antoine", "bikes": 0, "lat": 45.514076}}, {"geometry": {"coordinates": [-73.56497, 45.51066], "type": "Point"}, "type": "Feature", "properties": {"status": "OPEN", "lon": -73.56497, "stands": 48, "address": "M\u00e9tro Saint-Laurent (Maisonneuve / St-Laurent)", "name": "M\u00e9tro Saint-Laurent (Maisonneuve / St-Laurent)", "bikes": 0, "lat": 45.51066}}, {"geometry": {"coordinates": [-73.56255, 45.51339], "type": "Point"}, "type": "Feature", "properties": {"status": "OPEN", "lon": -73.56255, "stands": 7, "address": "Sanguinet / de Maisonneuve", "name": "Sanguinet / de Maisonneuve", "bikes": 0, "lat": 45.51339}}, {"geometry": {"coordinates": [-73.562152, 45.514649], "type": "Point"}, "type": "Feature", "properties": {"status": "OPEN", "lon": -73.562152, "stands": 0, "address": "St-Denis / de Maisonneuve", "name": "St-Denis / de Maisonneuve", "bikes": 0, "lat": 45.514649}}, {"geometry": {"coordinates": [-73.561273, 45.515299], "type": "Point"}, "type": "Feature", "properties": {"status": "OPEN", "lon": -73.561273, "stands": 27, "address": "Berri / de Maisonneuve", "name": "Berri / de Maisonneuve", "bikes": 0, "lat": 45.515299}}, {"geometry": {"coordinates": [-73.539285, 45.472503], "type": "Point"}, "type": "Feature", "properties": {"status": "OPEN", "lon": -73.539285, "stands": 2, "address": "Jacques Le Ber/Ch Pointe Nord", "name": "Jacques Le Ber/Ch Pointe Nord", "bikes": 0, "lat": 45.472503}}, {"geometry": {"coordinates": [-73.5637571, 45.52106924], "type": "Point"}, "type": "Feature", "properties": {"status": "OPEN", "lon": -73.5637571, "stands": 14, "address": "Square Ahmerst/Wolfe", "name": "Square Ahmerst/Wolfe", "bikes": 0, "lat": 45.52106924}}, {"geometry": {"coordinates": [-73.56353, 45.51889], "type": "Point"}, "type": "Feature", "properties": {"status": "OPEN", "lon": -73.56353, "stands": 17, "address": "Saint-Andr\u00e9 / Ontario", "name": "Saint-Andr\u00e9 / Ontario", "bikes": 0, "lat": 45.51889}}, {"geometry": {"coordinates": [-73.567205, 45.517836], "type": "Point"}, "type": "Feature", "properties": {"status": "OPEN", "lon": -73.567205, "stands": 27, "address": "Berri / Sherbrooke", "name": "Berri / Sherbrooke", "bikes": 0, "lat": 45.517836}}, {"geometry": {"coordinates": [-73.565338, 45.514784], "type": "Point"}, "type": "Feature", "properties": {"status": "OPEN", "lon": -73.565338, "stands": 23, "address": "Sanguinet / Ontario", "name": "Sanguinet / Ontario", "bikes": 0, "lat": 45.514784}}, {"geometry": {"coordinates": [-73.562441, 45.521165], "type": "Point"}, "type": "Feature", "properties": {"status": "OPEN", "lon": -73.562441, "stands": 19, "address": "Montcalm/Ontario", "name": "Montcalm/Ontario", "bikes": 0, "lat": 45.521165}}, {"geometry": {"coordinates": [-73.54983, 45.51086], "type": "Point"}, "type": "Feature", "properties": {"status": "OPEN", "lon": -73.54983, "stands": 36, "address": "de la Commune / Berri", "name": "de la Commune / Berri", "bikes": 0, "lat": 45.51086}}, {"geometry": {"coordinates": [-73.562624, 45.531367], "type": "Point"}, "type": "Feature", "properties": {"status": "OPEN", "lon": -73.562624, "stands": 15, "address": "Des \u00c9rables/ Sherbrooke", "name": "Des \u00c9rables/ Sherbrooke", "bikes": 0, "lat": 45.531367}}, {"geometry": {"coordinates": [-73.555119037628, 45.507143919284], "type": "Point"}, "type": "Feature", "properties": {"status": "OPEN", "lon": -73.555119037628, "stands": 0, "address": "Notre-Dame / Saint-Gabriel", "name": "Notre-Dame / Saint-Gabriel", "bikes": 0, "lat": 45.507143919284}}, {"geometry": {"coordinates": [-73.552007675171, 45.507192792674], "type": "Point"}, "type": "Feature", "properties": {"status": "OPEN", "lon": -73.552007675171, "stands": 54, "address": "de la Commune / Place Jacques-Cartier", "name": "de la Commune / Place Jacques-Cartier", "bikes": 0, "lat": 45.507192792674}}, {"geometry": {"coordinates": [-73.584352, 45.482843], "type": "Point"}, "type": "Feature", "properties": {"status": "OPEN", "lon": -73.584352, "stands": 23, "address": "Belair/St-Antoine", "name": "Belair/St-Antoine", "bikes": 0, "lat": 45.482843}}, {"geometry": {"coordinates": [-73.5592, 45.50449], "type": "Point"}, "type": "Feature", "properties": {"status": "OPEN", "lon": -73.5592, "stands": 15, "address": "Saint-Antoine / Saint-Fran\u00e7ois-Xavier", "name": "Saint-Antoine / Saint-Fran\u00e7ois-Xavier", "bikes": 0, "lat": 45.50449}}, {"geometry": {"coordinates": [-73.55976, 45.50623], "type": "Point"}, "type": "Feature", "properties": {"status": "OPEN", "lon": -73.55976, "stands": 0, "address": "M\u00e9tro Place-d'Armes (Viger/St-Urbain)", "name": "M\u00e9tro Place-d'Armes (Viger/St-Urbain)", "bikes": 0, "lat": 45.50623}}, {"geometry": {"coordinates": [-73.582429, 45.559761], "type": "Point"}, "type": "Feature", "properties": {"status": "OPEN", "lon": -73.582429, "stands": 27, "address": "18e av/beaubien", "name": "18e av/beaubien", "bikes": 0, "lat": 45.559761}}, {"geometry": {"coordinates": [-73.563112, 45.5079], "type": "Point"}, "type": "Feature", "properties": {"status": "OPEN", "lon": -73.563112, "stands": 39, "address": "Saint-Urbain / Ren\u00e9-L\u00e9vesque", "name": "Saint-Urbain / Ren\u00e9-L\u00e9vesque", "bikes": 0, "lat": 45.5079}}, {"geometry": {"coordinates": [-73.5612, 45.504803], "type": "Point"}, "type": "Feature", "properties": {"status": "OPEN", "lon": -73.5612, "stands": 3, "address": "Viger/Jeanne Mance", "name": "Viger/Jeanne Mance", "bikes": 0, "lat": 45.504803}}, {"geometry": {"coordinates": [-73.553606271744, 45.504068569843], "type": "Point"}, "type": "Feature", "properties": {"status": "OPEN", "lon": -73.553606271744, "stands": 43, "address": "de la Commune / Saint-Sulpice", "name": "de la Commune / Saint-Sulpice", "bikes": 0, "lat": 45.504068569843}}, {"geometry": {"coordinates": [-73.555156588554, 45.501974378779], "type": "Point"}, "type": "Feature", "properties": {"status": "OPEN", "lon": -73.555156588554, "stands": 14, "address": "Saint-Nicolas / Place d'Youville", "name": "Saint-Nicolas / Place d'Youville", "bikes": 0, "lat": 45.501974378779}}, {"geometry": {"coordinates": [-73.55566, 45.49975], "type": "Point"}, "type": "Feature", "properties": {"status": "OPEN", "lon": -73.55566, "stands": 23, "address": "McGill / d'Youville", "name": "McGill / d'Youville", "bikes": 0, "lat": 45.49975}}, {"geometry": {"coordinates": [-73.558826, 45.500779], "type": "Point"}, "type": "Feature", "properties": {"status": "OPEN", "lon": -73.558826, "stands": 12, "address": "McGill / des R\u00e9collets", "name": "McGill / des R\u00e9collets", "bikes": 0, "lat": 45.500779}}, {"geometry": {"coordinates": [-73.55917, 45.5028], "type": "Point"}, "type": "Feature", "properties": {"status": "OPEN", "lon": -73.55917, "stands": 22, "address": "Saint-Jacques / Saint-Pierre", "name": "Saint-Jacques / Saint-Pierre", "bikes": 0, "lat": 45.5028}}, {"geometry": {"coordinates": [-73.561082, 45.500674], "type": "Point"}, "type": "Feature", "properties": {"status": "OPEN", "lon": -73.561082, "stands": 10, "address": "Saint-Jacques / Gauvin", "name": "Saint-Jacques / Gauvin", "bikes": 0, "lat": 45.500674}}, {"geometry": {"coordinates": [-73.565354, 45.500675], "type": "Point"}, "type": "Feature", "properties": {"status": "OPEN", "lon": -73.565354, "stands": 3, "address": "de la Gaucheti\u00e8re / University", "name": "de la Gaucheti\u00e8re / University", "bikes": 0, "lat": 45.500675}}, {"geometry": {"coordinates": [-73.56295, 45.50206], "type": "Point"}, "type": "Feature", "properties": {"status": "OPEN", "lon": -73.56295, "stands": 1, "address": "Square Victoria", "name": "Square Victoria", "bikes": 0, "lat": 45.50206}}, {"geometry": {"coordinates": [-73.570209, 45.52169], "type": "Point"}, "type": "Feature", "properties": {"status": "OPEN", "lon": -73.570209, "stands": 15, "address": "Rue St-Andr\u00e9 / Roy", "name": "Rue St-Andr\u00e9 / Roy", "bikes": 0, "lat": 45.52169}}, {"geometry": {"coordinates": [-73.56671, 45.49871], "type": "Point"}, "type": "Feature", "properties": {"status": "OPEN", "lon": -73.56671, "stands": 0, "address": "de la Gaucheti\u00e8re / Mansfield", "name": "de la Gaucheti\u00e8re / Mansfield", "bikes": 0, "lat": 45.49871}}, {"geometry": {"coordinates": [-73.574707, 45.508231], "type": "Point"}, "type": "Feature", "properties": {"status": "OPEN", "lon": -73.574707, "stands": 31, "address": "Milton / Durocher", "name": "Milton / Durocher", "bikes": 0, "lat": 45.508231}}, {"geometry": {"coordinates": [-73.55488, 45.4982], "type": "Point"}, "type": "Feature", "properties": {"status": "OPEN", "lon": -73.55488, "stands": 0, "address": "King / Wellington", "name": "King / Wellington", "bikes": 0, "lat": 45.4982}}, {"geometry": {"coordinates": [-73.55232, 45.49886], "type": "Point"}, "type": "Feature", "properties": {"status": "OPEN", "lon": -73.55232, "stands": 3, "address": "de la Commune / McGill", "name": "de la Commune / McGill", "bikes": 0, "lat": 45.49886}}, {"geometry": {"coordinates": [-73.601728, 45.529686], "type": "Point"}, "type": "Feature", "properties": {"status": "OPEN", "lon": -73.601728, "stands": 3, "address": "De Gasp\u00e9 / Marmier", "name": "De Gasp\u00e9 / Marmier", "bikes": 0, "lat": 45.529686}}, {"geometry": {"coordinates": [-73.552802, 45.497438], "type": "Point"}, "type": "Feature", "properties": {"status": "OPEN", "lon": -73.552802, "stands": 39, "address": "De la Commune / King", "name": "De la Commune / King", "bikes": 0, "lat": 45.497438}}, {"geometry": {"coordinates": [-73.565138, 45.502326], "type": "Point"}, "type": "Feature", "properties": {"status": "OPEN", "lon": -73.565138, "stands": 16, "address": "Belmont / Beaver Hall", "name": "Belmont / Beaver Hall", "bikes": 0, "lat": 45.502326}}, {"geometry": {"coordinates": [-73.568646, 45.497697], "type": "Point"}, "type": "Feature", "properties": {"status": "OPEN", "lon": -73.568646, "stands": 0, "address": "Peel / ave des Canadiens de Montr\u00e9al", "name": "Peel / ave des Canadiens de Montr\u00e9al", "bikes": 0, "lat": 45.497697}}, {"geometry": {"coordinates": [-73.571384, 45.497196], "type": "Point"}, "type": "Feature", "properties": {"status": "OPEN", "lon": -73.571384, "stands": 0, "address": "Drummond / Rene Levesque", "name": "Drummond / Rene Levesque", "bikes": 0, "lat": 45.497196}}, {"geometry": {"coordinates": [-73.572156429291, 45.500684739422], "type": "Point"}, "type": "Feature", "properties": {"status": "OPEN", "lon": -73.572156429291, "stands": 31, "address": "Metcalfe / Sainte-Catherine", "name": "Metcalfe / Sainte-Catherine", "bikes": 0, "lat": 45.500684739422}}, {"geometry": {"coordinates": [-73.56928, 45.50015], "type": "Point"}, "type": "Feature", "properties": {"status": "OPEN", "lon": -73.56928, "stands": 6, "address": "Mansfield / Ren\u00e9-L\u00e9vesque", "name": "Mansfield / Ren\u00e9-L\u00e9vesque", "bikes": 0, "lat": 45.50015}}, {"geometry": {"coordinates": [-73.57128, 45.50176], "type": "Point"}, "type": "Feature", "properties": {"status": "OPEN", "lon": -73.57128, "stands": 0, "address": "Sainte-Catherine / McGill College", "name": "Sainte-Catherine / McGill College", "bikes": 0, "lat": 45.50176}}, {"geometry": {"coordinates": [-73.57422709465, 45.498639303304], "type": "Point"}, "type": "Feature", "properties": {"status": "OPEN", "lon": -73.57422709465, "stands": 0, "address": "Drummond / Sainte-Catherine", "name": "Drummond / Sainte-Catherine", "bikes": 0, "lat": 45.498639303304}}, {"geometry": {"coordinates": [-73.57591, 45.49947], "type": "Point"}, "type": "Feature", "properties": {"status": "OPEN", "lon": -73.57591, "stands": 0, "address": "Drummond / de Maisonneuve", "name": "Drummond / de Maisonneuve", "bikes": 0, "lat": 45.49947}}, {"geometry": {"coordinates": [-73.57507, 45.50038], "type": "Point"}, "type": "Feature", "properties": {"status": "OPEN", "lon": -73.57507, "stands": 41, "address": "de Maisonneuve / Stanley", "name": "de Maisonneuve / Stanley", "bikes": 0, "lat": 45.50038}}, {"geometry": {"coordinates": [-73.57869, 45.499532], "type": "Point"}, "type": "Feature", "properties": {"status": "OPEN", "lon": -73.57869, "stands": 18, "address": "de la montagne / Sherbrooke", "name": "de la montagne / Sherbrooke", "bikes": 0, "lat": 45.499532}}, {"geometry": {"coordinates": [-73.572103, 45.503475], "type": "Point"}, "type": "Feature", "properties": {"status": "OPEN", "lon": -73.572103, "stands": 23, "address": "de Maisonneuve / University", "name": "de Maisonneuve / University", "bikes": 0, "lat": 45.503475}}, {"geometry": {"coordinates": [-73.57505, 45.50297], "type": "Point"}, "type": "Feature", "properties": {"status": "OPEN", "lon": -73.57505, "stands": 12, "address": "Mansfield / Sherbrooke", "name": "Mansfield / Sherbrooke", "bikes": 0, "lat": 45.50297}}, {"geometry": {"coordinates": [-73.57622, 45.50624], "type": "Point"}, "type": "Feature", "properties": {"status": "OPEN", "lon": -73.57622, "stands": 0, "address": "University / Milton", "name": "University / Milton", "bikes": 0, "lat": 45.50624}}, {"geometry": {"coordinates": [-73.57069, 45.50501], "type": "Point"}, "type": "Feature", "properties": {"status": "OPEN", "lon": -73.57069, "stands": 0, "address": "de Maisonneuve / Aylmer", "name": "de Maisonneuve / Aylmer", "bikes": 0, "lat": 45.50501}}, {"geometry": {"coordinates": [-73.530067, 45.556225], "type": "Point"}, "type": "Feature", "properties": {"status": "OPEN", "lon": -73.530067, "stands": 18, "address": "St-Cl\u00e9ment/Ste-Catherine", "name": "St-Cl\u00e9ment/Ste-Catherine", "bikes": 0, "lat": 45.556225}}, {"geometry": {"coordinates": [-73.56917, 45.50708], "type": "Point"}, "type": "Feature", "properties": {"status": "OPEN", "lon": -73.56917, "stands": 68, "address": "de Maisonneuve / de Bleury", "name": "de Maisonneuve / de Bleury", "bikes": 0, "lat": 45.50708}}, {"geometry": {"coordinates": [-73.57417345047, 45.494499323782], "type": "Point"}, "type": "Feature", "properties": {"status": "OPEN", "lon": -73.57417345047, "stands": 3, "address": "Mackay / Ren\u00e9-L\u00e9vesque", "name": "Mackay / Ren\u00e9-L\u00e9vesque", "bikes": 0, "lat": 45.494499323782}}, {"geometry": {"coordinates": [-73.5676195, 45.50537693], "type": "Point"}, "type": "Feature", "properties": {"status": "OPEN", "lon": -73.5676195, "stands": 33, "address": "  Saint-Alexandre / Sainte-Catherine", "name": "  Saint-Alexandre / Sainte-Catherine", "bikes": 0, "lat": 45.50537693}}, {"geometry": {"coordinates": [-73.582883, 45.550613], "type": "Point"}, "type": "Feature", "properties": {"status": "OPEN", "lon": -73.582883, "stands": 13, "address": "6e avenue/Rosemont", "name": "6e avenue/Rosemont", "bikes": 0, "lat": 45.550613}}, {"geometry": {"coordinates": [-73.5686929, 45.5041581], "type": "Point"}, "type": "Feature", "properties": {"status": "OPEN", "lon": -73.5686929, "stands": 31, "address": "Square Phillips", "name": "Square Phillips", "bikes": 0, "lat": 45.5041581}}, {"geometry": {"coordinates": [-73.582445, 45.489609], "type": "Point"}, "type": "Feature", "properties": {"status": "OPEN", "lon": -73.582445, "stands": 19, "address": "Lambert-Closse / Tupper", "name": "Lambert-Closse / Tupper", "bikes": 0, "lat": 45.489609}}, {"geometry": {"coordinates": [-73.56328, 45.4952], "type": "Point"}, "type": "Feature", "properties": {"status": "OPEN", "lon": -73.56328, "stands": 38, "address": "Notre-Dame / Peel", "name": "Notre-Dame / Peel", "bikes": 0, "lat": 45.4952}}, {"geometry": {"coordinates": [-73.57015, 45.49138], "type": "Point"}, "type": "Feature", "properties": {"status": "OPEN", "lon": -73.57015, "stands": 15, "address": "Saint-Jacques / Guy", "name": "Saint-Jacques / Guy", "bikes": 0, "lat": 45.49138}}, {"geometry": {"coordinates": [-73.57108, 45.49486], "type": "Point"}, "type": "Feature", "properties": {"status": "OPEN", "lon": -73.57108, "stands": 17, "address": "M\u00e9tro Lucien-L'Allier  (Lucien l'Allier/Argyle)", "name": "M\u00e9tro Lucien-L'Allier  (Lucien l'Allier/Argyle)", "bikes": 0, "lat": 45.49486}}, {"geometry": {"coordinates": [-73.576453, 45.492147], "type": "Point"}, "type": "Feature", "properties": {"status": "OPEN", "lon": -73.576453, "stands": 0, "address": "Joseph Manceau / Ren\u00e9-L\u00e9vesque", "name": "Joseph Manceau / Ren\u00e9-L\u00e9vesque", "bikes": 0, "lat": 45.492147}}, {"geometry": {"coordinates": [-73.57348, 45.49606], "type": "Point"}, "type": "Feature", "properties": {"status": "OPEN", "lon": -73.57348, "stands": 0, "address": "Crescent / Ren\u00e9-L\u00e9vesque", "name": "Crescent / Ren\u00e9-L\u00e9vesque", "bikes": 0, "lat": 45.49606}}, {"geometry": {"coordinates": [-73.603522, 45.535431], "type": "Point"}, "type": "Feature", "properties": {"status": "OPEN", "lon": -73.603522, "stands": 27, "address": "Chateaubriand / Beaubien", "name": "Chateaubriand / Beaubien", "bikes": 0, "lat": 45.535431}}, {"geometry": {"coordinates": [-73.585962, 45.489904], "type": "Point"}, "type": "Feature", "properties": {"status": "OPEN", "lon": -73.585962, "stands": 15, "address": "M\u00e9tro Atwater (Atwater / Maisonneuve)", "name": "M\u00e9tro Atwater (Atwater / Maisonneuve)", "bikes": 0, "lat": 45.489904}}, {"geometry": {"coordinates": [-73.5838, 45.49156], "type": "Point"}, "type": "Feature", "properties": {"status": "OPEN", "lon": -73.5838, "stands": 19, "address": "Chomedey / de Maisonneuve", "name": "Chomedey / de Maisonneuve", "bikes": 0, "lat": 45.49156}}, {"geometry": {"coordinates": [-73.5684255, 45.49352163], "type": "Point"}, "type": "Feature", "properties": {"status": "OPEN", "lon": -73.5684255, "stands": 16, "address": "Lucien L'Allier / St-Jacques", "name": "Lucien L'Allier / St-Jacques", "bikes": 0, "lat": 45.49352163}}, {"geometry": {"coordinates": [-73.581088, 45.492504], "type": "Point"}, "type": "Feature", "properties": {"status": "OPEN", "lon": -73.581088, "stands": 25, "address": "Towers/ Ste-Catherine", "name": "Towers/ Ste-Catherine", "bikes": 0, "lat": 45.492504}}, {"geometry": {"coordinates": [-73.57616, 45.49642], "type": "Point"}, "type": "Feature", "properties": {"status": "OPEN", "lon": -73.57616, "stands": 27, "address": "Bishop / Sainte-Catherine", "name": "Bishop / Sainte-Catherine", "bikes": 0, "lat": 45.49642}}, {"geometry": {"coordinates": [-73.57791245, 45.49742103], "type": "Point"}, "type": "Feature", "properties": {"status": "OPEN", "lon": -73.57791245, "stands": 0, "address": "Bishop / de Maisonneuve", "name": "Bishop / de Maisonneuve", "bikes": 0, "lat": 45.49742103}}, {"geometry": {"coordinates": [-73.57851, 45.49659], "type": "Point"}, "type": "Feature", "properties": {"status": "OPEN", "lon": -73.57851, "stands": 34, "address": "de Maisonneuve / Mackay", "name": "de Maisonneuve / Mackay", "bikes": 0, "lat": 45.49659}}, {"geometry": {"coordinates": [-73.61979, 45.479483], "type": "Point"}, "type": "Feature", "properties": {"status": "OPEN", "lon": -73.61979, "stands": 11, "address": "Metro Villa Maria (D\u00e9carie / Monkland)", "name": "Metro Villa Maria (D\u00e9carie / Monkland)", "bikes": 0, "lat": 45.479483}}, {"geometry": {"coordinates": [-73.583836, 45.493034], "type": "Point"}, "type": "Feature", "properties": {"status": "OPEN", "lon": -73.583836, "stands": 15, "address": "Lincoln / Dufort", "name": "Lincoln / Dufort", "bikes": 0, "lat": 45.493034}}, {"geometry": {"coordinates": [-73.552496, 45.538799], "type": "Point"}, "type": "Feature", "properties": {"status": "OPEN", "lon": -73.552496, "stands": 19, "address": "Lesp\u00e9rance/Rouen", "name": "Lesp\u00e9rance/Rouen", "bikes": 0, "lat": 45.538799}}, {"geometry": {"coordinates": [-73.554174900055, 45.516872646827], "type": "Point"}, "type": "Feature", "properties": {"status": "OPEN", "lon": -73.554174900055, "stands": 12, "address": "Wolfe / Ren\u00e9-L\u00e9vesque", "name": "Wolfe / Ren\u00e9-L\u00e9vesque", "bikes": 0, "lat": 45.516872646827}}, {"geometry": {"coordinates": [-73.552, 45.51954], "type": "Point"}, "type": "Feature", "properties": {"status": "OPEN", "lon": -73.552, "stands": 19, "address": "Plessis / Ren\u00e9-L\u00e9vesque", "name": "Plessis / Ren\u00e9-L\u00e9vesque", "bikes": 0, "lat": 45.51954}}, {"geometry": {"coordinates": [-73.54926, 45.52114], "type": "Point"}, "type": "Feature", "properties": {"status": "OPEN", "lon": -73.54926, "stands": 4, "address": "Ren\u00e9-L\u00e9vesque / Papineau", "name": "Ren\u00e9-L\u00e9vesque / Papineau", "bikes": 0, "lat": 45.52114}}, {"geometry": {"coordinates": [-73.579186, 45.493718], "type": "Point"}, "type": "Feature", "properties": {"status": "OPEN", "lon": -73.579186, "stands": 21, "address": "St-Mathieu /Ste-Catherine ", "name": "St-Mathieu /Ste-Catherine ", "bikes": 0, "lat": 45.493718}}, {"geometry": {"coordinates": [-73.55108499527, 45.528448693514], "type": "Point"}, "type": "Feature", "properties": {"status": "OPEN", "lon": -73.55108499527, "stands": 19, "address": "Logan / Fullum", "name": "Logan / Fullum", "bikes": 0, "lat": 45.528448693514}}, {"geometry": {"coordinates": [-73.52186, 45.498293], "type": "Point"}, "type": "Feature", "properties": {"status": "OPEN", "lon": -73.52186, "stands": 15, "address": "Plage du parc Jean-Drapeau", "name": "Plage du parc Jean-Drapeau", "bikes": 0, "lat": 45.498293}}, {"geometry": {"coordinates": [-73.54641, 45.529033], "type": "Point"}, "type": "Feature", "properties": {"status": "OPEN", "lon": -73.54641, "stands": 14, "address": "Poupart / Sainte-Catherine", "name": "Poupart / Sainte-Catherine", "bikes": 0, "lat": 45.529033}}, {"geometry": {"coordinates": [-73.54933, 45.52622], "type": "Point"}, "type": "Feature", "properties": {"status": "OPEN", "lon": -73.54933, "stands": 18, "address": "Parthenais / Sainte-Catherine", "name": "Parthenais / Sainte-Catherine", "bikes": 0, "lat": 45.52622}}, {"geometry": {"coordinates": [-73.55786, 45.519157], "type": "Point"}, "type": "Feature", "properties": {"status": "OPEN", "lon": -73.55786, "stands": 19, "address": "Montcalm/Maisonneuve", "name": "Montcalm/Maisonneuve", "bikes": 0, "lat": 45.519157}}, {"geometry": {"coordinates": [-73.55534, 45.5219], "type": "Point"}, "type": "Feature", "properties": {"status": "OPEN", "lon": -73.55534, "stands": 19, "address": "Alexandre-DeS\u00e8ve / Maisonneuve", "name": "Alexandre-DeS\u00e8ve / Maisonneuve", "bikes": 0, "lat": 45.5219}}, {"geometry": {"coordinates": [-73.55199, 45.52353], "type": "Point"}, "type": "Feature", "properties": {"status": "OPEN", "lon": -73.55199, "stands": 24, "address": "M\u00e9tro Papineau (Cartier / Ste-Catherine)", "name": "M\u00e9tro Papineau (Cartier / Ste-Catherine)", "bikes": 0, "lat": 45.52353}}, {"geometry": {"coordinates": [-73.631664, 45.466965], "type": "Point"}, "type": "Feature", "properties": {"status": "OPEN", "lon": -73.631664, "stands": 15, "address": "Benny/ Monkland", "name": "Benny/ Monkland", "bikes": 0, "lat": 45.466965}}, {"geometry": {"coordinates": [-73.560941, 45.523584], "type": "Point"}, "type": "Feature", "properties": {"status": "OPEN", "lon": -73.560941, "stands": 19, "address": "Plessis / Ontario", "name": "Plessis / Ontario", "bikes": 0, "lat": 45.523584}}, {"geometry": {"coordinates": [-73.55922, 45.52087], "type": "Point"}, "type": "Feature", "properties": {"status": "OPEN", "lon": -73.55922, "stands": 15, "address": "Robin / de la Visitation", "name": "Robin / de la Visitation", "bikes": 0, "lat": 45.52087}}, {"geometry": {"coordinates": [-73.560035526752, 45.5250475373], "type": "Point"}, "type": "Feature", "properties": {"status": "OPEN", "lon": -73.560035526752, "stands": 19, "address": "Champlain / Ontario", "name": "Champlain / Ontario", "bikes": 0, "lat": 45.5250475373}}, {"geometry": {"coordinates": [-73.558021, 45.52697], "type": "Point"}, "type": "Feature", "properties": {"status": "OPEN", "lon": -73.558021, "stands": 23, "address": "Dorion / Ontario", "name": "Dorion / Ontario", "bikes": 0, "lat": 45.52697}}, {"geometry": {"coordinates": [-73.5521968, 45.5336609], "type": "Point"}, "type": "Feature", "properties": {"status": "OPEN", "lon": -73.5521968, "stands": 0, "address": "Ontario/Du Havre", "name": "Ontario/Du Havre", "bikes": 0, "lat": 45.5336609}}, {"geometry": {"coordinates": [-73.5553577, 45.53480699], "type": "Point"}, "type": "Feature", "properties": {"status": "OPEN", "lon": -73.5553577, "stands": 23, "address": "Du havre/Rouen", "name": "Du havre/Rouen", "bikes": 0, "lat": 45.53480699}}, {"geometry": {"coordinates": [-73.54913, 45.53057], "type": "Point"}, "type": "Feature", "properties": {"status": "OPEN", "lon": -73.54913, "stands": 13, "address": "Logan / d'Iberville", "name": "Logan / d'Iberville", "bikes": 0, "lat": 45.53057}}, {"geometry": {"coordinates": [-73.558187, 45.523217], "type": "Point"}, "type": "Feature", "properties": {"status": "OPEN", "lon": -73.558187, "stands": 14, "address": "Alexandre de S\u00e8ve / La Fontaine", "name": "Alexandre de S\u00e8ve / La Fontaine", "bikes": 0, "lat": 45.523217}}, {"geometry": {"coordinates": [-73.553478, 45.531834], "type": "Point"}, "type": "Feature", "properties": {"status": "OPEN", "lon": -73.553478, "stands": 23, "address": "Poupart/Ontario", "name": "Poupart/Ontario", "bikes": 0, "lat": 45.531834}}, {"geometry": {"coordinates": [-73.629298, 45.499757], "type": "Point"}, "type": "Feature", "properties": {"status": "OPEN", "lon": -73.629298, "stands": 13, "address": "Ellendale/C\u00f4te-Des-Neiges", "name": "Ellendale/C\u00f4te-Des-Neiges", "bikes": 0, "lat": 45.499757}}, {"geometry": {"coordinates": [-73.55859, 45.53217], "type": "Point"}, "type": "Feature", "properties": {"status": "OPEN", "lon": -73.55859, "stands": 0, "address": "Rouen / Fullum", "name": "Rouen / Fullum", "bikes": 0, "lat": 45.53217}}, {"geometry": {"coordinates": [-73.618323, 45.537877], "type": "Point"}, "type": "Feature", "properties": {"status": "OPEN", "lon": -73.618323, "stands": 11, "address": "Henri Julien/Castelneau", "name": "Henri Julien/Castelneau", "bikes": 0, "lat": 45.537877}}, {"geometry": {"coordinates": [-73.5502642, 45.53643778], "type": "Point"}, "type": "Feature", "properties": {"status": "OPEN", "lon": -73.5502642, "stands": 0, "address": "Wurtele / Ontario", "name": "Wurtele / Ontario", "bikes": 0, "lat": 45.53643778}}, {"geometry": {"coordinates": [-73.56081, 45.5367], "type": "Point"}, "type": "Feature", "properties": {"status": "OPEN", "lon": -73.56081, "stands": 15, "address": "Sherbrooke / Frontenac", "name": "Sherbrooke / Frontenac", "bikes": 0, "lat": 45.5367}}, {"geometry": {"coordinates": [-73.562425, 45.533924], "type": "Point"}, "type": "Feature", "properties": {"status": "OPEN", "lon": -73.562425, "stands": 35, "address": "Fullum / Sherbrooke ", "name": "Fullum / Sherbrooke ", "bikes": 0, "lat": 45.533924}}, {"geometry": {"coordinates": [-73.566014, 45.535614], "type": "Point"}, "type": "Feature", "properties": {"status": "OPEN", "lon": -73.566014, "stands": 19, "address": "Terasse Mercure / Fulum", "name": "Terasse Mercure / Fulum", "bikes": 0, "lat": 45.535614}}, {"geometry": {"coordinates": [-73.563176393509, 45.530027060788], "type": "Point"}, "type": "Feature", "properties": {"status": "OPEN", "lon": -73.563176393509, "stands": 15, "address": "de Bordeaux / Sherbrooke", "name": "de Bordeaux / Sherbrooke", "bikes": 0, "lat": 45.530027060788}}, {"geometry": {"coordinates": [-73.570654, 45.510016], "type": "Point"}, "type": "Feature", "properties": {"status": "OPEN", "lon": -73.570654, "stands": 23, "address": "Sainte-Famille / Sherbrooke", "name": "Sainte-Famille / Sherbrooke", "bikes": 0, "lat": 45.510016}}, {"geometry": {"coordinates": [-73.57845, 45.50733], "type": "Point"}, "type": "Feature", "properties": {"status": "OPEN", "lon": -73.57845, "stands": 39, "address": "University / Prince-Arthur", "name": "University / Prince-Arthur", "bikes": 0, "lat": 45.50733}}, {"geometry": {"coordinates": [-73.576105, 45.509864], "type": "Point"}, "type": "Feature", "properties": {"status": "OPEN", "lon": -73.576105, "stands": 0, "address": "Hutchison/ Prince Arthur", "name": "Hutchison/ Prince Arthur", "bikes": 0, "lat": 45.509864}}, {"geometry": {"coordinates": [-73.565258, 45.541532], "type": "Point"}, "type": "Feature", "properties": {"status": "OPEN", "lon": -73.565258, "stands": 18, "address": "Molson / William - Tremblay", "name": "Molson / William - Tremblay", "bikes": 0, "lat": 45.541532}}, {"geometry": {"coordinates": [-73.587809801102, 45.491321748861], "type": "Point"}, "type": "Feature", "properties": {"status": "OPEN", "lon": -73.587809801102, "stands": 22, "address": "Atwater / Sherbrooke", "name": "Atwater / Sherbrooke", "bikes": 0, "lat": 45.491321748861}}, {"geometry": {"coordinates": [-73.605834, 45.533348], "type": "Point"}, "type": "Feature", "properties": {"status": "OPEN", "lon": -73.605834, "stands": 19, "address": "Drolet / Beaubien", "name": "Drolet / Beaubien", "bikes": 0, "lat": 45.533348}}, {"geometry": {"coordinates": [-73.607339, 45.53136864], "type": "Point"}, "type": "Feature", "properties": {"status": "OPEN", "lon": -73.607339, "stands": 19, "address": "Casgrain/ Beaubien", "name": "Casgrain/ Beaubien", "bikes": 0, "lat": 45.53136864}}, {"geometry": {"coordinates": [-73.571564, 45.544513], "type": "Point"}, "type": "Feature", "properties": {"status": "OPEN", "lon": -73.571564, "stands": 19, "address": "Parc du P\u00e9lican (2e ave/St-Joseph)", "name": "Parc du P\u00e9lican (2e ave/St-Joseph)", "bikes": 0, "lat": 45.544513}}, {"geometry": {"coordinates": [-73.57711, 45.550769], "type": "Point"}, "type": "Feature", "properties": {"status": "OPEN", "lon": -73.57711, "stands": 11, "address": "9e Avenue / Dandurand", "name": "9e Avenue / Dandurand", "bikes": 0, "lat": 45.550769}}, {"geometry": {"coordinates": [-73.60760986805, 45.547356123152], "type": "Point"}, "type": "Feature", "properties": {"status": "OPEN", "lon": -73.60760986805, "stands": 19, "address": "Marquette / Jean-Talon", "name": "Marquette / Jean-Talon", "bikes": 0, "lat": 45.547356123152}}, {"geometry": {"coordinates": [-73.603001832962, 45.552442609135], "type": "Point"}, "type": "Feature", "properties": {"status": "OPEN", "lon": -73.603001832962, "stands": 19, "address": "des \u00c9cores / Jean-Talon", "name": "des \u00c9cores / Jean-Talon", "bikes": 0, "lat": 45.552442609135}}, {"geometry": {"coordinates": [-73.571226, 45.504844], "type": "Point"}, "type": "Feature", "properties": {"status": "OPEN", "lon": -73.571226, "stands": 31, "address": "Union/Maisonneuve", "name": "Union/Maisonneuve", "bikes": 0, "lat": 45.504844}}, {"geometry": {"coordinates": [-73.580498, 45.508356], "type": "Point"}, "type": "Feature", "properties": {"status": "OPEN", "lon": -73.580498, "stands": 0, "address": "University / des Pins", "name": "University / des Pins", "bikes": 0, "lat": 45.508356}}, {"geometry": {"coordinates": [-73.562643, 45.537964], "type": "Point"}, "type": "Feature", "properties": {"status": "OPEN", "lon": -73.562643, "stands": 19, "address": "Gascon/Rachel", "name": "Gascon/Rachel", "bikes": 0, "lat": 45.537964}}, {"geometry": {"coordinates": [-73.559410572052, 45.529155206246], "type": "Point"}, "type": "Feature", "properties": {"status": "OPEN", "lon": -73.559410572052, "stands": 23, "address": "Larivi\u00e8re / de Lorimier", "name": "Larivi\u00e8re / de Lorimier", "bikes": 0, "lat": 45.529155206246}}, {"geometry": {"coordinates": [-73.5891147, 45.52761627], "type": "Point"}, "type": "Feature", "properties": {"status": "OPEN", "lon": -73.5891147, "stands": 15, "address": "M\u00e9tro Laurier (Rivard/Laurier)", "name": "M\u00e9tro Laurier (Rivard/Laurier)", "bikes": 0, "lat": 45.52761627}}, {"geometry": {"coordinates": [-73.56663, 45.530202], "type": "Point"}, "type": "Feature", "properties": {"status": "OPEN", "lon": -73.56663, "stands": 0, "address": "Gauthier / Papineau", "name": "Gauthier / Papineau", "bikes": 0, "lat": 45.530202}}, {"geometry": {"coordinates": [-73.565317, 45.531818], "type": "Point"}, "type": "Feature", "properties": {"status": "OPEN", "lon": -73.565317, "stands": 11, "address": "Gauthier / De Lorimier", "name": "Gauthier / De Lorimier", "bikes": 0, "lat": 45.531818}}, {"geometry": {"coordinates": [-73.56437, 45.53237], "type": "Point"}, "type": "Feature", "properties": {"status": "OPEN", "lon": -73.56437, "stands": 11, "address": "Gauthier / des \u00c9rables", "name": "Gauthier / des \u00c9rables", "bikes": 0, "lat": 45.53237}}, {"geometry": {"coordinates": [-73.570289611816, 45.529801582461], "type": "Point"}, "type": "Feature", "properties": {"status": "OPEN", "lon": -73.570289611816, "stands": 15, "address": "Marquette / Rachel", "name": "Marquette / Rachel", "bikes": 0, "lat": 45.529801582461}}, {"geometry": {"coordinates": [-73.56828, 45.53227], "type": "Point"}, "type": "Feature", "properties": {"status": "OPEN", "lon": -73.56828, "stands": 27, "address": "de Bordeaux / Rachel", "name": "de Bordeaux / Rachel", "bikes": 0, "lat": 45.53227}}, {"geometry": {"coordinates": [-73.572056, 45.527791], "type": "Point"}, "type": "Feature", "properties": {"status": "OPEN", "lon": -73.572056, "stands": 31, "address": "Calixa Laval\u00e9e / Rachel", "name": "Calixa Laval\u00e9e / Rachel", "bikes": 0, "lat": 45.527791}}, {"geometry": {"coordinates": [-73.57264, 45.52689], "type": "Point"}, "type": "Feature", "properties": {"status": "OPEN", "lon": -73.57264, "stands": 14, "address": "Rachel / Br\u00e9beuf", "name": "Rachel / Br\u00e9beuf", "bikes": 0, "lat": 45.52689}}, {"geometry": {"coordinates": [-73.57221, 45.52469], "type": "Point"}, "type": "Feature", "properties": {"status": "OPEN", "lon": -73.57221, "stands": 19, "address": "du Parc-La Fontaine / Duluth", "name": "du Parc-La Fontaine / Duluth", "bikes": 0, "lat": 45.52469}}, {"geometry": {"coordinates": [-73.568731, 45.523084], "type": "Point"}, "type": "Feature", "properties": {"status": "OPEN", "lon": -73.568731, "stands": 19, "address": "du Parc-La Fontaine / Roy", "name": "du Parc-La Fontaine / Roy", "bikes": 0, "lat": 45.523084}}, {"geometry": {"coordinates": [-73.56545, 45.52479], "type": "Point"}, "type": "Feature", "properties": {"status": "OPEN", "lon": -73.56545, "stands": 27, "address": "Calixa-Lavall\u00e9e / Sherbrooke", "name": "Calixa-Lavall\u00e9e / Sherbrooke", "bikes": 0, "lat": 45.52479}}, {"geometry": {"coordinates": [-73.56463, 45.52729], "type": "Point"}, "type": "Feature", "properties": {"status": "OPEN", "lon": -73.56463, "stands": 31, "address": "\u00c9mile-Duploy\u00e9 / Sherbrooke", "name": "\u00c9mile-Duploy\u00e9 / Sherbrooke", "bikes": 0, "lat": 45.52729}}, {"geometry": {"coordinates": [-73.56936, 45.53867], "type": "Point"}, "type": "Feature", "properties": {"status": "OPEN", "lon": -73.56936, "stands": 27, "address": "Chapleau / Mont-Royal", "name": "Chapleau / Mont-Royal", "bikes": 0, "lat": 45.53867}}, {"geometry": {"coordinates": [-73.5710031, 45.53711414], "type": "Point"}, "type": "Feature", "properties": {"status": "OPEN", "lon": -73.5710031, "stands": 17, "address": "Messier/Mont-Royal", "name": "Messier/Mont-Royal", "bikes": 0, "lat": 45.53711414}}, {"geometry": {"coordinates": [-73.57172, 45.53565], "type": "Point"}, "type": "Feature", "properties": {"status": "OPEN", "lon": -73.57172, "stands": 19, "address": "des \u00c9rables / Mont-Royal", "name": "des \u00c9rables / Mont-Royal", "bikes": 0, "lat": 45.53565}}, {"geometry": {"coordinates": [-73.57349216938, 45.534134366108], "type": "Point"}, "type": "Feature", "properties": {"status": "OPEN", "lon": -73.57349216938, "stands": 1, "address": "Chabot / Mont-Royal", "name": "Chabot / Mont-Royal", "bikes": 0, "lat": 45.534134366108}}, {"geometry": {"coordinates": [-73.571776, 45.532674], "type": "Point"}, "type": "Feature", "properties": {"status": "OPEN", "lon": -73.571776, "stands": 0, "address": "Cartier/Marie-Anne", "name": "Cartier/Marie-Anne", "bikes": 0, "lat": 45.532674}}, {"geometry": {"coordinates": [-73.57544, 45.53229], "type": "Point"}, "type": "Feature", "properties": {"status": "OPEN", "lon": -73.57544, "stands": 19, "address": "Marquette / Mont-Royal", "name": "Marquette / Mont-Royal", "bikes": 0, "lat": 45.53229}}, {"geometry": {"coordinates": [-73.57674, 45.53092], "type": "Point"}, "type": "Feature", "properties": {"status": "OPEN", "lon": -73.57674, "stands": 27, "address": "Garnier / Mont-Royal", "name": "Garnier / Mont-Royal", "bikes": 0, "lat": 45.53092}}, {"geometry": {"coordinates": [-73.576249480247, 45.527738413791], "type": "Point"}, "type": "Feature", "properties": {"status": "OPEN", "lon": -73.576249480247, "stands": 19, "address": "Marie-Anne / de la Roche", "name": "Marie-Anne / de la Roche", "bikes": 0, "lat": 45.527738413791}}, {"geometry": {"coordinates": [-73.57828, 45.52856], "type": "Point"}, "type": "Feature", "properties": {"status": "OPEN", "lon": -73.57828, "stands": 22, "address": "de la Roche / Mont-Royal", "name": "de la Roche / Mont-Royal", "bikes": 0, "lat": 45.52856}}, {"geometry": {"coordinates": [-73.58153, 45.53073], "type": "Point"}, "type": "Feature", "properties": {"status": "OPEN", "lon": -73.58153, "stands": 19, "address": "Gilford / Br\u00e9beuf", "name": "Gilford / Br\u00e9beuf", "bikes": 0, "lat": 45.53073}}, {"geometry": {"coordinates": [-73.58118, 45.53297], "type": "Point"}, "type": "Feature", "properties": {"status": "OPEN", "lon": -73.58118, "stands": 23, "address": "Garnier / Saint-Joseph", "name": "Garnier / Saint-Joseph", "bikes": 0, "lat": 45.53297}}, {"geometry": {"coordinates": [-73.57867, 45.53576], "type": "Point"}, "type": "Feature", "properties": {"status": "OPEN", "lon": -73.57867, "stands": 18, "address": "Cartier / Saint-Joseph", "name": "Cartier / Saint-Joseph", "bikes": 0, "lat": 45.53576}}, {"geometry": {"coordinates": [-73.575158, 45.54003], "type": "Point"}, "type": "Feature", "properties": {"status": "OPEN", "lon": -73.575158, "stands": 15, "address": "Fullum / Saint-Joseph", "name": "Fullum / Saint-Joseph", "bikes": 0, "lat": 45.54003}}, {"geometry": {"coordinates": [-73.5822, 45.53543], "type": "Point"}, "type": "Feature", "properties": {"status": "OPEN", "lon": -73.5822, "stands": 23, "address": "Marquette / Laurier", "name": "Marquette / Laurier", "bikes": 0, "lat": 45.53543}}, {"geometry": {"coordinates": [-73.583717, 45.533381], "type": "Point"}, "type": "Feature", "properties": {"status": "OPEN", "lon": -73.583717, "stands": 19, "address": "Lanaudi\u00e8re / Laurier", "name": "Lanaudi\u00e8re / Laurier", "bikes": 0, "lat": 45.533381}}, {"geometry": {"coordinates": [-73.58507, 45.53248], "type": "Point"}, "type": "Feature", "properties": {"status": "OPEN", "lon": -73.58507, "stands": 35, "address": "Br\u00e9beuf / Laurier", "name": "Br\u00e9beuf / Laurier", "bikes": 0, "lat": 45.53248}}, {"geometry": {"coordinates": [-73.58852, 45.5341], "type": "Point"}, "type": "Feature", "properties": {"status": "OPEN", "lon": -73.58852, "stands": 26, "address": "Br\u00e9beuf / Saint-Gr\u00e9goire", "name": "Br\u00e9beuf / Saint-Gr\u00e9goire", "bikes": 0, "lat": 45.5341}}, {"geometry": {"coordinates": [-73.58584, 45.53703], "type": "Point"}, "type": "Feature", "properties": {"status": "OPEN", "lon": -73.58584, "stands": 11, "address": "Marquette / Saint-Gr\u00e9goire", "name": "Marquette / Saint-Gr\u00e9goire", "bikes": 0, "lat": 45.53703}}, {"geometry": {"coordinates": [-73.5571602, 45.50938453], "type": "Point"}, "type": "Feature", "properties": {"status": "OPEN", "lon": -73.5571602, "stands": 23, "address": "Hotel de ville/Viger", "name": "Hotel de ville/Viger", "bikes": 0, "lat": 45.50938453}}, {"geometry": {"coordinates": [-73.587479, 45.529511], "type": "Point"}, "type": "Feature", "properties": {"status": "OPEN", "lon": -73.587479, "stands": 15, "address": "St-Andr\u00e9/Laurier", "name": "St-Andr\u00e9/Laurier", "bikes": 0, "lat": 45.529511}}, {"geometry": {"coordinates": [-73.58677, 45.530046], "type": "Point"}, "type": "Feature", "properties": {"status": "OPEN", "lon": -73.58677, "stands": 19, "address": "de Mentana / Laurier", "name": "de Mentana / Laurier", "bikes": 0, "lat": 45.530046}}, {"geometry": {"coordinates": [-73.560269, 45.5195], "type": "Point"}, "type": "Feature", "properties": {"status": "OPEN", "lon": -73.560269, "stands": 27, "address": "Wolfe/Robin", "name": "Wolfe/Robin", "bikes": 0, "lat": 45.5195}}, {"geometry": {"coordinates": [-73.5692414, 45.5191458], "type": "Point"}, "type": "Feature", "properties": {"status": "OPEN", "lon": -73.5692414, "stands": 35, "address": "Cherrier / Berri", "name": "Cherrier / Berri", "bikes": 0, "lat": 45.5191458}}, {"geometry": {"coordinates": [-73.5727, 45.51908], "type": "Point"}, "type": "Feature", "properties": {"status": "OPEN", "lon": -73.5727, "stands": 22, "address": "Roy / Saint-Denis", "name": "Roy / Saint-Denis", "bikes": 0, "lat": 45.51908}}, {"geometry": {"coordinates": [-73.567733, 45.520578], "type": "Point"}, "type": "Feature", "properties": {"status": "OPEN", "lon": -73.567733, "stands": 22, "address": "St-Andr\u00e9/Cherrier", "name": "St-Andr\u00e9/Cherrier", "bikes": 0, "lat": 45.520578}}, {"geometry": {"coordinates": [-73.573431, 45.523171], "type": "Point"}, "type": "Feature", "properties": {"status": "OPEN", "lon": -73.573431, "stands": 19, "address": "St-Andr\u00e9 / Duluth", "name": "St-Andr\u00e9 / Duluth", "bikes": 0, "lat": 45.523171}}, {"geometry": {"coordinates": [-73.575771, 45.524222], "type": "Point"}, "type": "Feature", "properties": {"status": "OPEN", "lon": -73.575771, "stands": 0, "address": "Saint-Andr\u00e9 / Rachel", "name": "Saint-Andr\u00e9 / Rachel", "bikes": 0, "lat": 45.524222}}, {"geometry": {"coordinates": [-73.5775906, 45.5222776], "type": "Point"}, "type": "Feature", "properties": {"status": "OPEN", "lon": -73.5775906, "stands": 18, "address": "Rivard /Rachel", "name": "Rivard /Rachel", "bikes": 0, "lat": 45.5222776}}, {"geometry": {"coordinates": [-73.575871, 45.520655], "type": "Point"}, "type": "Feature", "properties": {"status": "OPEN", "lon": -73.575871, "stands": 6, "address": "Duluth/St-Denis", "name": "Duluth/St-Denis", "bikes": 0, "lat": 45.520655}}, {"geometry": {"coordinates": [-73.561976, 45.50965], "type": "Point"}, "type": "Feature", "properties": {"status": "OPEN", "lon": -73.561976, "stands": 18, "address": "Place de la paix (St-Dominique/place du march\u00e9)", "name": "Place de la paix (St-Dominique/place du march\u00e9)", "bikes": 0, "lat": 45.50965}}, {"geometry": {"coordinates": [-73.582648, 45.516853], "type": "Point"}, "type": "Feature", "properties": {"status": "OPEN", "lon": -73.582648, "stands": 23, "address": "Clark/Rachel", "name": "Clark/Rachel", "bikes": 0, "lat": 45.516853}}, {"geometry": {"coordinates": [-73.5851, 45.5215], "type": "Point"}, "type": "Feature", "properties": {"status": "OPEN", "lon": -73.5851, "stands": 11, "address": "Bullion / Mont-Royal", "name": "Bullion / Mont-Royal", "bikes": 0, "lat": 45.5215}}, {"geometry": {"coordinates": [-73.584129810333, 45.522412909217], "type": "Point"}, "type": "Feature", "properties": {"status": "OPEN", "lon": -73.584129810333, "stands": 23, "address": "Laval / Mont-Royal", "name": "Laval / Mont-Royal", "bikes": 0, "lat": 45.522412909217}}, {"geometry": {"coordinates": [-73.58255, 45.524673], "type": "Point"}, "type": "Feature", "properties": {"status": "OPEN", "lon": -73.58255, "stands": 35, "address": "M\u00e9tro Mont-Royal (Rivard/Mont-Royal)", "name": "M\u00e9tro Mont-Royal (Rivard/Mont-Royal)", "bikes": 0, "lat": 45.524673}}, {"geometry": {"coordinates": [-73.601006, 45.549286], "type": "Point"}, "type": "Feature", "properties": {"status": "OPEN", "lon": -73.601006, "stands": 15, "address": "Des \u00e9rables/B\u00e9langer", "name": "Des \u00e9rables/B\u00e9langer", "bikes": 0, "lat": 45.549286}}, {"geometry": {"coordinates": [-73.58002, 45.52743], "type": "Point"}, "type": "Feature", "properties": {"status": "OPEN", "lon": -73.58002, "stands": 27, "address": "Boyer / Mont-Royal", "name": "Boyer / Mont-Royal", "bikes": 0, "lat": 45.52743}}, {"geometry": {"coordinates": [-73.580927, 45.526466], "type": "Point"}, "type": "Feature", "properties": {"status": "OPEN", "lon": -73.580927, "stands": 3, "address": "St-Andr\u00e9/ Mont-Royal", "name": "St-Andr\u00e9/ Mont-Royal", "bikes": 0, "lat": 45.526466}}, {"geometry": {"coordinates": [-73.577808, 45.525983], "type": "Point"}, "type": "Feature", "properties": {"status": "OPEN", "lon": -73.577808, "stands": 23, "address": "Mentana / Marie-Anne", "name": "Mentana / Marie-Anne", "bikes": 0, "lat": 45.525983}}, {"geometry": {"coordinates": [-73.609477, 45.550634], "type": "Point"}, "type": "Feature", "properties": {"status": "OPEN", "lon": -73.609477, "stands": 11, "address": "Chabot/Everett", "name": "Chabot/Everett", "bikes": 0, "lat": 45.550634}}, {"geometry": {"coordinates": [-73.585852, 45.527008], "type": "Point"}, "type": "Feature", "properties": {"status": "OPEN", "lon": -73.585852, "stands": 15, "address": "Pontiac/Gilford", "name": "Pontiac/Gilford", "bikes": 0, "lat": 45.527008}}, {"geometry": {"coordinates": [-73.612674, 45.531401], "type": "Point"}, "type": "Feature", "properties": {"status": "OPEN", "lon": -73.612674, "stands": 0, "address": "St-Zotique/Clark", "name": "St-Zotique/Clark", "bikes": 0, "lat": 45.531401}}, {"geometry": {"coordinates": [-73.591766, 45.529802], "type": "Point"}, "type": "Feature", "properties": {"status": "OPEN", "lon": -73.591766, "stands": 19, "address": "Berri/St-Gr\u00e9goire", "name": "Berri/St-Gr\u00e9goire", "bikes": 0, "lat": 45.529802}}, {"geometry": {"coordinates": [-73.596758, 45.521495], "type": "Point"}, "type": "Feature", "properties": {"status": "OPEN", "lon": -73.596758, "stands": 19, "address": "Esplanade/Fairmount", "name": "Esplanade/Fairmount", "bikes": 0, "lat": 45.521495}}, {"geometry": {"coordinates": [-73.593016, 45.525669], "type": "Point"}, "type": "Feature", "properties": {"status": "OPEN", "lon": -73.593016, "stands": 19, "address": "Gasp\u00e9 / Fairmount ", "name": "Gasp\u00e9 / Fairmount ", "bikes": 0, "lat": 45.525669}}, {"geometry": {"coordinates": [-73.58978, 45.52377], "type": "Point"}, "type": "Feature", "properties": {"status": "OPEN", "lon": -73.58978, "stands": 19, "address": "de Bullion / Boul. Saint-Joseph", "name": "de Bullion / Boul. Saint-Joseph", "bikes": 0, "lat": 45.52377}}, {"geometry": {"coordinates": [-73.58918, 45.52157], "type": "Point"}, "type": "Feature", "properties": {"status": "OPEN", "lon": -73.58918, "stands": 19, "address": "Villeneuve/St-Laurent", "name": "Villeneuve/St-Laurent", "bikes": 0, "lat": 45.52157}}, {"geometry": {"coordinates": [-73.583502, 45.537985], "type": "Point"}, "type": "Feature", "properties": {"status": "OPEN", "lon": -73.583502, "stands": 19, "address": "Cartier/Masson", "name": "Cartier/Masson", "bikes": 0, "lat": 45.537985}}, {"geometry": {"coordinates": [-73.59527, 45.52974], "type": "Point"}, "type": "Feature", "properties": {"status": "OPEN", "lon": -73.59527, "stands": 4, "address": "H\u00e9l\u00e8ne-Baillargeon / Saint-Denis", "name": "H\u00e9l\u00e8ne-Baillargeon / Saint-Denis", "bikes": 0, "lat": 45.52974}}, {"geometry": {"coordinates": [-73.599375486374, 45.525171560973], "type": "Point"}, "type": "Feature", "properties": {"status": "OPEN", "lon": -73.599375486374, "stands": 19, "address": "Clark / Saint-Viateur", "name": "Clark / Saint-Viateur", "bikes": 0, "lat": 45.525171560973}}, {"geometry": {"coordinates": [-73.59588, 45.52457], "type": "Point"}, "type": "Feature", "properties": {"status": "OPEN", "lon": -73.59588, "stands": 7, "address": "Maguire / Saint-Laurent", "name": "Maguire / Saint-Laurent", "bikes": 0, "lat": 45.52457}}, {"geometry": {"coordinates": [-73.587509393692, 45.52352540631], "type": "Point"}, "type": "Feature", "properties": {"status": "OPEN", "lon": -73.587509393692, "stands": 23, "address": "Villeneuve / de l'H\u00f4tel-de-Ville", "name": "Villeneuve / de l'H\u00f4tel-de-Ville", "bikes": 0, "lat": 45.52352540631}}, {"geometry": {"coordinates": [-73.57208, 45.50781], "type": "Point"}, "type": "Feature", "properties": {"status": "OPEN", "lon": -73.57208, "stands": 3, "address": "Hutchison / Sherbrooke", "name": "Hutchison / Sherbrooke", "bikes": 0, "lat": 45.50781}}, {"geometry": {"coordinates": [-73.57354, 45.50971], "type": "Point"}, "type": "Feature", "properties": {"status": "OPEN", "lon": -73.57354, "stands": 31, "address": "Milton / du Parc", "name": "Milton / du Parc", "bikes": 0, "lat": 45.50971}}, {"geometry": {"coordinates": [-73.57547, 45.51059], "type": "Point"}, "type": "Feature", "properties": {"status": "OPEN", "lon": -73.57547, "stands": 0, "address": "Prince-Arthur / du Parc", "name": "Prince-Arthur / du Parc", "bikes": 0, "lat": 45.51059}}, {"geometry": {"coordinates": [-73.577016592026, 45.512812949535], "type": "Point"}, "type": "Feature", "properties": {"status": "OPEN", "lon": -73.577016592026, "stands": 15, "address": "Sainte-Famille / des Pins", "name": "Sainte-Famille / des Pins", "bikes": 0, "lat": 45.512812949535}}, {"geometry": {"coordinates": [-73.57805, 45.51069], "type": "Point"}, "type": "Feature", "properties": {"status": "OPEN", "lon": -73.57805, "stands": 19, "address": "Hutchison / des Pins", "name": "Hutchison / des Pins", "bikes": 0, "lat": 45.51069}}, {"geometry": {"coordinates": [-73.57062, 45.51252], "type": "Point"}, "type": "Feature", "properties": {"status": "OPEN", "lon": -73.57062, "stands": 23, "address": "Milton / Clark", "name": "Milton / Clark", "bikes": 0, "lat": 45.51252}}, {"geometry": {"coordinates": [-73.656, 45.5509], "type": "Point"}, "type": "Feature", "properties": {"status": "OPEN", "lon": -73.656, "stands": 15, "address": "Metro  Sauv\u00e9 (Sauv\u00e9/Berri)", "name": "Metro  Sauv\u00e9 (Sauv\u00e9/Berri)", "bikes": 0, "lat": 45.5509}}, {"geometry": {"coordinates": [-73.57569, 45.51561], "type": "Point"}, "type": "Feature", "properties": {"status": "OPEN", "lon": -73.57569, "stands": 23, "address": "Roy / Saint-Laurent", "name": "Roy / Saint-Laurent", "bikes": 0, "lat": 45.51561}}, {"geometry": {"coordinates": [-73.581394, 45.515201], "type": "Point"}, "type": "Feature", "properties": {"status": "OPEN", "lon": -73.581394, "stands": 14, "address": "Duluth/Esplanade", "name": "Duluth/Esplanade", "bikes": 0, "lat": 45.515201}}, {"geometry": {"coordinates": [-73.57921, 45.5171], "type": "Point"}, "type": "Feature", "properties": {"status": "OPEN", "lon": -73.57921, "stands": 15, "address": "Duluth / Saint-Laurent", "name": "Duluth / Saint-Laurent", "bikes": 0, "lat": 45.5171}}, {"geometry": {"coordinates": [-73.56906, 45.51735], "type": "Point"}, "type": "Feature", "properties": {"status": "OPEN", "lon": -73.56906, "stands": 9, "address": "Square Saint-Louis", "name": "Square Saint-Louis", "bikes": 0, "lat": 45.51735}}, {"geometry": {"coordinates": [-73.57821, 45.51494], "type": "Point"}, "type": "Feature", "properties": {"status": "OPEN", "lon": -73.57821, "stands": 19, "address": "Saint-Cuthbert / Saint-Urbain", "name": "Saint-Cuthbert / Saint-Urbain", "bikes": 0, "lat": 45.51494}}, {"geometry": {"coordinates": [-73.58503, 45.51496], "type": "Point"}, "type": "Feature", "properties": {"status": "OPEN", "lon": -73.58503, "stands": 34, "address": "Parc du Mont-Royal", "name": "Parc du Mont-Royal", "bikes": 0, "lat": 45.51496}}, {"geometry": {"coordinates": [-73.583618, 45.519523], "type": "Point"}, "type": "Feature", "properties": {"status": "OPEN", "lon": -73.583618, "stands": 23, "address": "Marie-Anne/St-Dominique", "name": "Marie-Anne/St-Dominique", "bikes": 0, "lat": 45.519523}}, {"geometry": {"coordinates": [-73.574361, 45.51725], "type": "Point"}, "type": "Feature", "properties": {"status": "OPEN", "lon": -73.574361, "stands": 0, "address": "H\u00f4tel de Ville/Roy ", "name": "H\u00f4tel de Ville/Roy ", "bikes": 0, "lat": 45.51725}}, {"geometry": {"coordinates": [-73.577215075493, 45.519236909648], "type": "Point"}, "type": "Feature", "properties": {"status": "OPEN", "lon": -73.577215075493, "stands": 15, "address": "Laval / Duluth", "name": "Laval / Duluth", "bikes": 0, "lat": 45.519236909648}}, {"geometry": {"coordinates": [-73.58685, 45.51941], "type": "Point"}, "type": "Feature", "properties": {"status": "OPEN", "lon": -73.58685, "stands": 23, "address": "Mont-Royal / Clark", "name": "Mont-Royal / Clark", "bikes": 0, "lat": 45.51941}}, {"geometry": {"coordinates": [-73.5889283, 45.5176432], "type": "Point"}, "type": "Feature", "properties": {"status": "OPEN", "lon": -73.5889283, "stands": 11, "address": "Jeanne Mance / Mont-Royal", "name": "Jeanne Mance / Mont-Royal", "bikes": 0, "lat": 45.5176432}}, {"geometry": {"coordinates": [-73.589, 45.517], "type": "Point"}, "type": "Feature", "properties": {"status": "OPEN", "lon": -73.589, "stands": 33, "address": "Mont-Royal / du Parc", "name": "Mont-Royal / du Parc", "bikes": 0, "lat": 45.517}}, {"geometry": {"coordinates": [-73.59235, 45.51829], "type": "Point"}, "type": "Feature", "properties": {"status": "OPEN", "lon": -73.59235, "stands": 15, "address": "Villeneuve/ Parc", "name": "Villeneuve/ Parc", "bikes": 0, "lat": 45.51829}}, {"geometry": {"coordinates": [-73.590559, 45.520188], "type": "Point"}, "type": "Feature", "properties": {"status": "OPEN", "lon": -73.590559, "stands": 11, "address": "Villeneuve / St-Urbain", "name": "Villeneuve / St-Urbain", "bikes": 0, "lat": 45.520188}}, {"geometry": {"coordinates": [-73.561562, 45.575707], "type": "Point"}, "type": "Feature", "properties": {"status": "OPEN", "lon": -73.561562, "stands": 19, "address": "Hopital Maisonneuve Rosemont (Rosemont/Chatelain)", "name": "Hopital Maisonneuve Rosemont (Rosemont/Chatelain)", "bikes": 0, "lat": 45.575707}}, {"geometry": {"coordinates": [-73.594499, 45.520906], "type": "Point"}, "type": "Feature", "properties": {"status": "OPEN", "lon": -73.594499, "stands": 23, "address": "Esplanade/Laurier", "name": "Esplanade/Laurier", "bikes": 0, "lat": 45.520906}}, {"geometry": {"coordinates": [-73.585514, 45.52102], "type": "Point"}, "type": "Feature", "properties": {"status": "OPEN", "lon": -73.585514, "stands": 15, "address": "Coloniale/ Mont-Royal", "name": "Coloniale/ Mont-Royal", "bikes": 0, "lat": 45.52102}}, {"geometry": {"coordinates": [-73.60042154789, 45.524025271152], "type": "Point"}, "type": "Feature", "properties": {"status": "OPEN", "lon": -73.60042154789, "stands": 15, "address": "Waverly / Saint-Viateur", "name": "Waverly / Saint-Viateur", "bikes": 0, "lat": 45.524025271152}}, {"geometry": {"coordinates": [-73.6019, 45.52246], "type": "Point"}, "type": "Feature", "properties": {"status": "OPEN", "lon": -73.6019, "stands": 23, "address": "Saint-Viateur / du Parc", "name": "Saint-Viateur / du Parc", "bikes": 0, "lat": 45.52246}}, {"geometry": {"coordinates": [-73.60261, 45.52697], "type": "Point"}, "type": "Feature", "properties": {"status": "OPEN", "lon": -73.60261, "stands": 23, "address": "Bernard / Clark", "name": "Bernard / Clark", "bikes": 0, "lat": 45.52697}}, {"geometry": {"coordinates": [-73.598232865334, 45.52654331973], "type": "Point"}, "type": "Feature", "properties": {"status": "OPEN", "lon": -73.598232865334, "stands": 19, "address": "Saint-Dominique / Saint-Viateur", "name": "Saint-Dominique / Saint-Viateur", "bikes": 0, "lat": 45.52654331973}}, {"geometry": {"coordinates": [-73.579291, 45.537456], "type": "Point"}, "type": "Feature", "properties": {"status": "OPEN", "lon": -73.579291, "stands": 31, "address": " Bordeaux/Laurier", "name": " Bordeaux/Laurier", "bikes": 0, "lat": 45.537456}}, {"geometry": {"coordinates": [-73.580541, 45.532013], "type": "Point"}, "type": "Feature", "properties": {"status": "OPEN", "lon": -73.580541, "stands": 14, "address": "Gilford/Lanaudi\u00e8re", "name": "Gilford/Lanaudi\u00e8re", "bikes": 0, "lat": 45.532013}}, {"geometry": {"coordinates": [-73.577784, 45.516777], "type": "Point"}, "type": "Feature", "properties": {"status": "OPEN", "lon": -73.577784, "stands": 23, "address": "Napoleon/St-Dominique", "name": "Napoleon/St-Dominique", "bikes": 0, "lat": 45.516777}}, {"geometry": {"coordinates": [-73.6055123806, 45.549704078239], "type": "Point"}, "type": "Feature", "properties": {"status": "OPEN", "lon": -73.6055123806, "stands": 15, "address": "de Bordeaux / Jean-Talon", "name": "de Bordeaux / Jean-Talon", "bikes": 0, "lat": 45.549704078239}}, {"geometry": {"coordinates": [-73.629593, 45.505973], "type": "Point"}, "type": "Feature", "properties": {"status": "OPEN", "lon": -73.629593, "stands": 23, "address": "Hudson/Kent", "name": "Hudson/Kent", "bikes": 0, "lat": 45.505973}}, {"geometry": {"coordinates": [-73.597724, 45.517345], "type": "Point"}, "type": "Feature", "properties": {"status": "OPEN", "lon": -73.597724, "stands": 15, "address": "Querbes / Laurier", "name": "Querbes / Laurier", "bikes": 0, "lat": 45.517345}}, {"geometry": {"coordinates": [-73.606786, 45.519861], "type": "Point"}, "type": "Feature", "properties": {"status": "OPEN", "lon": -73.606786, "stands": 19, "address": "Bloomfield / Bernard", "name": "Bloomfield / Bernard", "bikes": 0, "lat": 45.519861}}, {"geometry": {"coordinates": [-73.61265779, 45.5225858], "type": "Point"}, "type": "Feature", "properties": {"status": "OPEN", "lon": -73.61265779, "stands": 14, "address": "Bloomfield / Van Horne", "name": "Bloomfield / Van Horne", "bikes": 0, "lat": 45.5225858}}, {"geometry": {"coordinates": [-73.614887, 45.520265], "type": "Point"}, "type": "Feature", "properties": {"status": "OPEN", "lon": -73.614887, "stands": 20, "address": "M\u00e9tro Outremont (Wiseman / Van Horne)", "name": "M\u00e9tro Outremont (Wiseman / Van Horne)", "bikes": 0, "lat": 45.520265}}, {"geometry": {"coordinates": [-73.61108, 45.53304], "type": "Point"}, "type": "Feature", "properties": {"status": "OPEN", "lon": -73.61108, "stands": 15, "address": "Casgrain / Saint-Zotique", "name": "Casgrain / Saint-Zotique", "bikes": 0, "lat": 45.53304}}, {"geometry": {"coordinates": [-73.581566, 45.518593], "type": "Point"}, "type": "Feature", "properties": {"status": "OPEN", "lon": -73.581566, "stands": 23, "address": "St-Dominique/Rachel", "name": "St-Dominique/Rachel", "bikes": 0, "lat": 45.518593}}, {"geometry": {"coordinates": [-73.61199, 45.53696], "type": "Point"}, "type": "Feature", "properties": {"status": "OPEN", "lon": -73.61199, "stands": 15, "address": "B\u00e9langer / Saint-Denis", "name": "B\u00e9langer / Saint-Denis", "bikes": 0, "lat": 45.53696}}, {"geometry": {"coordinates": [-73.61529, 45.53707], "type": "Point"}, "type": "Feature", "properties": {"status": "OPEN", "lon": -73.61529, "stands": 23, "address": "Henri-Julien / Jean-Talon", "name": "Henri-Julien / Jean-Talon", "bikes": 0, "lat": 45.53707}}, {"geometry": {"coordinates": [-73.612278, 45.534377], "type": "Point"}, "type": "Feature", "properties": {"status": "OPEN", "lon": -73.612278, "stands": 19, "address": "Gasp\u00e9/Dante", "name": "Gasp\u00e9/Dante", "bikes": 0, "lat": 45.534377}}, {"geometry": {"coordinates": [-73.61544, 45.53318], "type": "Point"}, "type": "Feature", "properties": {"status": "OPEN", "lon": -73.61544, "stands": 2, "address": "Mozart / Saint-Laurent", "name": "Mozart / Saint-Laurent", "bikes": 0, "lat": 45.53318}}, {"geometry": {"coordinates": [-73.614256381989, 45.539736803045], "type": "Point"}, "type": "Feature", "properties": {"status": "OPEN", "lon": -73.614256381989, "stands": 15, "address": "Lajeunesse / Jean-Talon", "name": "Lajeunesse / Jean-Talon", "bikes": 0, "lat": 45.539736803045}}, {"geometry": {"coordinates": [-73.60897, 45.54006], "type": "Point"}, "type": "Feature", "properties": {"status": "OPEN", "lon": -73.60897, "stands": 19, "address": "Boyer / B\u00e9langer", "name": "Boyer / B\u00e9langer", "bikes": 0, "lat": 45.54006}}, {"geometry": {"coordinates": [-73.60556, 45.53848], "type": "Point"}, "type": "Feature", "properties": {"status": "OPEN", "lon": -73.60556, "stands": 19, "address": "Boyer / Saint-Zotique", "name": "Boyer / Saint-Zotique", "bikes": 0, "lat": 45.53848}}, {"geometry": {"coordinates": [-73.607773, 45.536299], "type": "Point"}, "type": "Feature", "properties": {"status": "OPEN", "lon": -73.607773, "stands": 15, "address": "Saint-Vallier / Saint-Zotique", "name": "Saint-Vallier / Saint-Zotique", "bikes": 0, "lat": 45.536299}}, {"geometry": {"coordinates": [-73.593126, 45.537035], "type": "Point"}, "type": "Feature", "properties": {"status": "OPEN", "lon": -73.593126, "stands": 31, "address": "Parc P\u00e8re-Marquette (Chambord / Rosemont)", "name": "Parc P\u00e8re-Marquette (Chambord / Rosemont)", "bikes": 0, "lat": 45.537035}}, {"geometry": {"coordinates": [-73.584157, 45.540881], "type": "Point"}, "type": "Feature", "properties": {"status": "OPEN", "lon": -73.584157, "stands": 14, "address": "Dandurand/De Lorimier", "name": "Dandurand/De Lorimier", "bikes": 0, "lat": 45.540881}}, {"geometry": {"coordinates": [-73.586302, 45.538589], "type": "Point"}, "type": "Feature", "properties": {"status": "OPEN", "lon": -73.586302, "stands": 19, "address": "Dandurand/Papineau", "name": "Dandurand/Papineau", "bikes": 0, "lat": 45.538589}}, {"geometry": {"coordinates": [-73.588069, 45.54458], "type": "Point"}, "type": "Feature", "properties": {"status": "OPEN", "lon": -73.588069, "stands": 19, "address": "Louis H\u00e9mon / Rosemont", "name": "Louis H\u00e9mon / Rosemont", "bikes": 0, "lat": 45.54458}}, {"geometry": {"coordinates": [-73.597884, 45.537202], "type": "Point"}, "type": "Feature", "properties": {"status": "OPEN", "lon": -73.597884, "stands": 1, "address": "de la Roche /  Bellechasse ", "name": "de la Roche /  Bellechasse ", "bikes": 0, "lat": 45.537202}}, {"geometry": {"coordinates": [-73.6266, 45.4714], "type": "Point"}, "type": "Feature", "properties": {"status": "OPEN", "lon": -73.6266, "stands": 15, "address": "Hampton/Monkland", "name": "Hampton/Monkland", "bikes": 0, "lat": 45.4714}}, {"geometry": {"coordinates": [-73.59212, 45.5427], "type": "Point"}, "type": "Feature", "properties": {"status": "OPEN", "lon": -73.59212, "stands": 15, "address": "Chabot / Bellechasse", "name": "Chabot / Bellechasse", "bikes": 0, "lat": 45.5427}}, {"geometry": {"coordinates": [-73.577338, 45.539259], "type": "Point"}, "type": "Feature", "properties": {"status": "OPEN", "lon": -73.577338, "stands": 19, "address": "Parthenais / Laurier", "name": "Parthenais / Laurier", "bikes": 0, "lat": 45.539259}}, {"geometry": {"coordinates": [-73.59268, 45.54857], "type": "Point"}, "type": "Feature", "properties": {"status": "OPEN", "lon": -73.59268, "stands": 19, "address": "Louis-H\u00e9bert / Beaubien", "name": "Louis-H\u00e9bert / Beaubien", "bikes": 0, "lat": 45.54857}}, {"geometry": {"coordinates": [-73.5949, 45.54475], "type": "Point"}, "type": "Feature", "properties": {"status": "OPEN", "lon": -73.5949, "stands": 2, "address": "de Bordeaux / Beaubien", "name": "de Bordeaux / Beaubien", "bikes": 0, "lat": 45.54475}}, {"geometry": {"coordinates": [-73.599716, 45.539964], "type": "Point"}, "type": "Feature", "properties": {"status": "OPEN", "lon": -73.599716, "stands": 19, "address": "Chambord / Beaubien", "name": "Chambord / Beaubien", "bikes": 0, "lat": 45.539964}}, {"geometry": {"coordinates": [-73.60384, 45.54083], "type": "Point"}, "type": "Feature", "properties": {"status": "OPEN", "lon": -73.60384, "stands": 7, "address": "de Normanville / Saint-Zotique", "name": "de Normanville / Saint-Zotique", "bikes": 0, "lat": 45.54083}}, {"geometry": {"coordinates": [-73.600982, 45.543541], "type": "Point"}, "type": "Feature", "properties": {"status": "OPEN", "lon": -73.600982, "stands": 19, "address": "Fabre / Saint-Zotique", "name": "Fabre / Saint-Zotique", "bikes": 0, "lat": 45.543541}}, {"geometry": {"coordinates": [-73.604214, 45.529993], "type": "Point"}, "type": "Feature", "properties": {"status": "OPEN", "lon": -73.604214, "stands": 23, "address": "Casgrain / de Bellechasse", "name": "Casgrain / de Bellechasse", "bikes": 0, "lat": 45.529993}}, {"geometry": {"coordinates": [-73.598442, 45.546526], "type": "Point"}, "type": "Feature", "properties": {"status": "OPEN", "lon": -73.598442, "stands": 15, "address": "Bordeaux / Saint-Zotique", "name": "Bordeaux / Saint-Zotique", "bikes": 0, "lat": 45.546526}}, {"geometry": {"coordinates": [-73.602616, 45.546939], "type": "Point"}, "type": "Feature", "properties": {"status": "OPEN", "lon": -73.602616, "stands": 19, "address": "Cartier / B\u00e9langer", "name": "Cartier / B\u00e9langer", "bikes": 0, "lat": 45.546939}}, {"geometry": {"coordinates": [-73.583695, 45.531164], "type": "Point"}, "type": "Feature", "properties": {"status": "OPEN", "lon": -73.583695, "stands": 19, "address": "De la Roche/St-Joseph", "name": "De la Roche/St-Joseph", "bikes": 0, "lat": 45.531164}}, {"geometry": {"coordinates": [-73.610458, 45.544828], "type": "Point"}, "type": "Feature", "properties": {"status": "OPEN", "lon": -73.610458, "stands": 2, "address": "Chambord / Jean-Talon", "name": "Chambord / Jean-Talon", "bikes": 0, "lat": 45.544828}}, {"geometry": {"coordinates": [-73.606585, 45.543077], "type": "Point"}, "type": "Feature", "properties": {"status": "OPEN", "lon": -73.606585, "stands": 15, "address": "Chambord / B\u00e9langer", "name": "Chambord / B\u00e9langer", "bikes": 0, "lat": 45.543077}}, {"geometry": {"coordinates": [-73.59576, 45.55001], "type": "Point"}, "type": "Feature", "properties": {"status": "OPEN", "lon": -73.59576, "stands": 11, "address": "Louis-H\u00e9bert / Saint-Zotique", "name": "Louis-H\u00e9bert / Saint-Zotique", "bikes": 0, "lat": 45.55001}}, {"geometry": {"coordinates": [-73.598852, 45.551457], "type": "Point"}, "type": "Feature", "properties": {"status": "OPEN", "lon": -73.598852, "stands": 15, "address": "Louis-H\u00e9bert / B\u00e9langer", "name": "Louis-H\u00e9bert / B\u00e9langer", "bikes": 0, "lat": 45.551457}}, {"geometry": {"coordinates": [-73.597793, 45.542055], "type": "Point"}, "type": "Feature", "properties": {"status": "OPEN", "lon": -73.597793, "stands": 15, "address": "Fabre / Beaubien", "name": "Fabre / Beaubien", "bikes": 0, "lat": 45.542055}}, {"geometry": {"coordinates": [-73.581018, 45.544377], "type": "Point"}, "type": "Feature", "properties": {"status": "OPEN", "lon": -73.581018, "stands": 19, "address": "Parc Rosemont (Dandurand/d'Iberville)", "name": "Parc Rosemont (Dandurand/d'Iberville)", "bikes": 0, "lat": 45.544377}}, {"geometry": {"coordinates": [-73.595666, 45.53192856], "type": "Point"}, "type": "Feature", "properties": {"status": "OPEN", "lon": -73.595666, "stands": 23, "address": "Chateaubriand/Des Ateliers", "name": "Chateaubriand/Des Ateliers", "bikes": 0, "lat": 45.53192856}}, {"geometry": {"coordinates": [-73.595478, 45.534136], "type": "Point"}, "type": "Feature", "properties": {"status": "OPEN", "lon": -73.595478, "stands": 23, "address": "Boyer / Rosemont", "name": "Boyer / Rosemont", "bikes": 0, "lat": 45.534136}}, {"geometry": {"coordinates": [-73.601221, 45.533473], "type": "Point"}, "type": "Feature", "properties": {"status": "OPEN", "lon": -73.601221, "stands": 19, "address": "Bellechasse/St-Valier", "name": "Bellechasse/St-Valier", "bikes": 0, "lat": 45.533473}}, {"geometry": {"coordinates": [-73.5634366, 45.48401829], "type": "Point"}, "type": "Feature", "properties": {"status": "OPEN", "lon": -73.5634366, "stands": 15, "address": "Augustin-Cantin / Shearer", "name": "Augustin-Cantin / Shearer", "bikes": 0, "lat": 45.48401829}}, {"geometry": {"coordinates": [-73.578755, 45.524634], "type": "Point"}, "type": "Feature", "properties": {"status": "OPEN", "lon": -73.578755, "stands": 15, "address": "Marie-anne/ St-Hubert", "name": "Marie-anne/ St-Hubert", "bikes": 0, "lat": 45.524634}}, {"geometry": {"coordinates": [-73.615085, 45.50723], "type": "Point"}, "type": "Feature", "properties": {"status": "OPEN", "lon": -73.615085, "stands": 19, "address": "\u00c9douard-Montpetit / Stirling", "name": "\u00c9douard-Montpetit / Stirling", "bikes": 0, "lat": 45.50723}}, {"geometry": {"coordinates": [-73.618105, 45.500035], "type": "Point"}, "type": "Feature", "properties": {"status": "OPEN", "lon": -73.618105, "stands": 23, "address": "Louis-Colin / McKenna", "name": "Louis-Colin / McKenna", "bikes": 0, "lat": 45.500035}}, {"geometry": {"coordinates": [-73.607723, 45.527363], "type": "Point"}, "type": "Feature", "properties": {"status": "OPEN", "lon": -73.607723, "stands": 11, "address": "Waverly / Van Horne", "name": "Waverly / Van Horne", "bikes": 0, "lat": 45.527363}}, {"geometry": {"coordinates": [-73.610737323761, 45.525021229213], "type": "Point"}, "type": "Feature", "properties": {"status": "OPEN", "lon": -73.610737323761, "stands": 19, "address": "Hutchison / Van Horne", "name": "Hutchison / Van Horne", "bikes": 0, "lat": 45.525021229213}}, {"geometry": {"coordinates": [-73.604847192764, 45.524295872823], "type": "Point"}, "type": "Feature", "properties": {"status": "OPEN", "lon": -73.604847192764, "stands": 27, "address": "Bernard / Jeanne-Mance", "name": "Bernard / Jeanne-Mance", "bikes": 0, "lat": 45.524295872823}}, {"geometry": {"coordinates": [-73.647982, 45.549949], "type": "Point"}, "type": "Feature", "properties": {"status": "OPEN", "lon": -73.647982, "stands": 11, "address": "Basile-Routhier / Chabanel", "name": "Basile-Routhier / Chabanel", "bikes": 0, "lat": 45.549949}}, {"geometry": {"coordinates": [-73.581185, 45.552649], "type": "Point"}, "type": "Feature", "properties": {"status": "OPEN", "lon": -73.581185, "stands": 14, "address": "10e Avenue / Rosemont", "name": "10e Avenue / Rosemont", "bikes": 0, "lat": 45.552649}}, {"geometry": {"coordinates": [-73.602026, 45.537041], "type": "Point"}, "type": "Feature", "properties": {"status": "OPEN", "lon": -73.602026, "stands": 19, "address": "Boyer / Beaubien", "name": "Boyer / Beaubien", "bikes": 0, "lat": 45.537041}}, {"geometry": {"coordinates": [-73.559644, 45.493962], "type": "Point"}, "type": "Feature", "properties": {"status": "OPEN", "lon": -73.559644, "stands": 6, "address": "Peel / Ottawa", "name": "Peel / Ottawa", "bikes": 0, "lat": 45.493962}}, {"geometry": {"coordinates": [-73.564817905426, 45.493029012584], "type": "Point"}, "type": "Feature", "properties": {"status": "OPEN", "lon": -73.564817905426, "stands": 26, "address": "Notre-Dame / de la Montagne ", "name": "Notre-Dame / de la Montagne ", "bikes": 0, "lat": 45.493029012584}}, {"geometry": {"coordinates": [-73.567091, 45.489951], "type": "Point"}, "type": "Feature", "properties": {"status": "OPEN", "lon": -73.567091, "stands": 19, "address": "Guy / Notre-Dame", "name": "Guy / Notre-Dame", "bikes": 0, "lat": 45.489951}}, {"geometry": {"coordinates": [-73.59353, 45.54705], "type": "Point"}, "type": "Feature", "properties": {"status": "OPEN", "lon": -73.59353, "stands": 15, "address": "Louis-H\u00e9mon / Beaubien", "name": "Louis-H\u00e9mon / Beaubien", "bikes": 0, "lat": 45.54705}}, {"geometry": {"coordinates": [-73.594059, 45.524611], "type": "Point"}, "type": "Feature", "properties": {"status": "OPEN", "lon": -73.594059, "stands": 15, "address": "Fairmount/St-Dominique", "name": "Fairmount/St-Dominique", "bikes": 0, "lat": 45.524611}}, {"geometry": {"coordinates": [-73.569651246071, 45.478227873091], "type": "Point"}, "type": "Feature", "properties": {"status": "OPEN", "lon": -73.569651246071, "stands": 15, "address": "M\u00e9tro Charlevoix (Centre / Charlevoix)", "name": "M\u00e9tro Charlevoix (Centre / Charlevoix)", "bikes": 0, "lat": 45.478227873091}}, {"geometry": {"coordinates": [-73.568868, 45.487676], "type": "Point"}, "type": "Feature", "properties": {"status": "OPEN", "lon": -73.568868, "stands": 15, "address": "des Seigneurs / Notre-Dame", "name": "des Seigneurs / Notre-Dame", "bikes": 0, "lat": 45.487676}}, {"geometry": {"coordinates": [-73.585369, 45.472743], "type": "Point"}, "type": "Feature", "properties": {"status": "OPEN", "lon": -73.585369, "stands": 18, "address": "Sir Georges Etienne Cartier/Ste-\u00c9milie", "name": "Sir Georges Etienne Cartier/Ste-\u00c9milie", "bikes": 0, "lat": 45.472743}}, {"geometry": {"coordinates": [-73.57178, 45.48501], "type": "Point"}, "type": "Feature", "properties": {"status": "OPEN", "lon": -73.57178, "stands": 18, "address": "Georges-Vanier / Notre-Dame", "name": "Georges-Vanier / Notre-Dame", "bikes": 0, "lat": 45.48501}}, {"geometry": {"coordinates": [-73.577514, 45.485889], "type": "Point"}, "type": "Feature", "properties": {"status": "OPEN", "lon": -73.577514, "stands": 23, "address": "Quesnel/Vinet", "name": "Quesnel/Vinet", "bikes": 0, "lat": 45.485889}}, {"geometry": {"coordinates": [-73.57486278, 45.48203995], "type": "Point"}, "type": "Feature", "properties": {"status": "OPEN", "lon": -73.57486278, "stands": 19, "address": "Duvernay/charlevoix ", "name": "Duvernay/charlevoix ", "bikes": 0, "lat": 45.48203995}}, {"geometry": {"coordinates": [-73.577102, 45.480359], "type": "Point"}, "type": "Feature", "properties": {"status": "OPEN", "lon": -73.577102, "stands": 33, "address": "March\u00e9 Atwater", "name": "March\u00e9 Atwater", "bikes": 0, "lat": 45.480359}}, {"geometry": {"coordinates": [-73.57731164, 45.48392802], "type": "Point"}, "type": "Feature", "properties": {"status": "OPEN", "lon": -73.57731164, "stands": 31, "address": "M\u00e9tro Lionel-Groulx ( Lionel-Groulx /Charlevoix)", "name": "M\u00e9tro Lionel-Groulx ( Lionel-Groulx /Charlevoix)", "bikes": 0, "lat": 45.48392802}}, {"geometry": {"coordinates": [-73.57656, 45.4891], "type": "Point"}, "type": "Feature", "properties": {"status": "OPEN", "lon": -73.57656, "stands": 17, "address": "Saint-Antoine / Canning (Metro George-Vanier)", "name": "Saint-Antoine / Canning (Metro George-Vanier)", "bikes": 0, "lat": 45.4891}}, {"geometry": {"coordinates": [-73.579463, 45.520018], "type": "Point"}, "type": "Feature", "properties": {"status": "OPEN", "lon": -73.579463, "stands": 0, "address": "Laval/Rachel", "name": "Laval/Rachel", "bikes": 0, "lat": 45.520018}}, {"geometry": {"coordinates": [-73.571877, 45.456049], "type": "Point"}, "type": "Feature", "properties": {"status": "OPEN", "lon": -73.571877, "stands": 19, "address": "5e ave/Verdun", "name": "5e ave/Verdun", "bikes": 0, "lat": 45.456049}}, {"geometry": {"coordinates": [-73.621215, 45.505514], "type": "Point"}, "type": "Feature", "properties": {"status": "OPEN", "lon": -73.621215, "stands": 31, "address": "Darlington / C\u00f4te-Sainte-Catherine", "name": "Darlington / C\u00f4te-Sainte-Catherine", "bikes": 0, "lat": 45.505514}}, {"geometry": {"coordinates": [-73.589848, 45.470303], "type": "Point"}, "type": "Feature", "properties": {"status": "OPEN", "lon": -73.589848, "stands": 19, "address": "Palm/St-Remi", "name": "Palm/St-Remi", "bikes": 0, "lat": 45.470303}}, {"geometry": {"coordinates": [-73.633161, 45.501302], "type": "Point"}, "type": "Feature", "properties": {"status": "OPEN", "lon": -73.633161, "stands": 23, "address": "Kent / C\u00f4te-Des-Neiges", "name": "Kent / C\u00f4te-Des-Neiges", "bikes": 0, "lat": 45.501302}}, {"geometry": {"coordinates": [-73.609546, 45.534795], "type": "Point"}, "type": "Feature", "properties": {"status": "OPEN", "lon": -73.609546, "stands": 19, "address": "Drolet/St-Zotique", "name": "Drolet/St-Zotique", "bikes": 0, "lat": 45.534795}}, {"geometry": {"coordinates": [-73.574777, 45.529219], "type": "Point"}, "type": "Feature", "properties": {"status": "OPEN", "lon": -73.574777, "stands": 19, "address": "De Lanaudiere/Marie-Anne", "name": "De Lanaudiere/Marie-Anne", "bikes": 0, "lat": 45.529219}}, {"geometry": {"coordinates": [-73.6231855, 45.49690965], "type": "Point"}, "type": "Feature", "properties": {"status": "OPEN", "lon": -73.6231855, "stands": 15, "address": "Lacombe / C\u00f4te-des-Neiges", "name": "Lacombe / C\u00f4te-des-Neiges", "bikes": 0, "lat": 45.49690965}}, {"geometry": {"coordinates": [-73.618575, 45.497011], "type": "Point"}, "type": "Feature", "properties": {"status": "OPEN", "lon": -73.618575, "stands": 27, "address": "Parc Jean-Brillant (Swail / Decelles)", "name": "Parc Jean-Brillant (Swail / Decelles)", "bikes": 0, "lat": 45.497011}}, {"geometry": {"coordinates": [-73.554902, 45.555029], "type": "Point"}, "type": "Feature", "properties": {"status": "OPEN", "lon": -73.554902, "stands": 3, "address": "Jardin Botanique", "name": "Jardin Botanique", "bikes": 0, "lat": 45.555029}}, {"geometry": {"coordinates": [-73.57641, 45.536178], "type": "Point"}, "type": "Feature", "properties": {"status": "OPEN", "lon": -73.57641, "stands": 23, "address": "Bordeaux/Gilford", "name": "Bordeaux/Gilford", "bikes": 0, "lat": 45.536178}}, {"geometry": {"coordinates": [-73.554635, 45.541814], "type": "Point"}, "type": "Feature", "properties": {"status": "OPEN", "lon": -73.554635, "stands": 21, "address": "M\u00e9tro Pr\u00e9fontaine (Moreau / Hochelaga)", "name": "M\u00e9tro Pr\u00e9fontaine (Moreau / Hochelaga)", "bikes": 0, "lat": 45.541814}}, {"geometry": {"coordinates": [-73.551739, 45.547179], "type": "Point"}, "type": "Feature", "properties": {"status": "OPEN", "lon": -73.551739, "stands": 19, "address": "M\u00e9tro Joliette  (joliette/Hochelaga)", "name": "M\u00e9tro Joliette  (joliette/Hochelaga)", "bikes": 0, "lat": 45.547179}}, {"geometry": {"coordinates": [-73.549502, 45.550668], "type": "Point"}, "type": "Feature", "properties": {"status": "OPEN", "lon": -73.549502, "stands": 11, "address": "D'Orl\u00e9ans / Hochelaga", "name": "D'Orl\u00e9ans / Hochelaga", "bikes": 0, "lat": 45.550668}}, {"geometry": {"coordinates": [-73.612441, 45.541484], "type": "Point"}, "type": "Feature", "properties": {"status": "OPEN", "lon": -73.612441, "stands": 15, "address": "Boyer / Jean-Talon", "name": "Boyer / Jean-Talon", "bikes": 0, "lat": 45.541484}}, {"geometry": {"coordinates": [-73.545609, 45.544136], "type": "Point"}, "type": "Feature", "properties": {"status": "OPEN", "lon": -73.545609, "stands": 13, "address": "Aylwin / Ontario", "name": "Aylwin / Ontario", "bikes": 0, "lat": 45.544136}}, {"geometry": {"coordinates": [-73.547407, 45.541044], "type": "Point"}, "type": "Feature", "properties": {"status": "OPEN", "lon": -73.547407, "stands": 33, "address": "Ontario / D\u00e9z\u00e9ry", "name": "Ontario / D\u00e9z\u00e9ry", "bikes": 0, "lat": 45.541044}}, {"geometry": {"coordinates": [-73.5438269, 45.54730353], "type": "Point"}, "type": "Feature", "properties": {"status": "OPEN", "lon": -73.5438269, "stands": 23, "address": "Valois / Ontario", "name": "Valois / Ontario", "bikes": 0, "lat": 45.54730353}}, {"geometry": {"coordinates": [-73.548687, 45.55896], "type": "Point"}, "type": "Feature", "properties": {"status": "OPEN", "lon": -73.548687, "stands": 40, "address": "Pierre-de-Coubertin / Aird", "name": "Pierre-de-Coubertin / Aird", "bikes": 0, "lat": 45.55896}}, {"geometry": {"coordinates": [-73.53931, 45.553491], "type": "Point"}, "type": "Feature", "properties": {"status": "OPEN", "lon": -73.53931, "stands": 23, "address": "March\u00e9 Maisonneuve", "name": "March\u00e9 Maisonneuve", "bikes": 0, "lat": 45.553491}}, {"geometry": {"coordinates": [-73.540764, 45.551119], "type": "Point"}, "type": "Feature", "properties": {"status": "OPEN", "lon": -73.540764, "stands": 27, "address": "Desjardins / Ontario", "name": "Desjardins / Ontario", "bikes": 0, "lat": 45.551119}}, {"geometry": {"coordinates": [-73.634319, 45.539964], "type": "Point"}, "type": "Feature", "properties": {"status": "OPEN", "lon": -73.634319, "stands": 15, "address": "Guizot / Saint-Laurent", "name": "Guizot / Saint-Laurent", "bikes": 0, "lat": 45.539964}}, {"geometry": {"coordinates": [-73.62038255, 45.53985704], "type": "Point"}, "type": "Feature", "properties": {"status": "OPEN", "lon": -73.62038255, "stands": 15, "address": "Faillon / Saint-Denis", "name": "Faillon / Saint-Denis", "bikes": 0, "lat": 45.53985704}}, {"geometry": {"coordinates": [-73.625894, 45.541791], "type": "Point"}, "type": "Feature", "properties": {"status": "OPEN", "lon": -73.625894, "stands": 15, "address": "Gounod / Saint-Denis", "name": "Gounod / Saint-Denis", "bikes": 0, "lat": 45.541791}}, {"geometry": {"coordinates": [-73.630089, 45.540627], "type": "Point"}, "type": "Feature", "properties": {"status": "OPEN", "lon": -73.630089, "stands": 15, "address": "De Gasp\u00e9 / Jarry", "name": "De Gasp\u00e9 / Jarry", "bikes": 0, "lat": 45.540627}}, {"geometry": {"coordinates": [-73.632267, 45.543376], "type": "Point"}, "type": "Feature", "properties": {"status": "OPEN", "lon": -73.632267, "stands": 0, "address": "Guizot / Saint-Denis", "name": "Guizot / Saint-Denis", "bikes": 0, "lat": 45.543376}}, {"geometry": {"coordinates": [-73.636557, 45.542579], "type": "Point"}, "type": "Feature", "properties": {"status": "OPEN", "lon": -73.636557, "stands": 15, "address": "De Gasp\u00e9 / De Li\u00e8ge", "name": "De Gasp\u00e9 / De Li\u00e8ge", "bikes": 0, "lat": 45.542579}}, {"geometry": {"coordinates": [-73.631103, 45.547218], "type": "Point"}, "type": "Feature", "properties": {"status": "OPEN", "lon": -73.631103, "stands": 15, "address": "Leman/Chateaubriand", "name": "Leman/Chateaubriand", "bikes": 0, "lat": 45.547218}}, {"geometry": {"coordinates": [-73.6284, 45.543583], "type": "Point"}, "type": "Feature", "properties": {"status": "OPEN", "lon": -73.6284, "stands": 19, "address": "Lajeunesse / Jarry", "name": "Lajeunesse / Jarry", "bikes": 0, "lat": 45.543583}}, {"geometry": {"coordinates": [-73.621581, 45.54467], "type": "Point"}, "type": "Feature", "properties": {"status": "OPEN", "lon": -73.621581, "stands": 15, "address": "Du Rosaire / Saint-Hubert", "name": "Du Rosaire / Saint-Hubert", "bikes": 0, "lat": 45.54467}}, {"geometry": {"coordinates": [-73.617822, 45.542892], "type": "Point"}, "type": "Feature", "properties": {"status": "OPEN", "lon": -73.617822, "stands": 19, "address": "Faillon / Saint-Hubert", "name": "Faillon / Saint-Hubert", "bikes": 0, "lat": 45.542892}}, {"geometry": {"coordinates": [-73.625377, 45.547283], "type": "Point"}, "type": "Feature", "properties": {"status": "OPEN", "lon": -73.625377, "stands": 14, "address": "Boyer / Jarry", "name": "Boyer / Jarry", "bikes": 0, "lat": 45.547283}}, {"geometry": {"coordinates": [-73.6237, 45.4743], "type": "Point"}, "type": "Feature", "properties": {"status": "OPEN", "lon": -73.6237, "stands": 15, "address": "Harvard/Monkland", "name": "Harvard/Monkland", "bikes": 0, "lat": 45.4743}}, {"geometry": {"coordinates": [-73.614841, 45.544867], "type": "Point"}, "type": "Feature", "properties": {"status": "OPEN", "lon": -73.614841, "stands": 18, "address": "De La Roche / Everett", "name": "De La Roche / Everett", "bikes": 0, "lat": 45.544867}}, {"geometry": {"coordinates": [-73.570769, 45.467369], "type": "Point"}, "type": "Feature", "properties": {"status": "OPEN", "lon": -73.570769, "stands": 15, "address": "Regina / Verdun", "name": "Regina / Verdun", "bikes": 0, "lat": 45.467369}}, {"geometry": {"coordinates": [-73.615021, 45.550551], "type": "Point"}, "type": "Feature", "properties": {"status": "OPEN", "lon": -73.615021, "stands": 1, "address": "Marquette / Villeray", "name": "Marquette / Villeray", "bikes": 0, "lat": 45.550551}}, {"geometry": {"coordinates": [-73.610711, 45.554931], "type": "Point"}, "type": "Feature", "properties": {"status": "OPEN", "lon": -73.610711, "stands": 15, "address": "Louis-H\u00e9mon / Villeray", "name": "Louis-H\u00e9mon / Villeray", "bikes": 0, "lat": 45.554931}}, {"geometry": {"coordinates": [-73.537669, 45.545409], "type": "Point"}, "type": "Feature", "properties": {"status": "OPEN", "lon": -73.537669, "stands": 3, "address": "Valois/Ste-Catherine", "name": "Valois/Ste-Catherine", "bikes": 0, "lat": 45.545409}}, {"geometry": {"coordinates": [-73.599658, 45.559199], "type": "Point"}, "type": "Feature", "properties": {"status": "OPEN", "lon": -73.599658, "stands": 11, "address": "M\u00e9tro St-Michel ( Shaughnessy/St-Michel)", "name": "M\u00e9tro St-Michel ( Shaughnessy/St-Michel)", "bikes": 0, "lat": 45.559199}}, {"geometry": {"coordinates": [-73.5646007, 45.4757434], "type": "Point"}, "type": "Feature", "properties": {"status": "OPEN", "lon": -73.5646007, "stands": 19, "address": "Ryde/Charlevoix", "name": "Ryde/Charlevoix", "bikes": 0, "lat": 45.4757434}}, {"geometry": {"coordinates": [-73.5644, 45.4815], "type": "Point"}, "type": "Feature", "properties": {"status": "OPEN", "lon": -73.5644, "stands": 22, "address": "Island/Centre", "name": "Island/Centre", "bikes": 0, "lat": 45.4815}}, {"geometry": {"coordinates": [-73.624872, 45.537813], "type": "Point"}, "type": "Feature", "properties": {"status": "OPEN", "lon": -73.624872, "stands": 15, "address": "St-Dominique / Villeray", "name": "St-Dominique / Villeray", "bikes": 0, "lat": 45.537813}}, {"geometry": {"coordinates": [-73.634748458862, 45.545541556277], "type": "Point"}, "type": "Feature", "properties": {"status": "OPEN", "lon": -73.634748458862, "stands": 15, "address": "de Li\u00e8ge / Lajeunesse", "name": "de Li\u00e8ge / Lajeunesse", "bikes": 0, "lat": 45.545541556277}}, {"geometry": {"coordinates": [-73.6234, 45.5401], "type": "Point"}, "type": "Feature", "properties": {"status": "OPEN", "lon": -73.6234, "stands": 11, "address": "Drolet / Villeray", "name": "Drolet / Villeray", "bikes": 0, "lat": 45.5401}}, {"geometry": {"coordinates": [-73.613924, 45.471743], "type": "Point"}, "type": "Feature", "properties": {"status": "OPEN", "lon": -73.613924, "stands": 2, "address": "Marcil/Sherbrooke", "name": "Marcil/Sherbrooke", "bikes": 0, "lat": 45.471743}}, {"geometry": {"coordinates": [-73.5373, 45.5566], "type": "Point"}, "type": "Feature", "properties": {"status": "OPEN", "lon": -73.5373, "stands": 19, "address": "Sicard/Ontario", "name": "Sicard/Ontario", "bikes": 0, "lat": 45.5566}}, {"geometry": {"coordinates": [-73.6212, 45.4771], "type": "Point"}, "type": "Feature", "properties": {"status": "OPEN", "lon": -73.6212, "stands": 15, "address": "Monkland/Girouard", "name": "Monkland/Girouard", "bikes": 0, "lat": 45.4771}}, {"geometry": {"coordinates": [-73.58925, 45.556905], "type": "Point"}, "type": "Feature", "properties": {"status": "OPEN", "lon": -73.58925, "stands": 15, "address": "12e Avenue / Saint-Zotique", "name": "12e Avenue / Saint-Zotique", "bikes": 0, "lat": 45.556905}}, {"geometry": {"coordinates": [-73.592336, 45.553243], "type": "Point"}, "type": "Feature", "properties": {"status": "OPEN", "lon": -73.592336, "stands": 19, "address": "6e avenue /St-Zotique", "name": "6e avenue /St-Zotique", "bikes": 0, "lat": 45.553243}}, {"geometry": {"coordinates": [-73.55653, 45.510499], "type": "Point"}, "type": "Feature", "properties": {"status": "OPEN", "lon": -73.55653, "stands": 25, "address": "M\u00e9tro Champs-de-Mars (Viger/Sanguinet)", "name": "M\u00e9tro Champs-de-Mars (Viger/Sanguinet)", "bikes": 0, "lat": 45.510499}}, {"geometry": {"coordinates": [-73.58752, 45.553215], "type": "Point"}, "type": "Feature", "properties": {"status": "OPEN", "lon": -73.58752, "stands": 4, "address": "8e Avenue / Beaubien", "name": "8e Avenue / Beaubien", "bikes": 0, "lat": 45.553215}}, {"geometry": {"coordinates": [-73.590446, 45.550476], "type": "Point"}, "type": "Feature", "properties": {"status": "OPEN", "lon": -73.590446, "stands": 15, "address": "1ere Avenue / Beaubien", "name": "1ere Avenue / Beaubien", "bikes": 0, "lat": 45.550476}}, {"geometry": {"coordinates": [-73.58523, 45.547997], "type": "Point"}, "type": "Feature", "properties": {"status": "OPEN", "lon": -73.58523, "stands": 19, "address": "1ere Avenue / Rosemont", "name": "1ere Avenue / Rosemont", "bikes": 0, "lat": 45.547997}}, {"geometry": {"coordinates": [-73.6198, 45.4688], "type": "Point"}, "type": "Feature", "properties": {"status": "OPEN", "lon": -73.6198, "stands": 15, "address": "C\u00f4te St-Antoine/Royal", "name": "C\u00f4te St-Antoine/Royal", "bikes": 0, "lat": 45.4688}}, {"geometry": {"coordinates": [-73.558292, 45.549639], "type": "Point"}, "type": "Feature", "properties": {"status": "OPEN", "lon": -73.558292, "stands": 15, "address": "Chambly / Rachel", "name": "Chambly / Rachel", "bikes": 0, "lat": 45.549639}}, {"geometry": {"coordinates": [-73.624835, 45.510042], "type": "Point"}, "type": "Feature", "properties": {"status": "OPEN", "lon": -73.624835, "stands": 15, "address": "Wilderton  / Van Horne", "name": "Wilderton  / Van Horne", "bikes": 0, "lat": 45.510042}}, {"geometry": {"coordinates": [-73.579221, 45.547362], "type": "Point"}, "type": "Feature", "properties": {"status": "OPEN", "lon": -73.579221, "stands": 15, "address": "3e Avenue / Dandurand", "name": "3e Avenue / Dandurand", "bikes": 0, "lat": 45.547362}}, {"geometry": {"coordinates": [-73.573755, 45.550321], "type": "Point"}, "type": "Feature", "properties": {"status": "OPEN", "lon": -73.573755, "stands": 19, "address": "10e Avenue / Masson", "name": "10e Avenue / Masson", "bikes": 0, "lat": 45.550321}}, {"geometry": {"coordinates": [-73.6402148, 45.45639046], "type": "Point"}, "type": "Feature", "properties": {"status": "OPEN", "lon": -73.6402148, "stands": 9, "address": "West Broadway/Sherbrooke", "name": "West Broadway/Sherbrooke", "bikes": 0, "lat": 45.45639046}}, {"geometry": {"coordinates": [-73.569847, 45.557192], "type": "Point"}, "type": "Feature", "properties": {"status": "OPEN", "lon": -73.569847, "stands": 15, "address": "D'Orl\u00e9ans / Masson", "name": "D'Orl\u00e9ans / Masson", "bikes": 0, "lat": 45.557192}}, {"geometry": {"coordinates": [-73.575515, 45.546978], "type": "Point"}, "type": "Feature", "properties": {"status": "OPEN", "lon": -73.575515, "stands": 30, "address": "4e Avenue / Masson", "name": "4e Avenue / Masson", "bikes": 0, "lat": 45.546978}}, {"geometry": {"coordinates": [-73.576931, 45.544099], "type": "Point"}, "type": "Feature", "properties": {"status": "OPEN", "lon": -73.576931, "stands": 23, "address": "Molson / Masson", "name": "Molson / Masson", "bikes": 0, "lat": 45.544099}}, {"geometry": {"coordinates": [-73.569351, 45.548327], "type": "Point"}, "type": "Feature", "properties": {"status": "OPEN", "lon": -73.569351, "stands": 11, "address": "9e Avenue / Saint-Joseph", "name": "9e Avenue / Saint-Joseph", "bikes": 0, "lat": 45.548327}}, {"geometry": {"coordinates": [-73.569531, 45.553408], "type": "Point"}, "type": "Feature", "properties": {"status": "OPEN", "lon": -73.569531, "stands": 19, "address": "15e Avenue / Laurier", "name": "15e Avenue / Laurier", "bikes": 0, "lat": 45.553408}}, {"geometry": {"coordinates": [-73.587238, 45.477249], "type": "Point"}, "type": "Feature", "properties": {"status": "OPEN", "lon": -73.587238, "stands": 19, "address": "Metro Place St-Henri (St-Ferdinand/St-Jacques)", "name": "Metro Place St-Henri (St-Ferdinand/St-Jacques)", "bikes": 0, "lat": 45.477249}}, {"geometry": {"coordinates": [-73.564742, 45.554165], "type": "Point"}, "type": "Feature", "properties": {"status": "OPEN", "lon": -73.564742, "stands": 14, "address": "18e Avenue / Saint-Joseph", "name": "18e Avenue / Saint-Joseph", "bikes": 0, "lat": 45.554165}}, {"geometry": {"coordinates": [-73.56385, 45.47968], "type": "Point"}, "type": "Feature", "properties": {"status": "OPEN", "lon": -73.56385, "stands": 19, "address": "Grand trunk/Hibernia", "name": "Grand trunk/Hibernia", "bikes": 0, "lat": 45.47968}}, {"geometry": {"coordinates": [-73.575621, 45.463257], "type": "Point"}, "type": "Feature", "properties": {"status": "OPEN", "lon": -73.575621, "stands": 15, "address": "Bannantyne /de l'Eglise", "name": "Bannantyne /de l'Eglise", "bikes": 0, "lat": 45.463257}}, {"geometry": {"coordinates": [-73.561916, 45.551584], "type": "Point"}, "type": "Feature", "properties": {"status": "OPEN", "lon": -73.561916, "stands": 19, "address": "Parc J.-Arthur-Champagne (Chambly/Mont-Royal)", "name": "Parc J.-Arthur-Champagne (Chambly/Mont-Royal)", "bikes": 0, "lat": 45.551584}}, {"geometry": {"coordinates": [-73.561937, 45.545474], "type": "Point"}, "type": "Feature", "properties": {"status": "OPEN", "lon": -73.561937, "stands": 23, "address": "Omer-Lavall\u00e9e / Midway", "name": "Omer-Lavall\u00e9e / Midway", "bikes": 0, "lat": 45.545474}}, {"geometry": {"coordinates": [-73.556527, 45.545425], "type": "Point"}, "type": "Feature", "properties": {"status": "OPEN", "lon": -73.556527, "stands": 3, "address": "Darling / Sherbrooke", "name": "Darling / Sherbrooke", "bikes": 0, "lat": 45.545425}}, {"geometry": {"coordinates": [-73.551761, 45.553879], "type": "Point"}, "type": "Feature", "properties": {"status": "OPEN", "lon": -73.551761, "stands": 41, "address": "M\u00e9tro Pie-IX (Pierre-de-Coubertin / Pie-IX)", "name": "M\u00e9tro Pie-IX (Pierre-de-Coubertin / Pie-IX)", "bikes": 0, "lat": 45.553879}}, {"geometry": {"coordinates": [-73.603251, 45.518215], "type": "Point"}, "type": "Feature", "properties": {"status": "OPEN", "lon": -73.603251, "stands": 15, "address": "Parc Outremont (Bloomfield / Elmwood)", "name": "Parc Outremont (Bloomfield / Elmwood)", "bikes": 0, "lat": 45.518215}}, {"geometry": {"coordinates": [-73.60628, 45.51529], "type": "Point"}, "type": "Feature", "properties": {"status": "OPEN", "lon": -73.60628, "stands": 15, "address": "Stuart / C\u00f4te-Ste-Catherine", "name": "Stuart / C\u00f4te-Ste-Catherine", "bikes": 0, "lat": 45.51529}}, {"geometry": {"coordinates": [-73.619682, 45.514905], "type": "Point"}, "type": "Feature", "properties": {"status": "OPEN", "lon": -73.619682, "stands": 11, "address": "Dunlop / Van Horne", "name": "Dunlop / Van Horne", "bikes": 0, "lat": 45.514905}}, {"geometry": {"coordinates": [-73.614991, 45.515617], "type": "Point"}, "type": "Feature", "properties": {"status": "OPEN", "lon": -73.614991, "stands": 15, "address": "Rockland / Lajoie", "name": "Rockland / Lajoie", "bikes": 0, "lat": 45.515617}}, {"geometry": {"coordinates": [-73.610871, 45.514379], "type": "Point"}, "type": "Feature", "properties": {"status": "OPEN", "lon": -73.610871, "stands": 15, "address": "Davaar / C\u00f4te-Sainte-Catherine", "name": "Davaar / C\u00f4te-Sainte-Catherine", "bikes": 0, "lat": 45.514379}}, {"geometry": {"coordinates": [-73.611429, 45.510086], "type": "Point"}, "type": "Feature", "properties": {"status": "OPEN", "lon": -73.611429, "stands": 38, "address": "Mont-Royal / Vincent-D'Indy ", "name": "Mont-Royal / Vincent-D'Indy ", "bikes": 0, "lat": 45.510086}}, {"geometry": {"coordinates": [-73.622351, 45.536152], "type": "Point"}, "type": "Feature", "properties": {"status": "OPEN", "lon": -73.622351, "stands": 0, "address": "Gary Carter / St-Laurent", "name": "Gary Carter / St-Laurent", "bikes": 0, "lat": 45.536152}}, {"geometry": {"coordinates": [-73.617459, 45.535189], "type": "Point"}, "type": "Feature", "properties": {"status": "OPEN", "lon": -73.617459, "stands": 23, "address": "Saint-Dominique / Jean talon", "name": "Saint-Dominique / Jean talon", "bikes": 0, "lat": 45.535189}}, {"geometry": {"coordinates": [-73.573286, 45.486457], "type": "Point"}, "type": "Feature", "properties": {"status": "OPEN", "lon": -73.573286, "stands": 19, "address": "Lionel-Groulx / George-Vanier", "name": "Lionel-Groulx / George-Vanier", "bikes": 0, "lat": 45.486457}}, {"geometry": {"coordinates": [-73.568471074104, 45.514530838669], "type": "Point"}, "type": "Feature", "properties": {"status": "OPEN", "lon": -73.568471074104, "stands": 15, "address": "De l'H\u00f4tel-de-Ville / Sherbrooke", "name": "De l'H\u00f4tel-de-Ville / Sherbrooke", "bikes": 0, "lat": 45.514530838669}}, {"geometry": {"coordinates": [-73.5718136, 45.5014018], "type": "Point"}, "type": "Feature", "properties": {"status": "OPEN", "lon": -73.5718136, "stands": 0, "address": "Mansfield / Ste-Catherine ", "name": "Mansfield / Ste-Catherine ", "bikes": 0, "lat": 45.5014018}}, {"geometry": {"coordinates": [-73.573489, 45.512762], "type": "Point"}, "type": "Feature", "properties": {"status": "OPEN", "lon": -73.573489, "stands": 19, "address": "Prince-Arthur / Saint-Urbain", "name": "Prince-Arthur / Saint-Urbain", "bikes": 0, "lat": 45.512762}}, {"geometry": {"coordinates": [-73.53382, 45.512097], "type": "Point"}, "type": "Feature", "properties": {"status": "OPEN", "lon": -73.53382, "stands": 27, "address": "M\u00e9tro Jean-Drapeau", "name": "M\u00e9tro Jean-Drapeau", "bikes": 0, "lat": 45.512097}}, {"geometry": {"coordinates": [-73.537658, 45.511146], "type": "Point"}, "type": "Feature", "properties": {"status": "OPEN", "lon": -73.537658, "stands": 19, "address": "Quai de la navette fluviale", "name": "Quai de la navette fluviale", "bikes": 0, "lat": 45.511146}}, {"geometry": {"coordinates": [-73.624052, 45.530617], "type": "Point"}, "type": "Feature", "properties": {"status": "OPEN", "lon": -73.624052, "stands": 17, "address": "M\u00e9tro Parc  (Ogilvy/Hutchison)", "name": "M\u00e9tro Parc  (Ogilvy/Hutchison)", "bikes": 0, "lat": 45.530617}}, {"geometry": {"coordinates": [-73.534859, 45.521769], "type": "Point"}, "type": "Feature", "properties": {"status": "OPEN", "lon": -73.534859, "stands": 14, "address": "La Ronde", "name": "La Ronde", "bikes": 0, "lat": 45.521769}}, {"geometry": {"coordinates": [-73.6162, 45.4703], "type": "Point"}, "type": "Feature", "properties": {"status": "OPEN", "lon": -73.6162, "stands": 15, "address": "Wilson/Sherbrooke", "name": "Wilson/Sherbrooke", "bikes": 0, "lat": 45.4703}}, {"geometry": {"coordinates": [-73.54822, 45.55325], "type": "Point"},