{"features": [{"properties": {"bikes": 5, "lon": -1.553049129320471, "name": "00038-PLACE RICORDEAU", "stands": 35, "status": "OPEN", "address": "PLACE RICORDEAU", "update": "2016-02-08T20:30:14", "lat": 47.212108463141774}, "geometry": {"type": "Point", "coordinates": [-1.553049129320471, 47.212108463141774]}, "type": "Feature"}, {"properties": {"bikes": 7, "lon": -1.547999925907375, "name": "00066-CHANZY", "stands": 8, "status": "OPEN", "address": "CHANZY - FACE AU 23 AVENUE DE CHANZY", "update": "2016-02-08T20:25:02", "lat": 47.22542988533347}, "geometry": {"type": "Point", "coordinates": [-1.547999925907375, 47.22542988533347]}, "type": "Feature"}, {"properties": {"bikes": 8, "lon": -1.55154060534636, "name": "00003-STRASBOURG", "stands": 7, "status": "OPEN", "address": "STRASBOURG - PLACE TIRANT LO BLANC", "update": "2016-02-08T20:25:16", "lat": 47.216479771820744}, "geometry": {"type": "Point", "coordinates": [-1.55154060534636, 47.216479771820744]}, "type": "Feature"}, {"properties": {"bikes": 9, "lon": -1.553484290392954, "name": "00002-H\u00d4TEL DE VILLE", "stands": 11, "status": "OPEN", "address": "H\u00d4TEL DE VILLE - FACE AU 29 RUE DE STRASBOURG", "update": "2016-02-08T20:25:09", "lat": 47.21857181309145}, "geometry": {"type": "Point", "coordinates": [-1.553484290392954, 47.21857181309145]}, "type": "Feature"}, {"properties": {"bikes": 9, "lon": -1.564806790782994, "name": "00043 - MACHINE DE L'\u00ceLE", "stands": 21, "status": "OPEN", "address": "MACHINE DE L'\u00ceLE - 3 BD LEON BUREAU", "update": "2016-02-08T20:24:51", "lat": 47.20691895869599}, "geometry": {"type": "Point", "coordinates": [-1.564806790782994, 47.20691895869599]}, "type": "Feature"}, {"properties": {"bikes": 13, "lon": -1.525933451925082, "name": "00084-R\u00c9GION", "stands": 6, "status": "OPEN", "address": "REGION - RUE DE LA LOIRE", "update": "2016-02-08T20:26:08", "lat": 47.21074214218137}, "geometry": {"type": "Point", "coordinates": [-1.525933451925082, 47.21074214218137]}, "type": "Feature"}, {"properties": {"bikes": 14, "lon": -1.550411914119152, "name": "00040-MADELEINE", "stands": 1, "status": "OPEN", "address": "MADELEINE - 2 QUAI MONCOUSU", "update": "2016-02-08T20:21:38", "lat": 47.208804642437784}, "geometry": {"type": "Point", "coordinates": [-1.550411914119152, 47.208804642437784]}, "type": "Feature"}, {"properties": {"bikes": 12, "lon": -1.555531041936261, "name": "00022-MOQUECHIEN", "stands": 4, "status": "OPEN", "address": "MOQUECHIEN - 8 RUE MOQUECHIEN", "update": "2016-02-08T20:25:58", "lat": 47.220392126691955}, "geometry": {"type": "Point", "coordinates": [-1.555531041936261, 47.220392126691955]}, "type": "Feature"}, {"properties": {"bikes": 8, "lon": -1.572610286970505, "name": "00042-GARE MARITIME", "stands": 17, "status": "OPEN", "address": "GARE MARITIME - PLACE JACKSONVILLE", "update": "2016-02-08T20:22:02", "lat": 47.20659772898787}, "geometry": {"type": "Point", "coordinates": [-1.572610286970505, 47.20659772898787]}, "type": "Feature"}, {"properties": {"bikes": 10, "lon": -1.549291898557657, "name": "00102-GARE PT ROUSSEAU", "stands": 10, "status": "OPEN", "address": "GARE PONT ROUSSEAU - RUE DE LA GARE - REZE", "update": "2016-02-08T20:24:06", "lat": 47.19280351379784}, "geometry": {"type": "Point", "coordinates": [-1.549291898557657, 47.19280351379784]}, "type": "Feature"}, {"properties": {"bikes": 0, "lon": -1.541777739850638, "name": "00056-VINCENT GACHE", "stands": 15, "status": "OPEN", "address": "VINCENT GACHE - 9 RUE FRANCOIS ALBERT", "update": "2016-02-08T20:27:39", "lat": 47.206798618575256}, "geometry": {"type": "Point", "coordinates": [-1.541777739850638, 47.206798618575256]}, "type": "Feature"}, {"properties": {"bikes": 9, "lon": -1.556126125975167, "name": "00007- BARILLERIE", "stands": 6, "status": "OPEN", "address": "BARILLERIE - 2 ALLEE PENTHIEVRE", "update": "2016-02-08T20:24:03", "lat": 47.215331358010445}, "geometry": {"type": "Point", "coordinates": [-1.556126125975167, 47.215331358010445]}, "type": "Feature"}, {"properties": {"bikes": 9, "lon": -1.55892310936669, "name": "00045-PRAIRIE AU DUC", "stands": 4, "status": "OPEN", "address": "PRAIRIE AU DUC - 40 BOULEVARD DE LA PRAIRIE AU DUC", "update": "2016-02-08T20:24:28", "lat": 47.204783935599195}, "geometry": {"type": "Point", "coordinates": [-1.55892310936669, 47.204783935599195]}, "type": "Feature"}, {"properties": {"bikes": 2, "lon": -1.568490581479757, "name": "00103 - STATION MOBILE", "stands": 17, "status": "OPEN", "address": "ILE DE NANTES PARC DES CHANTIERS A COTE DU CARROUSEL  (Station mobile)", "update": "2016-02-08T20:23:09", "lat": 47.206384991216765}, "geometry": {"type": "Point", "coordinates": [-1.568490581479757, 47.206384991216765]}, "type": "Feature"}, {"properties": {"bikes": 1, "lon": -1.534184544523239, "name": "00010- PICASSO", "stands": 27, "status": "OPEN", "address": "PICASSO - RUE PABLO PICASSO", "update": "2016-02-08T20:28:54", "lat": 47.216369613307506}, "geometry": {"type": "Point", "coordinates": [-1.534184544523239, 47.216369613307506]}, "type": "Feature"}, {"properties": {"bikes": 36, "lon": -1.542208634875899, "name": "00062-GARE NORD", "stands": 4, "status": "OPEN", "address": "GARE NORD - 1 PLACE CHARLES LE ROUX", "update": "2016-02-08T20:20:46", "lat": 47.218132613316826}, "geometry": {"type": "Point", "coordinates": [-1.542208634875899, 47.218132613316826]}, "type": "Feature"}, {"properties": {"bikes": 1, "lon": -1.535981000861306, "name": "00058-PALAIS DES SPORTS", "stands": 14, "status": "OPEN", "address": "PALAIS DES SPORTS - 21 RUE RENE VIVIANI", "update": "2016-02-08T20:23:00", "lat": 47.208466072191925}, "geometry": {"type": "Point", "coordinates": [-1.535981000861306, 47.208466072191925]}, "type": "Feature"}, {"properties": {"bikes": 11, "lon": -1.556344610167984, "name": "00094-PETIT PORT", "stands": 9, "status": "OPEN", "address": "PETIT PORT - BD DU PETIT PORT", "update": "2016-02-08T20:28:10", "lat": 47.243263914975486}, "geometry": {"type": "Point", "coordinates": [-1.556344610167984, 47.243263914975486]}, "type": "Feature"}, {"properties": {"bikes": 14, "lon": -1.559086551239872, "name": "00031-BOURSE", "stands": 2, "status": "OPEN", "address": "BOURSE - SQUARE DE LA BOURSE", "update": "2016-02-08T20:30:07", "lat": 47.212083030753185}, "geometry": {"type": "Point", "coordinates": [-1.559086551239872, 47.212083030753185]}, "type": "Feature"}, {"properties": {"bikes": 5, "lon": -1.574924617192968, "name": "00074-CANCLAUX", "stands": 10, "status": "OPEN", "address": "CANCLAUX - 8 PLACE CANCLAUX", "update": "2016-02-08T20:22:27", "lat": 47.21433366088933}, "geometry": {"type": "Point", "coordinates": [-1.574924617192968, 47.21433366088933]}, "type": "Feature"}, {"properties": {"bikes": 7, "lon": -1.561806393011127, "name": "00072-BELLAMY-GU\u00c9 MOREAU", "stands": 8, "status": "OPEN", "address": "Bellamy-Gu\u00e9 Moreau-138 rue Paul Bellamy", "update": "2016-02-08T20:20:28", "lat": 47.22862569057461}, "geometry": {"type": "Point", "coordinates": [-1.561806393011127, 47.22862569057461]}, "type": "Feature"}, {"properties": {"bikes": 5, "lon": -1.558920890474776, "name": "00019-SAINT SIMILIEN", "stands": 10, "status": "OPEN", "address": "SAINT SIMILIEN - 1 PLACE SAINT SIMILIEN", "update": "2016-02-08T20:26:29", "lat": 47.219854467329974}, "geometry": {"type": "Point", "coordinates": [-1.558920890474776, 47.219854467329974]}, "type": "Feature"}, {"properties": {"bikes": 9, "lon": -1.529735885980363, "name": "00051-TABARLY", "stands": 11, "status": "OPEN", "address": "AVENUE DE BERLIN DEVANT MAISON DE QUARTIER", "update": "2016-02-08T20:23:51", "lat": 47.21419463149648}, "geometry": {"type": "Point", "coordinates": [-1.529735885980363, 47.21419463149648]}, "type": "Feature"}, {"properties": {"bikes": 5, "lon": -1.578689264310988, "name": "00089-SAINT-AIGNAN", "stands": 9, "status": "OPEN", "address": "SAINT AIGNAN - 65 BD ST AIGNAN", "update": "2016-02-08T20:27:05", "lat": 47.20743863754715}, "geometry": {"type": "Point", "coordinates": [-1.578689264310988, 47.20743863754715]}, "type": "Feature"}, {"properties": {"bikes": 4, "lon": -1.557532467914316, "name": "00077-ECOLE D'ARCHITECTURE", "stands": 21, "status": "OPEN", "address": "ECOLE D'ARCHITECTURE - QUAI F MITTERRAND", "update": "2016-02-08T20:27:39", "lat": 47.207605640212115}, "geometry": {"type": "Point", "coordinates": [-1.557532467914316, 47.207605640212115]}, "type": "Feature"}, {"properties": {"bikes": 10, "lon": -1.571373578112414, "name": "00087-ANATOLE FRANCE", "stands": 5, "status": "OPEN", "address": "ANATOLE FRANCE - 41 RUE ALEXANDRE DUMAS", "update": "2016-02-08T20:21:38", "lat": 47.223604815399085}, "geometry": {"type": "Point", "coordinates": [-1.571373578112414, 47.223604815399085]}, "type": "Feature"}, {"properties": {"bikes": 6, "lon": -1.548161311046709, "name": "00047- MARTYRS NANTAIS", "stands": 9, "status": "OPEN", "address": "MARTYRS NANTAIS - 1 BD DES MARTYRS NANTAIS", "update": "2016-02-08T20:24:14", "lat": 47.20702417983412}, "geometry": {"type": "Point", "coordinates": [-1.548161311046709, 47.20702417983412]}, "type": "Feature"}, {"properties": {"bikes": 16, "lon": -1.540292594289221, "name": "00097-SAINT DONATIEN", "stands": 4, "status": "OPEN", "address": "SAINT DONATIEN - PLACE DU 51\u00e9me RIMA", "update": "2016-02-08T20:22:11", "lat": 47.22908808709286}, "geometry": {"type": "Point", "coordinates": [-1.540292594289221, 47.22908808709286]}, "type": "Feature"}, {"properties": {"bikes": 19, "lon": -1.557393235628245, "name": "00030-COMMERCE", "stands": 20, "status": "OPEN", "address": "COMMERCE - FACE PLACE DU COMMERCE", "update": "2016-02-08T20:26:48", "lat": 47.21312055103121}, "geometry": {"type": "Point", "coordinates": [-1.557393235628245, 47.21312055103121]}, "type": "Feature"}, {"properties": {"bikes": 8, "lon": -1.569171883302444, "name": "00027-GUIST'HAU NORD", "stands": 7, "status": "OPEN", "address": "GUIST'HAU NORD - 42 BD GUIST'HAU", "update": "2016-02-08T20:23:08", "lat": 47.21792981632508}, "geometry": {"type": "Point", "coordinates": [-1.569171883302444, 47.21792981632508]}, "type": "Feature"}, {"properties": {"bikes": 9, "lon": -1.562986793288367, "name": "00015-PLACE ARISTIDE BRIAND", "stands": 8, "status": "OPEN", "address": "PLACE ARISTIDE BRIAND", "update": "2016-02-08T20:20:44", "lat": 47.21718482329023}, "geometry": {"type": "Point", "coordinates": [-1.562986793288367, 47.21718482329023]}, "type": "Feature"}, {"properties": {"bikes": 10, "lon": -1.530180435959972, "name": "00083-MILLERAND", "stands": 4, "status": "OPEN", "address": "MILLERAND - 9 BD ALEXANDRE MILLERAND", "update": "2016-02-08T20:24:55", "lat": 47.208199645038825}, "geometry": {"type": "Point", "coordinates": [-1.530180435959972, 47.208199645038825]}, "type": "Feature"}, {"properties": {"bikes": 7, "lon": -1.561744905652581, "name": "00034-MEDIATHEQUE", "stands": 13, "status": "OPEN", "address": "MEDIATHEQUE - 24 QUAI DE LA FOSSE", "update": "2016-02-08T20:29:13", "lat": 47.210886925815934}, "geometry": {"type": "Point", "coordinates": [-1.561744905652581, 47.210886925815934]}, "type": "Feature"}, {"properties": {"bikes": 9, "lon": -1.572114577993728, "name": "00091-RD PT VANNES", "stands": 7, "status": "OPEN", "address": "RD PT VANNES - 65 BD LE LASSEUR", "update": "2016-02-08T20:22:59", "lat": 47.229580605369215}, "geometry": {"type": "Point", "coordinates": [-1.572114577993728, 47.229580605369215]}, "type": "Feature"}, {"properties": {"bikes": 18, "lon": -1.555183107916184, "name": "00046-PLACE REPUBLIQUE", "stands": 2, "status": "OPEN", "address": "PLACE DE LA REPUBLIQUE - 3 PLACE DE LA REPUBLIQUE", "update": "2016-02-08T20:26:26", "lat": 47.20532409029517}, "geometry": {"type": "Point", "coordinates": [-1.555183107916184, 47.20532409029517]}, "type": "Feature"}, {"properties": {"bikes": 4, "lon": -1.557229797031573, "name": "00020-BELLAMY", "stands": 11, "status": "OPEN", "address": "BELLAMY - 50 RUE PAUL BELLAMY", "update": "2016-02-08T20:22:20", "lat": 47.222902006053054}, "geometry": {"type": "Point", "coordinates": [-1.557229797031573, 47.222902006053054]}, "type": "Feature"}, {"properties": {"bikes": 7, "lon": -1.545507251231619, "name": "00081 - MANGIN", "stands": 7, "status": "OPEN", "address": "MANGIN - DEV 8 PLACE MANGIN", "update": "2016-02-08T20:24:39", "lat": 47.20095551723967}, "geometry": {"type": "Point", "coordinates": [-1.545507251231619, 47.20095551723967]}, "type": "Feature"}, {"properties": {"bikes": 12, "lon": -1.544298470945214, "name": "00055-MAGELLAN", "stands": 3, "status": "OPEN", "address": "MAGELLAN - 11 RUE DE BELFORT", "update": "2016-02-08T20:29:51", "lat": 47.21078140655944}, "geometry": {"type": "Point", "coordinates": [-1.544298470945214, 47.21078140655944]}, "type": "Feature"}, {"properties": {"bikes": 2, "lon": -1.540514488290191, "name": "00078-DE GAULLE", "stands": 13, "status": "OPEN", "address": "DE GAULLE - PONT A. BRIAND / BD DE GAULLE", "update": "2016-02-08T20:27:27", "lat": 47.20844367718286}, "geometry": {"type": "Point", "coordinates": [-1.540514488290191, 47.20844367718286]}, "type": "Feature"}, {"properties": {"bikes": 14, "lon": -1.552147986072217, "name": "00067-PLACE WALDECK ROUSSEAU", "stands": 5, "status": "OPEN", "address": "PLACE WALDECK ROUSSEAU", "update": "2016-02-08T20:21:50", "lat": 47.22777476106513}, "geometry": {"type": "Point", "coordinates": [-1.552147986072217, 47.22777476106513]}, "type": "Feature"}, {"properties": {"bikes": 14, "lon": -1.537581863003988, "name": "00057-GAETAN RONDEAU", "stands": 6, "status": "OPEN", "address": "GAETAN RONDEAU - 20 RUE GAETAN RONDEAU", "update": "2016-02-08T20:22:34", "lat": 47.205396132179104}, "geometry": {"type": "Point", "coordinates": [-1.537581863003988, 47.205396132179104]}, "type": "Feature"}, {"properties": {"bikes": 4, "lon": -1.536511118183477, "name": "00079-MALAKOFF", "stands": 11, "status": "OPEN", "address": "MALAKOFF - 15 QUAI MALAKOFF", "update": "2016-02-08T20:30:02", "lat": 47.213237140630014}, "geometry": {"type": "Point", "coordinates": [-1.536511118183477, 47.213237140630014]}, "type": "Feature"}, {"properties": {"bikes": 14, "lon": -1.571369360221906, "name": "00075-LAMORICIERE", "stands": 4, "status": "OPEN", "address": "LAMORICIERE - PLACE BEAUMANOIR", "update": "2016-02-08T20:25:33", "lat": 47.21230895884701}, "geometry": {"type": "Point", "coordinates": [-1.571369360221906, 47.21230895884701]}, "type": "Feature"}, {"properties": {"bikes": 7, "lon": -1.563308366869757, "name": "00018-PLACE VIARME", "stands": 7, "status": "OPEN", "address": "PLACE VIARME - 23 PLACE VIARME", "update": "2016-02-08T20:27:30", "lat": 47.22142933898549}, "geometry": {"type": "Point", "coordinates": [-1.563308366869757, 47.22142933898549]}, "type": "Feature"}, {"properties": {"bikes": 2, "lon": -1.556421138973112, "name": "00095-MICHELET", "stands": 23, "status": "OPEN", "address": "MICHELET - BD MICHELET", "update": "2016-02-08T20:20:29", "lat": 47.234687038295554}, "geometry": {"type": "Point", "coordinates": [-1.556421138973112, 47.234687038295554]}, "type": "Feature"}, {"properties": {"bikes": 4, "lon": -1.560022819676629, "name": "00085-BEL AIR", "stands": 10, "status": "OPEN", "address": "BEL AIR - 102 RUE PAUL BELLAMY", "update": "2016-02-08T20:26:00", "lat": 47.226394430986105}, "geometry": {"type": "Point", "coordinates": [-1.560022819676629, 47.226394430986105]}, "type": "Feature"}, {"properties": {"bikes": 9, "lon": -1.56605906933562, "name": "00092-DT PT RENNES", "stands": 11, "status": "OPEN", "address": "RD PT RENNES - ANGLE BD LE LASSEUR & RUE PAUL BELLAMY", "update": "2016-02-08T20:26:25", "lat": 47.23302818477594}, "geometry": {"type": "Point", "coordinates": [-1.56605906933562, 47.23302818477594]}, "type": "Feature"}, {"properties": {"bikes": 6, "lon": -1.539712888264826, "name": "00059-STADE SAUPIN", "stands": 9, "status": "OPEN", "address": "STADE SAUPIN - 35 QUAI MALAKOFF", "update": "2016-02-08T20:29:23", "lat": 47.21391161818379}, "geometry": {"type": "Point", "coordinates": [-1.539712888264826, 47.21391161818379]}, "type": "Feature"}, {"properties": {"bikes": 13, "lon": -1.549886024937758, "name": "00053-OLIVETTES", "stands": 2, "status": "OPEN", "address": "OLIVETTES - 10 RUE DES OLIVETTES", "update": "2016-02-08T20:30:01", "lat": 47.211736393222054}, "geometry": {"type": "Point", "coordinates": [-1.549886024937758, 47.211736393222054]}, "type": "Feature"}, {"properties": {"bikes": 8, "lon": -1.570515336280715, "name": "00076-PLACE REN\u00c9 BOUHIER", "stands": 7, "status": "OPEN", "address": "PLACE RENE BOUHIER - 8 PLACE RENE BOUHIER", "update": "2016-02-08T20:23:14", "lat": 47.209429092524424}, "geometry": {"type": "Point", "coordinates": [-1.570515336280715, 47.209429092524424]}, "type": "Feature"}, {"properties": {"bikes": 3, "lon": -1.557111680197571, "name": "00008-BOUCHERIE", "stands": 16, "status": "OPEN", "address": "BOUCHERIE - FACE AU 4 RUE DE LA BOUCHERIE", "update": "2016-02-08T20:22:06", "lat": 47.21620089258823}, "geometry": {"type": "Point", "coordinates": [-1.557111680197571, 47.21620089258823]}, "type": "Feature"}, {"properties": {"bikes": 10, "lon": -1.570438598073934, "name": "00073-SARRADIN", "stands": 3, "status": "OPEN", "address": "SARRADIN - FACE AU 4 PLACE SARRADIN", "update": "2016-02-08T20:28:22", "lat": 47.220882433018865}, "geometry": {"type": "Point", "coordinates": [-1.570438598073934, 47.220882433018865]}, "type": "Feature"}, {"properties": {"bikes": 6, "lon": -1.547058938534335, "name": "00049-DUCHESSE ANNE", "stands": 8, "status": "OPEN", "address": "DUCHESSE ANNE - 2 PLACE DE LA DUCHESSE ANNE", "update": "2016-02-08T20:27:49", "lat": 47.21651740326776}, "geometry": {"type": "Point", "coordinates": [-1.547058938534335, 47.21651740326776]}, "type": "Feature"}, {"properties": {"bikes": 17, "lon": -1.555309011107301, "name": "00093-FACULTES", "stands": 23, "status": "OPEN", "address": "FACULTES - ANGLE ROUTE DE LA JONELIERE & BD G. MOLLET", "update": "2016-02-08T20:27:49", "lat": 47.246298068423485}, "geometry": {"type": "Point", "coordinates": [-1.555309011107301, 47.246298068423485]}, "type": "Feature"}, {"properties": {"bikes": 10, "lon": -1.551849784370311, "name": "00048-VERDUN", "stands": 4, "status": "OPEN", "address": "VERDUN - 15 RUE DE VERDUN", "update": "2016-02-08T20:28:56", "lat": 47.217505374678645}, "geometry": {"type": "Point", "coordinates": [-1.551849784370311, 47.217505374678645]}, "type": "Feature"}, {"properties": {"bikes": 6, "lon": -1.55408380740881, "name": "00001-PREFECTURE", "stands": 19, "status": "OPEN", "address": "PREFECTURE - 5 QUAI CEINERAY", "update": "2016-02-08T20:29:34", "lat": 47.220255183724454}, "geometry": {"type": "Point", "coordinates": [-1.55408380740881, 47.220255183724454]}, "type": "Feature"}, {"properties": {"bikes": 11, "lon": -1.542404741250403, "name": "00023-BUAT", "stands": 0, "status": "OPEN", "address": "BUAT - 118 RUE DE COULMIERS", "update": "2016-02-08T20:27:22", "lat": 47.227145468224634}, "geometry": {"type": "Point", "coordinates": [-1.542404741250403, 47.227145468224634]}, "type": "Feature"}, {"properties": {"bikes": 5, "lon": -1.576612843727262, "name": "00090-PROCE", "stands": 10, "status": "OPEN", "address": "PROCE - ANGLE BD G. SERPETTE & BD A. PAGEOT", "update": "2016-02-08T20:29:17", "lat": 47.22419506173264}, "geometry": {"type": "Point", "coordinates": [-1.576612843727262, 47.22419506173264]}, "type": "Feature"}, {"properties": {"bikes": 5, "lon": -1.5502297, "name": "00032-FOCH", "stands": 10, "status": "OPEN", "address": "FOCH - PLACE FOCH", "update": "2016-02-08T20:25:09", "lat": 47.2191122}, "geometry": {"type": "Point", "coordinates": [-1.5502297, 47.2191122]}, "type": "Feature"}, {"properties": {"bikes": 4, "lon": -1.561570147641708, "name": "00017-SAINTE ELISABETH", "stands": 9, "status": "OPEN", "address": "SAINTE ELISABTEH - 3 PLACE STE ELISABETH", "update": "2016-02-08T20:23:13", "lat": 47.21921395261352}, "geometry": {"type": "Point", "coordinates": [-1.561570147641708, 47.21921395261352]}, "type": "Feature"}, {"properties": {"bikes": 8, "lon": -1.555269922656021, "name": "00029-DUGUAY TROUIN", "stands": 7, "status": "OPEN", "address": "DUGUAY TROUIN - 7 ALLEE DUGUAY TROUIN", "update": "2016-02-08T20:27:15", "lat": 47.213450231365094}, "geometry": {"type": "Point", "coordinates": [-1.555269922656021, 47.213450231365094]}, "type": "Feature"}, {"properties": {"bikes": 2, "lon": -1.550226242563373, "name": "00050-CHATEAU", "stands": 14, "status": "OPEN", "address": "CHATEAU - 2 RUE DES ETATS", "update": "2016-02-08T20:24:15", "lat": 47.21514969516256}, "geometry": {"type": "Point", "coordinates": [-1.550226242563373, 47.21514969516256]}, "type": "Feature"}, {"properties": {"bikes": 9, "lon": -1.5568245371939, "name": "00037-FEYDEAU", "stands": 12, "status": "OPEN", "address": "FEYDEAU - 1 ALLEE ILE GLORIETTE", "update": "2016-02-08T20:27:02", "lat": 47.211465063355035}, "geometry": {"type": "Point", "coordinates": [-1.5568245371939, 47.211465063355035]}, "type": "Feature"}, {"properties": {"bikes": 14, "lon": -1.567501842502272, "name": "00086-HAUTS PAV\u00c9S", "stands": 2, "status": "OPEN", "address": "HAUT PAVES - ANGLE RUE DE BERRY/RUE DES HAUTS PAVES", "update": "2016-02-08T20:28:30", "lat": 47.22547062698044}, "geometry": {"type": "Point", "coordinates": [-1.567501842502272, 47.22547062698044]}, "type": "Feature"}, {"properties": {"bikes": 8, "lon": -1.555233144631466, "name": "00039-QUAI MONCOUSU", "stands": 11, "status": "OPEN", "address": "QUAI MONCOUSU - 11 QUAI MONCOUSU", "update": "2016-02-08T20:23:20", "lat": 47.209406573873714}, "geometry": {"type": "Point", "coordinates": [-1.555233144631466, 47.209406573873714]}, "type": "Feature"}, {"properties": {"bikes": 12, "lon": -1.565543986075099, "name": "00035-JEAN V", "stands": 3, "status": "OPEN", "address": "JEAN V - 2 PLACE JEAN V", "update": "2016-02-08T20:26:42", "lat": 47.212168974412094}, "geometry": {"type": "Point", "coordinates": [-1.565543986075099, 47.212168974412094]}, "type": "Feature"}, {"properties": {"bikes": 14, "lon": -1.529959592703474, "name": "00025-DALBY", "stands": 1, "status": "OPEN", "address": "DALBY- 61 BD ERNEST DALBY FACE STATION SERVICE", "update": "2016-02-08T20:22:48", "lat": 47.223508869811994}, "geometry": {"type": "Point", "coordinates": [-1.529959592703474, 47.223508869811994]}, "type": "Feature"}, {"properties": {"bikes": 6, "lon": -1.561173077989395, "name": "00044-PALAIS DE JUSTICE", "stands": 19, "status": "OPEN", "address": "PALAIS DE JUSTICE - 19 QUAI FRANCOIS MITTERAND", "update": "2016-02-08T20:28:18", "lat": 47.20831728844152}, "geometry": {"type": "Point", "coordinates": [-1.561173077989395, 47.20831728844152]}, "type": "Feature"}, {"properties": {"bikes": 3, "lon": -1.536540663464699, "name": "00099-ST JACQUES", "stands": 12, "status": "OPEN", "address": "ST JACQUES - RUE ST JACQUES", "update": "2016-02-08T20:21:00", "lat": 47.1958989090141}, "geometry": {"type": "Point", "coordinates": [-1.536540663464699, 47.1958989090141]}, "type": "Feature"}, {"properties": {"bikes": 7, "lon": -1.551548484803203, "name": "00080 - VICTOR HUGO", "stands": 8, "status": "OPEN", "address": "VICTOR HUGO - BD VICTOR HUGO", "update": "2016-02-08T20:22:19", "lat": 47.204003208491145}, "geometry": {"type": "Point", "coordinates": [-1.551548484803203, 47.204003208491145]}, "type": "Feature"}, {"properties": {"bikes": 6, "lon": -1.545905939112105, "name": "00061-LU - LIEU UNIQUE", "stands": 9, "status": "OPEN", "address": "LIEU UNIQUE - FACE 23 QUAI FERDINAND FAVRE", "update": "2016-02-08T20:29:45", "lat": 47.215591463959825}, "geometry": {"type": "Point", "coordinates": [-1.545905939112105, 47.215591463959825]}, "type": "Feature"}, {"properties": {"bikes": 8, "lon": -1.556476339327795, "name": "00021-MARCHE TALENSAC SUD", "stands": 8, "status": "OPEN", "address": "MARCHE TALENSAC SUD - 6 RUE TALENSAC", "update": "2016-02-08T20:22:18", "lat": 47.22114332912908}, "geometry": {"type": "Point", "coordinates": [-1.556476339327795, 47.22114332912908]}, "type": "Feature"}, {"properties": {"bikes": 7, "lon": -1.558940746690739, "name": "00071-MARCHE TALENSAC NORD", "stands": 6, "status": "OPEN", "address": "MARCHE TALENSAC NORD - 18 RUE TALENSAC", "update": "2016-02-08T20:28:11", "lat": 47.22185363818837}, "geometry": {"type": "Point", "coordinates": [-1.558940746690739, 47.22185363818837]}, "type": "Feature"}, {"properties": {"bikes": 12, "lon": -1.569524048742154, "name": "00041-CHANTIER NAVAL", "stands": 3, "status": "OPEN", "address": "CHANTIER NAVAL - 87 QUAI DE LA FOSSE", "update": "2016-02-08T20:20:15", "lat": 47.208357479819504}, "geometry": {"type": "Point", "coordinates": [-1.569524048742154, 47.208357479819504]}, "type": "Feature"}, {"properties": {"bikes": 0, "lon": -1.563900673465861, "name": "00012-PLACE DELORME", "stands": 20, "status": "OPEN", "address": "PLACE DELORME", "update": "2016-02-08T20:24:15", "lat": 47.21515818868574}, "geometry": {"type": "Point", "coordinates": [-1.563900673465861, 47.21515818868574]}, "type": "Feature"}, {"properties": {"bikes": 8, "lon": -1.550828036456355, "name": "00098-HUIT MAI", "stands": 7, "status": "OPEN", "address": "HUIT MAI - AVENUE DE LA LIBERATION - REZE", "update": "2016-02-08T20:23:48", "lat": 47.18921204751304}, "geometry": {"type": "Point", "coordinates": [-1.550828036456355, 47.18921204751304]}, "type": "Feature"}, {"properties": {"bikes": 4, "lon": -1.567004526265165, "name": "00026-GUIST'HAU SUD", "stands": 11, "status": "OPEN", "address": "GUIST'HAU SUD - 26 BOULEVARD GUIST'HAU", "update": "2016-02-08T20:28:49", "lat": 47.21682795997449}, "geometry": {"type": "Point", "coordinates": [-1.567004526265165, 47.21682795997449]}, "type": "Feature"}, {"properties": {"bikes": 5, "lon": -1.548750555741977, "name": "00052-BACO", "stands": 10, "status": "OPEN", "address": "BACO - FACE AU 8 ALLEE BACO", "update": "2016-02-08T20:20:25", "lat": 47.214327524589145}, "geometry": {"type": "Point", "coordinates": [-1.548750555741977, 47.214327524589145]}, "type": "Feature"}, {"properties": {"bikes": 11, "lon": -1.560675283700123, "name": "00011-CALVAIRE", "stands": 4, "status": "OPEN", "address": "CALVAIRE - PL.DES VOLONTAIRES DE LA DEFENSE PASSIVE", "update": "2016-02-08T20:21:45", "lat": 47.215578942427136}, "geometry": {"type": "Point", "coordinates": [-1.560675283700123, 47.215578942427136]}, "type": "Feature"}, {"properties": {"bikes": 8, "lon": -1.544718964531585, "name": "00063-JARDIN DES PLANTES", "stands": 7, "status": "OPEN", "address": "JARDIN DES PLANTES - 6 RUE STANILAS BAUDRY", "update": "2016-02-08T20:26:04", "lat": 47.219834197318974}, "geometry": {"type": "Point", "coordinates": [-1.544718964531585, 47.219834197318974]}, "type": "Feature"}, {"properties": {"bikes": 7, "lon": -1.563419484053747, "name": "00016-PLACE EDOUARD NORMAND", "stands": 8, "status": "OPEN", "address": "PLACE EDOUARD NORMAND - FACE AU 7 PLACE EDOUARD NORMAND", "update": "2016-02-08T20:29:34", "lat": 47.21902754473837}, "geometry": {"type": "Point", "coordinates": [-1.563419484053747, 47.21902754473837]}, "type": "Feature"}, {"properties": {"bikes": 5, "lon": -1.577175414321782, "name": "00088-MELLINET", "stands": 10, "status": "OPEN", "address": "MELLINET - 1 BD ALLARD", "update": "2016-02-08T20:27:17", "lat": 47.211501070117826}, "geometry": {"type": "Point", "coordinates": [-1.577175414321782, 47.211501070117826]}, "type": "Feature"}, {"properties": {"bikes": 15, "lon": -1.542844, "name": "00070-GARE SUD 2", "stands": 15, "status": "OPEN", "address": "Quai Malakoff - c\u00f4t\u00e9 canal st F\u00e9lix", "update": "2016-02-08T20:29:42", "lat": 47.215505}, "geometry": {"type": "Point", "coordinates": [-1.542844, 47.215505]}, "type": "Feature"}, {"properties": {"bikes": 0, "lon": -1.5543847138777, "name": "00004-MOULIN", "stands": 13, "status": "OPEN", "address": "MOULIN - FACE AU 18 RUE DU MOULIN", "update": "2016-02-08T20:21:58", "lat": 47.216667582015184}, "geometry": {"type": "Point", "coordinates": [-1.5543847138777, 47.216667582015184]}, "type": "Feature"}, {"properties": {"bikes": 7, "lon": -1.549221766809888, "name": "00096-TORTIERE", "stands": 9, "status": "OPEN", "address": "TORTIERE - BD EUGENE ORIEUX", "update": "2016-02-08T20:28:22", "lat": 47.235335222208626}, "geometry": {"type": "Point", "coordinates": [-1.549221766809888, 47.235335222208626]}, "type": "Feature"}, {"properties": {"bikes": 8, "lon": -1.547099233718495, "name": "00064-SAINT CLEMENT", "stands": 7, "status": "OPEN", "address": "SAINT CLEMENT - FACE AU 37 RUE DU MARECHAL JOFFRE", "update": "2016-02-08T20:23:24", "lat": 47.221785183522634}, "geometry": {"type": "Point", "coordinates": [-1.547099233718495, 47.221785183522634]}, "type": "Feature"}, {"properties": {"bikes": 10, "lon": -1.559017485167438, "name": "00009-GUEPIN", "stands": 3, "status": "OPEN", "address": "GUEPIN - 8 RUE DE L'ARCHE SECHE", "update": "2016-02-08T20:29:13", "lat": 47.215814587139455}, "geometry": {"type": "Point", "coordinates": [-1.559017485167438, 47.215814587139455]}, "type": "Feature"}, {"properties": {"bikes": 0, "lon": -1.563140874431397, "name": "00033-RACINE", "stands": 15, "status": "OPEN", "address": "RACINE - 4 RUE RACINE", "update": "2016-02-08T20:22:04", "lat": 47.213522613719896}, "geometry": {"type": "Point", "coordinates": [-1.563140874431397, 47.213522613719896]}, "type": "Feature"}, {"properties": {"bikes": 34, "lon": -1.542847782057658, "name": "00060-GARE SUD", "stands": 6, "status": "OPEN", "address": "GARE SUD - FACE 12 RUE LOURMEL", "update": "2016-02-08T20:21:33", "lat": 47.215919436013635}, "geometry": {"type": "Point", "coordinates": [-1.542847782057658, 47.215919436013635]}, "type": "Feature"}, {"properties": {"bikes": 11, "lon": -1.553711961402328, "name": "00024-VERSAILLES", "stands": 4, "status": "OPEN", "address": "VERSAILLES - FACE AU 25 QUAI DE VERSAILLES", "update": "2016-02-08T20:28:52", "lat": 47.22451490719107}, "geometry": {"type": "Point", "coordinates": [-1.553711961402328, 47.22451490719107]}, "type": "Feature"}, {"properties": {"bikes": 6, "lon": -1.533118244923623, "name": "00082-SEBILLEAU", "stands": 10, "status": "OPEN", "address": "SEBILLEAU - 9 RUE GAETAN RONDEAU", "update": "2016-02-08T20:27:56", "lat": 47.206757512308414}, "geometry": {"type": "Point", "coordinates": [-1.533118244923623, 47.206757512308414]}, "type": "Feature"}, {"properties": {"bikes": 5, "lon": -1.556749263076553, "name": "00005-BROSSARD", "stands": 10, "status": "OPEN", "address": "BROSSARD - 25 RUE ARMAND BROSSARD", "update": "2016-02-08T20:30:06", "lat": 47.218837230469425}, "geometry": {"type": "Point", "coordinates": [-1.556749263076553, 47.218837230469425]}, "type": "Feature"}, {"properties": {"bikes": 14, "lon": -1.54156809120326, "name": "00101 - PIRMIL", "stands": 14, "status": "OPEN", "address": "PIRMIL - RUE ESNOUL DES CHATELETS", "update": "2016-02-08T20:23:22", "lat": 47.1965313642396}, "geometry": {"type": "Point", "coordinates": [-1.54156809120326, 47.1965313642396]}, "type": "Feature"}, {"properties": {"bikes": 13, "lon": -1.534717540470481, "name": "00100 - GRENERAIE", "stands": 7, "status": "OPEN", "address": "GRENERAIE - PARC DE LA GRENERAIE", "update": "2016-02-08T20:24:33", "lat": 47.199923092905216}, "geometry": {"type": "Point", "coordinates": [-1.534717540470481, 47.199923092905216]}, "type": "Feature"}, {"properties": {"bikes": 16, "lon": -1.544952541668585, "name": "00054- CITE INTERNATIONALE DES CONGRES", "stands": 14, "status": "OPEN", "address": "CITE INTERNATIONAL DES CONGRES - 2 RUE DE JEMMAPES", "update": "2016-02-08T20:28:39", "lat": 47.213180085527846}, "geometry": {"type": "Point", "coordinates": [-1.544952541668585, 47.213180085527846]}, "type": "Feature"}, {"properties": {"bikes": 5, "lon": -1.567568016663838, "name": "00028- PLACE DE L'EDIT NANTES", "stands": 8, "status": "OPEN", "address": "PLACE DE L'EDIT DE NANTES", "update": "2016-02-08T20:24:15", "lat": 47.21446342738575}, "geometry": {"type": "Point", "coordinates": [-1.567568016663838, 47.21446342738575]}, "type": "Feature"}, {"properties": {"bikes": 12, "lon": -1.545212434215091, "name": "00068-LIVET", "stands": 3, "status": "OPEN", "address": "LIVET - FACE AU 65 RUE DU FOUR", "update": "2016-02-08T20:23:41", "lat": 47.22406787948748}, "geometry": {"type": "Point", "coordinates": [-1.545212434215091, 47.22406787948748]}, "type": "Feature"}, {"properties": {"bikes": 15, "lon": -1.551666442545979, "name": "00065-COURS SULLY", "stands": 0, "status": "OPEN", "address": "COURS SULLY - FACE AU 9 COURS SULLY", "update": "2016-02-08T20:22:36", "lat": 47.222587339906696}, "geometry": {"type": "Point", "coordinates": [-1.551666442545979, 47.222587339906696]}, "type": "Feature"}, {"properties": {"bikes": 3, "lon": -1.559161066618992, "name": "00013-BRETAGNE SUD", "stands": 17, "status": "OPEN", "address": "BRETAGNE SUD - 1 RUE PIERRE CHEREAU", "update": "2016-02-08T20:22:32", "lat": 47.216787949913034}, "geometry": {"type": "Point", "coordinates": [-1.559161066618992, 47.216787949913034]}, "type": "Feature"}, {"properties": {"bikes": 4, "lon": -1.556937645378872, "name": "00006-PLACE DU CIRQUE", "stands": 11, "status": "OPEN", "address": "PLACE DU CIRQUE - 7 ALLEE DUQUESNE", "update": "2016-02-08T20:26:50", "lat": 47.21759668240601}, "geometry": {"type": "Point", "coordinates": [-1.556937645378872, 47.21759668240601]}, "type": "Feature"}], "type": "FeatureCollection"}