<<<<<<< HEAD
{"type": "FeatureCollection", "features": [{"geometry": {"coordinates": [-1.553049129320471, 47.212108463141774], "type": "Point"}, "type": "Feature", "properties": {"bikes": 3, "update": "2016-02-08T21:15:57", "name": "00038-PLACE RICORDEAU", "address": "PLACE RICORDEAU", "lon": -1.553049129320471, "status": "OPEN", "stands": 37, "lat": 47.212108463141774}}, {"geometry": {"coordinates": [-1.547999925907375, 47.22542988533347], "type": "Point"}, "type": "Feature", "properties": {"bikes": 8, "update": "2016-02-08T21:16:06", "name": "00066-CHANZY", "address": "CHANZY - FACE AU 23 AVENUE DE CHANZY", "lon": -1.547999925907375, "status": "OPEN", "stands": 7, "lat": 47.22542988533347}}, {"geometry": {"coordinates": [-1.55154060534636, 47.216479771820744], "type": "Point"}, "type": "Feature", "properties": {"bikes": 8, "update": "2016-02-08T21:15:41", "name": "00003-STRASBOURG", "address": "STRASBOURG - PLACE TIRANT LO BLANC", "lon": -1.55154060534636, "status": "OPEN", "stands": 7, "lat": 47.216479771820744}}, {"geometry": {"coordinates": [-1.553484290392954, 47.21857181309145], "type": "Point"}, "type": "Feature", "properties": {"bikes": 10, "update": "2016-02-08T21:15:31", "name": "00002-H\u00d4TEL DE VILLE", "address": "H\u00d4TEL DE VILLE - FACE AU 29 RUE DE STRASBOURG", "lon": -1.553484290392954, "status": "OPEN", "stands": 10, "lat": 47.21857181309145}}, {"geometry": {"coordinates": [-1.564806790782994, 47.20691895869599], "type": "Point"}, "type": "Feature", "properties": {"bikes": 9, "update": "2016-02-08T21:15:18", "name": "00043 - MACHINE DE L'\u00ceLE", "address": "MACHINE DE L'\u00ceLE - 3 BD LEON BUREAU", "lon": -1.564806790782994, "status": "OPEN", "stands": 21, "lat": 47.20691895869599}}, {"geometry": {"coordinates": [-1.525933451925082, 47.21074214218137], "type": "Point"}, "type": "Feature", "properties": {"bikes": 14, "update": "2016-02-08T21:11:35", "name": "00084-R\u00c9GION", "address": "REGION - RUE DE LA LOIRE", "lon": -1.525933451925082, "status": "OPEN", "stands": 5, "lat": 47.21074214218137}}, {"geometry": {"coordinates": [-1.550411914119152, 47.208804642437784], "type": "Point"}, "type": "Feature", "properties": {"bikes": 14, "update": "2016-02-08T21:14:36", "name": "00040-MADELEINE", "address": "MADELEINE - 2 QUAI MONCOUSU", "lon": -1.550411914119152, "status": "OPEN", "stands": 1, "lat": 47.208804642437784}}, {"geometry": {"coordinates": [-1.555531041936261, 47.220392126691955], "type": "Point"}, "type": "Feature", "properties": {"bikes": 12, "update": "2016-02-08T21:14:24", "name": "00022-MOQUECHIEN", "address": "MOQUECHIEN - 8 RUE MOQUECHIEN", "lon": -1.555531041936261, "status": "OPEN", "stands": 4, "lat": 47.220392126691955}}, {"geometry": {"coordinates": [-1.572610286970505, 47.20659772898787], "type": "Point"}, "type": "Feature", "properties": {"bikes": 9, "update": "2016-02-08T21:07:12", "name": "00042-GARE MARITIME", "address": "GARE MARITIME - PLACE JACKSONVILLE", "lon": -1.572610286970505, "status": "OPEN", "stands": 16, "lat": 47.20659772898787}}, {"geometry": {"coordinates": [-1.549291898557657, 47.19280351379784], "type": "Point"}, "type": "Feature", "properties": {"bikes": 10, "update": "2016-02-08T21:13:01", "name": "00102-GARE PT ROUSSEAU", "address": "GARE PONT ROUSSEAU - RUE DE LA GARE - REZE", "lon": -1.549291898557657, "status": "OPEN", "stands": 9, "lat": 47.19280351379784}}, {"geometry": {"coordinates": [-1.541777739850638, 47.206798618575256], "type": "Point"}, "type": "Feature", "properties": {"bikes": 3, "update": "2016-02-08T21:06:45", "name": "00056-VINCENT GACHE", "address": "VINCENT GACHE - 9 RUE FRANCOIS ALBERT", "lon": -1.541777739850638, "status": "OPEN", "stands": 12, "lat": 47.206798618575256}}, {"geometry": {"coordinates": [-1.556126125975167, 47.215331358010445], "type": "Point"}, "type": "Feature", "properties": {"bikes": 11, "update": "2016-02-08T21:13:12", "name": "00007- BARILLERIE", "address": "BARILLERIE - 2 ALLEE PENTHIEVRE", "lon": -1.556126125975167, "status": "OPEN", "stands": 4, "lat": 47.215331358010445}}, {"geometry": {"coordinates": [-1.55892310936669, 47.204783935599195], "type": "Point"}, "type": "Feature", "properties": {"bikes": 8, "update": "2016-02-08T21:09:19", "name": "00045-PRAIRIE AU DUC", "address": "PRAIRIE AU DUC - 40 BOULEVARD DE LA PRAIRIE AU DUC", "lon": -1.55892310936669, "status": "OPEN", "stands": 5, "lat": 47.204783935599195}}, {"geometry": {"coordinates": [-1.568490581479757, 47.206384991216765], "type": "Point"}, "type": "Feature", "properties": {"bikes": 2, "update": "2016-02-08T21:13:29", "name": "00103 - STATION MOBILE", "address": "ILE DE NANTES PARC DES CHANTIERS A COTE DU CARROUSEL  (Station mobile)", "lon": -1.568490581479757, "status": "OPEN", "stands": 17, "lat": 47.206384991216765}}, {"geometry": {"coordinates": [-1.534184544523239, 47.216369613307506], "type": "Point"}, "type": "Feature", "properties": {"bikes": 2, "update": "2016-02-08T21:15:33", "name": "00010- PICASSO", "address": "PICASSO - RUE PABLO PICASSO", "lon": -1.534184544523239, "status": "OPEN", "stands": 26, "lat": 47.216369613307506}}, {"geometry": {"coordinates": [-1.542208634875899, 47.218132613316826], "type": "Point"}, "type": "Feature", "properties": {"bikes": 34, "update": "2016-02-08T21:09:56", "name": "00062-GARE NORD", "address": "GARE NORD - 1 PLACE CHARLES LE ROUX", "lon": -1.542208634875899, "status": "OPEN", "stands": 6, "lat": 47.218132613316826}}, {"geometry": {"coordinates": [-1.535981000861306, 47.208466072191925], "type": "Point"}, "type": "Feature", "properties": {"bikes": 0, "update": "2016-02-08T21:12:49", "name": "00058-PALAIS DES SPORTS", "address": "PALAIS DES SPORTS - 21 RUE RENE VIVIANI", "lon": -1.535981000861306, "status": "OPEN", "stands": 15, "lat": 47.208466072191925}}, {"geometry": {"coordinates": [-1.556344610167984, 47.243263914975486], "type": "Point"}, "type": "Feature", "properties": {"bikes": 9, "update": "2016-02-08T21:10:26", "name": "00094-PETIT PORT", "address": "PETIT PORT - BD DU PETIT PORT", "lon": -1.556344610167984, "status": "OPEN", "stands": 11, "lat": 47.243263914975486}}, {"geometry": {"coordinates": [-1.559086551239872, 47.212083030753185], "type": "Point"}, "type": "Feature", "properties": {"bikes": 14, "update": "2016-02-08T21:10:21", "name": "00031-BOURSE", "address": "BOURSE - SQUARE DE LA BOURSE", "lon": -1.559086551239872, "status": "OPEN", "stands": 2, "lat": 47.212083030753185}}, {"geometry": {"coordinates": [-1.574924617192968, 47.21433366088933], "type": "Point"}, "type": "Feature", "properties": {"bikes": 5, "update": "2016-02-08T21:12:44", "name": "00074-CANCLAUX", "address": "CANCLAUX - 8 PLACE CANCLAUX", "lon": -1.574924617192968, "status": "OPEN", "stands": 10, "lat": 47.21433366088933}}, {"geometry": {"coordinates": [-1.561806393011127, 47.22862569057461], "type": "Point"}, "type": "Feature", "properties": {"bikes": 8, "update": "2016-02-08T21:06:48", "name": "00072-BELLAMY-GU\u00c9 MOREAU", "address": "Bellamy-Gu\u00e9 Moreau-138 rue Paul Bellamy", "lon": -1.561806393011127, "status": "OPEN", "stands": 7, "lat": 47.22862569057461}}, {"geometry": {"coordinates": [-1.558920890474776, 47.219854467329974], "type": "Point"}, "type": "Feature", "properties": {"bikes": 5, "update": "2016-02-08T21:11:41", "name": "00019-SAINT SIMILIEN", "address": "SAINT SIMILIEN - 1 PLACE SAINT SIMILIEN", "lon": -1.558920890474776, "status": "OPEN", "stands": 10, "lat": 47.219854467329974}}, {"geometry": {"coordinates": [-1.529735885980363, 47.21419463149648], "type": "Point"}, "type": "Feature", "properties": {"bikes": 9, "update": "2016-02-08T21:14:16", "name": "00051-TABARLY", "address": "AVENUE DE BERLIN DEVANT MAISON DE QUARTIER", "lon": -1.529735885980363, "status": "OPEN", "stands": 11, "lat": 47.21419463149648}}, {"geometry": {"coordinates": [-1.578689264310988, 47.20743863754715], "type": "Point"}, "type": "Feature", "properties": {"bikes": 5, "update": "2016-02-08T21:07:19", "name": "00089-SAINT-AIGNAN", "address": "SAINT AIGNAN - 65 BD ST AIGNAN", "lon": -1.578689264310988, "status": "OPEN", "stands": 9, "lat": 47.20743863754715}}, {"geometry": {"coordinates": [-1.557532467914316, 47.207605640212115], "type": "Point"}, "type": "Feature", "properties": {"bikes": 6, "update": "2016-02-08T21:10:52", "name": "00077-ECOLE D'ARCHITECTURE", "address": "ECOLE D'ARCHITECTURE - QUAI F MITTERRAND", "lon": -1.557532467914316, "status": "OPEN", "stands": 19, "lat": 47.207605640212115}}, {"geometry": {"coordinates": [-1.571373578112414, 47.223604815399085], "type": "Point"}, "type": "Feature", "properties": {"bikes": 11, "update": "2016-02-08T21:12:22", "name": "00087-ANATOLE FRANCE", "address": "ANATOLE FRANCE - 41 RUE ALEXANDRE DUMAS", "lon": -1.571373578112414, "status": "OPEN", "stands": 4, "lat": 47.223604815399085}}, {"geometry": {"coordinates": [-1.548161311046709, 47.20702417983412], "type": "Point"}, "type": "Feature", "properties": {"bikes": 6, "update": "2016-02-08T21:14:31", "name": "00047- MARTYRS NANTAIS", "address": "MARTYRS NANTAIS - 1 BD DES MARTYRS NANTAIS", "lon": -1.548161311046709, "status": "OPEN", "stands": 9, "lat": 47.20702417983412}}, {"geometry": {"coordinates": [-1.540292594289221, 47.22908808709286], "type": "Point"}, "type": "Feature", "properties": {"bikes": 15, "update": "2016-02-08T21:09:01", "name": "00097-SAINT DONATIEN", "address": "SAINT DONATIEN - PLACE DU 51\u00e9me RIMA", "lon": -1.540292594289221, "status": "OPEN", "stands": 5, "lat": 47.22908808709286}}, {"geometry": {"coordinates": [-1.557393235628245, 47.21312055103121], "type": "Point"}, "type": "Feature", "properties": {"bikes": 17, "update": "2016-02-08T21:16:04", "name": "00030-COMMERCE", "address": "COMMERCE - FACE PLACE DU COMMERCE", "lon": -1.557393235628245, "status": "OPEN", "stands": 22, "lat": 47.21312055103121}}, {"geometry": {"coordinates": [-1.569171883302444, 47.21792981632508], "type": "Point"}, "type": "Feature", "properties": {"bikes": 8, "update": "2016-02-08T21:13:22", "name": "00027-GUIST'HAU NORD", "address": "GUIST'HAU NORD - 42 BD GUIST'HAU", "lon": -1.569171883302444, "status": "OPEN", "stands": 7, "lat": 47.21792981632508}}, {"geometry": {"coordinates": [-1.562986793288367, 47.21718482329023], "type": "Point"}, "type": "Feature", "properties": {"bikes": 10, "update": "2016-02-08T21:12:16", "name": "00015-PLACE ARISTIDE BRIAND", "address": "PLACE ARISTIDE BRIAND", "lon": -1.562986793288367, "status": "OPEN", "stands": 7, "lat": 47.21718482329023}}, {"geometry": {"coordinates": [-1.530180435959972, 47.208199645038825], "type": "Point"}, "type": "Feature", "properties": {"bikes": 11, "update": "2016-02-08T21:15:44", "name": "00083-MILLERAND", "address": "MILLERAND - 9 BD ALEXANDRE MILLERAND", "lon": -1.530180435959972, "status": "OPEN", "stands": 3, "lat": 47.208199645038825}}, {"geometry": {"coordinates": [-1.561744905652581, 47.210886925815934], "type": "Point"}, "type": "Feature", "properties": {"bikes": 7, "update": "2016-02-08T21:09:30", "name": "00034-MEDIATHEQUE", "address": "MEDIATHEQUE - 24 QUAI DE LA FOSSE", "lon": -1.561744905652581, "status": "OPEN", "stands": 13, "lat": 47.210886925815934}}, {"geometry": {"coordinates": [-1.572114577993728, 47.229580605369215], "type": "Point"}, "type": "Feature", "properties": {"bikes": 9, "update": "2016-02-08T21:13:20", "name": "00091-RD PT VANNES", "address": "RD PT VANNES - 65 BD LE LASSEUR", "lon": -1.572114577993728, "status": "OPEN", "stands": 7, "lat": 47.229580605369215}}, {"geometry": {"coordinates": [-1.555183107916184, 47.20532409029517], "type": "Point"}, "type": "Feature", "properties": {"bikes": 16, "update": "2016-02-08T21:10:20", "name": "00046-PLACE REPUBLIQUE", "address": "PLACE DE LA REPUBLIQUE - 3 PLACE DE LA REPUBLIQUE", "lon": -1.555183107916184, "status": "OPEN", "stands": 4, "lat": 47.20532409029517}}, {"geometry": {"coordinates": [-1.557229797031573, 47.222902006053054], "type": "Point"}, "type": "Feature", "properties": {"bikes": 3, "update": "2016-02-08T21:15:36", "name": "00020-BELLAMY", "address": "BELLAMY - 50 RUE PAUL BELLAMY", "lon": -1.557229797031573, "status": "OPEN", "stands": 12, "lat": 47.222902006053054}}, {"geometry": {"coordinates": [-1.545507251231619, 47.20095551723967], "type": "Point"}, "type": "Feature", "properties": {"bikes": 6, "update": "2016-02-08T21:08:08", "name": "00081 - MANGIN", "address": "MANGIN - DEV 8 PLACE MANGIN", "lon": -1.545507251231619, "status": "OPEN", "stands": 8, "lat": 47.20095551723967}}, {"geometry": {"coordinates": [-1.544298470945214, 47.21078140655944], "type": "Point"}, "type": "Feature", "properties": {"bikes": 13, "update": "2016-02-08T21:13:24", "name": "00055-MAGELLAN", "address": "MAGELLAN - 11 RUE DE BELFORT", "lon": -1.544298470945214, "status": "OPEN", "stands": 2, "lat": 47.21078140655944}}, {"geometry": {"coordinates": [-1.540514488290191, 47.20844367718286], "type": "Point"}, "type": "Feature", "properties": {"bikes": 2, "update": "2016-02-08T21:07:40", "name": "00078-DE GAULLE", "address": "DE GAULLE - PONT A. BRIAND / BD DE GAULLE", "lon": -1.540514488290191, "status": "OPEN", "stands": 13, "lat": 47.20844367718286}}, {"geometry": {"coordinates": [-1.552147986072217, 47.22777476106513], "type": "Point"}, "type": "Feature", "properties": {"bikes": 14, "update": "2016-02-08T21:12:05", "name": "00067-PLACE WALDECK ROUSSEAU", "address": "PLACE WALDECK ROUSSEAU", "lon": -1.552147986072217, "status": "OPEN", "stands": 5, "lat": 47.22777476106513}}, {"geometry": {"coordinates": [-1.537581863003988, 47.205396132179104], "type": "Point"}, "type": "Feature", "properties": {"bikes": 14, "update": "2016-02-08T21:12:59", "name": "00057-GAETAN RONDEAU", "address": "GAETAN RONDEAU - 20 RUE GAETAN RONDEAU", "lon": -1.537581863003988, "status": "OPEN", "stands": 6, "lat": 47.205396132179104}}, {"geometry": {"coordinates": [-1.536511118183477, 47.213237140630014], "type": "Point"}, "type": "Feature", "properties": {"bikes": 4, "update": "2016-02-08T21:10:16", "name": "00079-MALAKOFF", "address": "MALAKOFF - 15 QUAI MALAKOFF", "lon": -1.536511118183477, "status": "OPEN", "stands": 11, "lat": 47.213237140630014}}, {"geometry": {"coordinates": [-1.571369360221906, 47.21230895884701], "type": "Point"}, "type": "Feature", "properties": {"bikes": 13, "update": "2016-02-08T21:13:53", "name": "00075-LAMORICIERE", "address": "LAMORICIERE - PLACE BEAUMANOIR", "lon": -1.571369360221906, "status": "OPEN", "stands": 5, "lat": 47.21230895884701}}, {"geometry": {"coordinates": [-1.563308366869757, 47.22142933898549], "type": "Point"}, "type": "Feature", "properties": {"bikes": 8, "update": "2016-02-08T21:14:39", "name": "00018-PLACE VIARME", "address": "PLACE VIARME - 23 PLACE VIARME", "lon": -1.563308366869757, "status": "OPEN", "stands": 6, "lat": 47.22142933898549}}, {"geometry": {"coordinates": [-1.556421138973112, 47.234687038295554], "type": "Point"}, "type": "Feature", "properties": {"bikes": 2, "update": "2016-02-08T21:10:48", "name": "00095-MICHELET", "address": "MICHELET - BD MICHELET", "lon": -1.556421138973112, "status": "OPEN", "stands": 23, "lat": 47.234687038295554}}, {"geometry": {"coordinates": [-1.560022819676629, 47.226394430986105], "type": "Point"}, "type": "Feature", "properties": {"bikes": 4, "update": "2016-02-08T21:16:17", "name": "00085-BEL AIR", "address": "BEL AIR - 102 RUE PAUL BELLAMY", "lon": -1.560022819676629, "status": "OPEN", "stands": 10, "lat": 47.226394430986105}}, {"geometry": {"coordinates": [-1.56605906933562, 47.23302818477594], "type": "Point"}, "type": "Feature", "properties": {"bikes": 9, "update": "2016-02-08T21:06:37", "name": "00092-DT PT RENNES", "address": "RD PT RENNES - ANGLE BD LE LASSEUR & RUE PAUL BELLAMY", "lon": -1.56605906933562, "status": "OPEN", "stands": 11, "lat": 47.23302818477594}}, {"geometry": {"coordinates": [-1.539712888264826, 47.21391161818379], "type": "Point"}, "type": "Feature", "properties": {"bikes": 6, "update": "2016-02-08T21:09:37", "name": "00059-STADE SAUPIN", "address": "STADE SAUPIN - 35 QUAI MALAKOFF", "lon": -1.539712888264826, "status": "OPEN", "stands": 9, "lat": 47.21391161818379}}, {"geometry": {"coordinates": [-1.549886024937758, 47.211736393222054], "type": "Point"}, "type": "Feature", "properties": {"bikes": 11, "update": "2016-02-08T21:15:36", "name": "00053-OLIVETTES", "address": "OLIVETTES - 10 RUE DES OLIVETTES", "lon": -1.549886024937758, "status": "OPEN", "stands": 4, "lat": 47.211736393222054}}, {"geometry": {"coordinates": [-1.570515336280715, 47.209429092524424], "type": "Point"}, "type": "Feature", "properties": {"bikes": 10, "update": "2016-02-08T21:15:27", "name": "00076-PLACE REN\u00c9 BOUHIER", "address": "PLACE RENE BOUHIER - 8 PLACE RENE BOUHIER", "lon": -1.570515336280715, "status": "OPEN", "stands": 5, "lat": 47.209429092524424}}, {"geometry": {"coordinates": [-1.557111680197571, 47.21620089258823], "type": "Point"}, "type": "Feature", "properties": {"bikes": 2, "update": "2016-02-08T21:11:46", "name": "00008-BOUCHERIE", "address": "BOUCHERIE - FACE AU 4 RUE DE LA BOUCHERIE", "lon": -1.557111680197571, "status": "OPEN", "stands": 17, "lat": 47.21620089258823}}, {"geometry": {"coordinates": [-1.570438598073934, 47.220882433018865], "type": "Point"}, "type": "Feature", "properties": {"bikes": 10, "update": "2016-02-08T21:08:44", "name": "00073-SARRADIN", "address": "SARRADIN - FACE AU 4 PLACE SARRADIN", "lon": -1.570438598073934, "status": "OPEN", "stands": 3, "lat": 47.220882433018865}}, {"geometry": {"coordinates": [-1.547058938534335, 47.21651740326776], "type": "Point"}, "type": "Feature", "properties": {"bikes": 5, "update": "2016-02-08T21:15:25", "name": "00049-DUCHESSE ANNE", "address": "DUCHESSE ANNE - 2 PLACE DE LA DUCHESSE ANNE", "lon": -1.547058938534335, "status": "OPEN", "stands": 9, "lat": 47.21651740326776}}, {"geometry": {"coordinates": [-1.555309011107301, 47.246298068423485], "type": "Point"}, "type": "Feature", "properties": {"bikes": 17, "update": "2016-02-08T21:08:05", "name": "00093-FACULTES", "address": "FACULTES - ANGLE ROUTE DE LA JONELIERE & BD G. MOLLET", "lon": -1.555309011107301, "status": "OPEN", "stands": 23, "lat": 47.246298068423485}}, {"geometry": {"coordinates": [-1.551849784370311, 47.217505374678645], "type": "Point"}, "type": "Feature", "properties": {"bikes": 12, "update": "2016-02-08T21:13:35", "name": "00048-VERDUN", "address": "VERDUN - 15 RUE DE VERDUN", "lon": -1.551849784370311, "status": "OPEN", "stands": 2, "lat": 47.217505374678645}}, {"geometry": {"coordinates": [-1.55408380740881, 47.220255183724454], "type": "Point"}, "type": "Feature", "properties": {"bikes": 8, "update": "2016-02-08T21:13:03", "name": "00001-PREFECTURE", "address": "PREFECTURE - 5 QUAI CEINERAY", "lon": -1.55408380740881, "status": "OPEN", "stands": 17, "lat": 47.220255183724454}}, {"geometry": {"coordinates": [-1.542404741250403, 47.227145468224634], "type": "Point"}, "type": "Feature", "properties": {"bikes": 11, "update": "2016-02-08T21:07:32", "name": "00023-BUAT", "address": "BUAT - 118 RUE DE COULMIERS", "lon": -1.542404741250403, "status": "OPEN", "stands": 0, "lat": 47.227145468224634}}, {"geometry": {"coordinates": [-1.576612843727262, 47.22419506173264], "type": "Point"}, "type": "Feature", "properties": {"bikes": 6, "update": "2016-02-08T21:10:48", "name": "00090-PROCE", "address": "PROCE - ANGLE BD G. SERPETTE & BD A. PAGEOT", "lon": -1.576612843727262, "status": "OPEN", "stands": 9, "lat": 47.22419506173264}}, {"geometry": {"coordinates": [-1.5502297, 47.2191122], "type": "Point"}, "type": "Feature", "properties": {"bikes": 5, "update": "2016-02-08T21:11:15", "name": "00032-FOCH", "address": "FOCH - PLACE FOCH", "lon": -1.5502297, "status": "OPEN", "stands": 10, "lat": 47.2191122}}, {"geometry": {"coordinates": [-1.561570147641708, 47.21921395261352], "type": "Point"}, "type": "Feature", "properties": {"bikes": 3, "update": "2016-02-08T21:16:11", "name": "00017-SAINTE ELISABETH", "address": "SAINTE ELISABTEH - 3 PLACE STE ELISABETH", "lon": -1.561570147641708, "status": "OPEN", "stands": 10, "lat": 47.21921395261352}}, {"geometry": {"coordinates": [-1.555269922656021, 47.213450231365094], "type": "Point"}, "type": "Feature", "properties": {"bikes": 3, "update": "2016-02-08T21:11:31", "name": "00029-DUGUAY TROUIN", "address": "DUGUAY TROUIN - 7 ALLEE DUGUAY TROUIN", "lon": -1.555269922656021, "status": "OPEN", "stands": 12, "lat": 47.213450231365094}}, {"geometry": {"coordinates": [-1.550226242563373, 47.21514969516256], "type": "Point"}, "type": "Feature", "properties": {"bikes": 2, "update": "2016-02-08T21:14:30", "name": "00050-CHATEAU", "address": "CHATEAU - 2 RUE DES ETATS", "lon": -1.550226242563373, "status": "OPEN", "stands": 14, "lat": 47.21514969516256}}, {"geometry": {"coordinates": [-1.5568245371939, 47.211465063355035], "type": "Point"}, "type": "Feature", "properties": {"bikes": 5, "update": "2016-02-08T21:12:49", "name": "00037-FEYDEAU", "address": "FEYDEAU - 1 ALLEE ILE GLORIETTE", "lon": -1.5568245371939, "status": "OPEN", "stands": 16, "lat": 47.211465063355035}}, {"geometry": {"coordinates": [-1.567501842502272, 47.22547062698044], "type": "Point"}, "type": "Feature", "properties": {"bikes": 16, "update": "2016-02-08T21:07:44", "name": "00086-HAUTS PAV\u00c9S", "address": "HAUT PAVES - ANGLE RUE DE BERRY/RUE DES HAUTS PAVES", "lon": -1.567501842502272, "status": "OPEN", "stands": 0, "lat": 47.22547062698044}}, {"geometry": {"coordinates": [-1.555233144631466, 47.209406573873714], "type": "Point"}, "type": "Feature", "properties": {"bikes": 6, "update": "2016-02-08T21:13:10", "name": "00039-QUAI MONCOUSU", "address": "QUAI MONCOUSU - 11 QUAI MONCOUSU", "lon": -1.555233144631466, "status": "OPEN", "stands": 13, "lat": 47.209406573873714}}, {"geometry": {"coordinates": [-1.565543986075099, 47.212168974412094], "type": "Point"}, "type": "Feature", "properties": {"bikes": 10, "update": "2016-02-08T21:10:24", "name": "00035-JEAN V", "address": "JEAN V - 2 PLACE JEAN V", "lon": -1.565543986075099, "status": "OPEN", "stands": 5, "lat": 47.212168974412094}}, {"geometry": {"coordinates": [-1.529959592703474, 47.223508869811994], "type": "Point"}, "type": "Feature", "properties": {"bikes": 14, "update": "2016-02-08T21:05:53", "name": "00025-DALBY", "address": "DALBY- 61 BD ERNEST DALBY FACE STATION SERVICE", "lon": -1.529959592703474, "status": "OPEN", "stands": 1, "lat": 47.223508869811994}}, {"geometry": {"coordinates": [-1.561173077989395, 47.20831728844152], "type": "Point"}, "type": "Feature", "properties": {"bikes": 7, "update": "2016-02-08T21:07:09", "name": "00044-PALAIS DE JUSTICE", "address": "PALAIS DE JUSTICE - 19 QUAI FRANCOIS MITTERAND", "lon": -1.561173077989395, "status": "OPEN", "stands": 18, "lat": 47.20831728844152}}, {"geometry": {"coordinates": [-1.536540663464699, 47.1958989090141], "type": "Point"}, "type": "Feature", "properties": {"bikes": 3, "update": "2016-02-08T21:11:15", "name": "00099-ST JACQUES", "address": "ST JACQUES - RUE ST JACQUES", "lon": -1.536540663464699, "status": "OPEN", "stands": 12, "lat": 47.1958989090141}}, {"geometry": {"coordinates": [-1.551548484803203, 47.204003208491145], "type": "Point"}, "type": "Feature", "properties": {"bikes": 9, "update": "2016-02-08T21:15:45", "name": "00080 - VICTOR HUGO", "address": "VICTOR HUGO - BD VICTOR HUGO", "lon": -1.551548484803203, "status": "OPEN", "stands": 6, "lat": 47.204003208491145}}, {"geometry": {"coordinates": [-1.545905939112105, 47.215591463959825], "type": "Point"}, "type": "Feature", "properties": {"bikes": 6, "update": "2016-02-08T21:10:04", "name": "00061-LU - LIEU UNIQUE", "address": "LIEU UNIQUE - FACE 23 QUAI FERDINAND FAVRE", "lon": -1.545905939112105, "status": "OPEN", "stands": 9, "lat": 47.215591463959825}}, {"geometry": {"coordinates": [-1.556476339327795, 47.22114332912908], "type": "Point"}, "type": "Feature", "properties": {"bikes": 10, "update": "2016-02-08T21:15:59", "name": "00021-MARCHE TALENSAC SUD", "address": "MARCHE TALENSAC SUD - 6 RUE TALENSAC", "lon": -1.556476339327795, "status": "OPEN", "stands": 6, "lat": 47.22114332912908}}, {"geometry": {"coordinates": [-1.558940746690739, 47.22185363818837], "type": "Point"}, "type": "Feature", "properties": {"bikes": 8, "update": "2016-02-08T21:06:37", "name": "00071-MARCHE TALENSAC NORD", "address": "MARCHE TALENSAC NORD - 18 RUE TALENSAC", "lon": -1.558940746690739, "status": "OPEN", "stands": 5, "lat": 47.22185363818837}}, {"geometry": {"coordinates": [-1.569524048742154, 47.208357479819504], "type": "Point"}, "type": "Feature", "properties": {"bikes": 13, "update": "2016-02-08T21:15:30", "name": "00041-CHANTIER NAVAL", "address": "CHANTIER NAVAL - 87 QUAI DE LA FOSSE", "lon": -1.569524048742154, "status": "OPEN", "stands": 2, "lat": 47.208357479819504}}, {"geometry": {"coordinates": [-1.563900673465861, 47.21515818868574], "type": "Point"}, "type": "Feature", "properties": {"bikes": 0, "update": "2016-02-08T21:06:18", "name": "00012-PLACE DELORME", "address": "PLACE DELORME", "lon": -1.563900673465861, "status": "OPEN", "stands": 20, "lat": 47.21515818868574}}, {"geometry": {"coordinates": [-1.550828036456355, 47.18921204751304], "type": "Point"}, "type": "Feature", "properties": {"bikes": 8, "update": "2016-02-08T21:14:06", "name": "00098-HUIT MAI", "address": "HUIT MAI - AVENUE DE LA LIBERATION - REZE", "lon": -1.550828036456355, "status": "OPEN", "stands": 7, "lat": 47.18921204751304}}, {"geometry": {"coordinates": [-1.567004526265165, 47.21682795997449], "type": "Point"}, "type": "Feature", "properties": {"bikes": 4, "update": "2016-02-08T21:09:04", "name": "00026-GUIST'HAU SUD", "address": "GUIST'HAU SUD - 26 BOULEVARD GUIST'HAU", "lon": -1.567004526265165, "status": "OPEN", "stands": 11, "lat": 47.21682795997449}}, {"geometry": {"coordinates": [-1.548750555741977, 47.214327524589145], "type": "Point"}, "type": "Feature", "properties": {"bikes": 4, "update": "2016-02-08T21:07:44", "name": "00052-BACO", "address": "BACO - FACE AU 8 ALLEE BACO", "lon": -1.548750555741977, "status": "OPEN", "stands": 11, "lat": 47.214327524589145}}, {"geometry": {"coordinates": [-1.560675283700123, 47.215578942427136], "type": "Point"}, "type": "Feature", "properties": {"bikes": 10, "update": "2016-02-08T21:16:13", "name": "00011-CALVAIRE", "address": "CALVAIRE - PL.DES VOLONTAIRES DE LA DEFENSE PASSIVE", "lon": -1.560675283700123, "status": "OPEN", "stands": 5, "lat": 47.215578942427136}}, {"geometry": {"coordinates": [-1.544718964531585, 47.219834197318974], "type": "Point"}, "type": "Feature", "properties": {"bikes": 8, "update": "2016-02-08T21:16:18", "name": "00063-JARDIN DES PLANTES", "address": "JARDIN DES PLANTES - 6 RUE STANILAS BAUDRY", "lon": -1.544718964531585, "status": "OPEN", "stands": 7, "lat": 47.219834197318974}}, {"geometry": {"coordinates": [-1.563419484053747, 47.21902754473837], "type": "Point"}, "type": "Feature", "properties": {"bikes": 6, "update": "2016-02-08T21:10:00", "name": "00016-PLACE EDOUARD NORMAND", "address": "PLACE EDOUARD NORMAND - FACE AU 7 PLACE EDOUARD NORMAND", "lon": -1.563419484053747, "status": "OPEN", "stands": 9, "lat": 47.21902754473837}}, {"geometry": {"coordinates": [-1.577175414321782, 47.211501070117826], "type": "Point"}, "type": "Feature", "properties": {"bikes": 5, "update": "2016-02-08T21:07:29", "name": "00088-MELLINET", "address": "MELLINET - 1 BD ALLARD", "lon": -1.577175414321782, "status": "OPEN", "stands": 10, "lat": 47.211501070117826}}, {"geometry": {"coordinates": [-1.542844, 47.215505], "type": "Point"}, "type": "Feature", "properties": {"bikes": 15, "update": "2016-02-08T21:09:56", "name": "00070-GARE SUD 2", "address": "Quai Malakoff - c\u00f4t\u00e9 canal st F\u00e9lix", "lon": -1.542844, "status": "OPEN", "stands": 15, "lat": 47.215505}}, {"geometry": {"coordinates": [-1.5543847138777, 47.216667582015184], "type": "Point"}, "type": "Feature", "properties": {"bikes": 0, "update": "2016-02-08T21:12:21", "name": "00004-MOULIN", "address": "MOULIN - FACE AU 18 RUE DU MOULIN", "lon": -1.5543847138777, "status": "OPEN", "stands": 13, "lat": 47.216667582015184}}, {"geometry": {"coordinates": [-1.549221766809888, 47.235335222208626], "type": "Point"}, "type": "Feature", "properties": {"bikes": 10, "update": "2016-02-08T21:15:51", "name": "00096-TORTIERE", "address": "TORTIERE - BD EUGENE ORIEUX", "lon": -1.549221766809888, "status": "OPEN", "stands": 6, "lat": 47.235335222208626}}, {"geometry": {"coordinates": [-1.547099233718495, 47.221785183522634], "type": "Point"}, "type": "Feature", "properties": {"bikes": 8, "update": "2016-02-08T21:13:43", "name": "00064-SAINT CLEMENT", "address": "SAINT CLEMENT - FACE AU 37 RUE DU MARECHAL JOFFRE", "lon": -1.547099233718495, "status": "OPEN", "stands": 7, "lat": 47.221785183522634}}, {"geometry": {"coordinates": [-1.559017485167438, 47.215814587139455], "type": "Point"}, "type": "Feature", "properties": {"bikes": 10, "update": "2016-02-08T21:09:24", "name": "00009-GUEPIN", "address": "GUEPIN - 8 RUE DE L'ARCHE SECHE", "lon": -1.559017485167438, "status": "OPEN", "stands": 3, "lat": 47.215814587139455}}, {"geometry": {"coordinates": [-1.563140874431397, 47.213522613719896], "type": "Point"}, "type": "Feature", "properties": {"bikes": 0, "update": "2016-02-08T21:14:53", "name": "00033-RACINE", "address": "RACINE - 4 RUE RACINE", "lon": -1.563140874431397, "status": "OPEN", "stands": 15, "lat": 47.213522613719896}}, {"geometry": {"coordinates": [-1.542847782057658, 47.215919436013635], "type": "Point"}, "type": "Feature", "properties": {"bikes": 33, "update": "2016-02-08T21:12:16", "name": "00060-GARE SUD", "address": "GARE SUD - FACE 12 RUE LOURMEL", "lon": -1.542847782057658, "status": "OPEN", "stands": 7, "lat": 47.215919436013635}}, {"geometry": {"coordinates": [-1.553711961402328, 47.22451490719107], "type": "Point"}, "type": "Feature", "properties": {"bikes": 12, "update": "2016-02-08T21:08:22", "name": "00024-VERSAILLES", "address": "VERSAILLES - FACE AU 25 QUAI DE VERSAILLES", "lon": -1.553711961402328, "status": "OPEN", "stands": 3, "lat": 47.22451490719107}}, {"geometry": {"coordinates": [-1.533118244923623, 47.206757512308414], "type": "Point"}, "type": "Feature", "properties": {"bikes": 6, "update": "2016-02-08T21:08:18", "name": "00082-SEBILLEAU", "address": "SEBILLEAU - 9 RUE GAETAN RONDEAU", "lon": -1.533118244923623, "status": "OPEN", "stands": 10, "lat": 47.206757512308414}}, {"geometry": {"coordinates": [-1.556749263076553, 47.218837230469425], "type": "Point"}, "type": "Feature", "properties": {"bikes": 6, "update": "2016-02-08T21:12:23", "name": "00005-BROSSARD", "address": "BROSSARD - 25 RUE ARMAND BROSSARD", "lon": -1.556749263076553, "status": "OPEN", "stands": 9, "lat": 47.218837230469425}}, {"geometry": {"coordinates": [-1.54156809120326, 47.1965313642396], "type": "Point"}, "type": "Feature", "properties": {"bikes": 14, "update": "2016-02-08T21:13:40", "name": "00101 - PIRMIL", "address": "PIRMIL - RUE ESNOUL DES CHATELETS", "lon": -1.54156809120326, "status": "OPEN", "stands": 14, "lat": 47.1965313642396}}, {"geometry": {"coordinates": [-1.534717540470481, 47.199923092905216], "type": "Point"}, "type": "Feature", "properties": {"bikes": 13, "update": "2016-02-08T21:14:52", "name": "00100 - GRENERAIE", "address": "GRENERAIE - PARC DE LA GRENERAIE", "lon": -1.534717540470481, "status": "OPEN", "stands": 7, "lat": 47.199923092905216}}, {"geometry": {"coordinates": [-1.544952541668585, 47.213180085527846], "type": "Point"}, "type": "Feature", "properties": {"bikes": 18, "update": "2016-02-08T21:16:17", "name": "00054- CITE INTERNATIONALE DES CONGRES", "address": "CITE INTERNATIONAL DES CONGRES - 2 RUE DE JEMMAPES", "lon": -1.544952541668585, "status": "OPEN", "stands": 11, "lat": 47.213180085527846}}, {"geometry": {"coordinates": [-1.567568016663838, 47.21446342738575], "type": "Point"}, "type": "Feature", "properties": {"bikes": 7, "update": "2016-02-08T21:13:33", "name": "00028- PLACE DE L'EDIT NANTES", "address": "PLACE DE L'EDIT DE NANTES", "lon": -1.567568016663838, "status": "OPEN", "stands": 6, "lat": 47.21446342738575}}, {"geometry": {"coordinates": [-1.545212434215091, 47.22406787948748], "type": "Point"}, "type": "Feature", "properties": {"bikes": 12, "update": "2016-02-08T21:13:56", "name": "00068-LIVET", "address": "LIVET - FACE AU 65 RUE DU FOUR", "lon": -1.545212434215091, "status": "OPEN", "stands": 3, "lat": 47.22406787948748}}, {"geometry": {"coordinates": [-1.551666442545979, 47.222587339906696], "type": "Point"}, "type": "Feature", "properties": {"bikes": 15, "update": "2016-02-08T21:08:40", "name": "00065-COURS SULLY", "address": "COURS SULLY - FACE AU 9 COURS SULLY", "lon": -1.551666442545979, "status": "OPEN", "stands": 0, "lat": 47.222587339906696}}, {"geometry": {"coordinates": [-1.559161066618992, 47.216787949913034], "type": "Point"}, "type": "Feature", "properties": {"bikes": 3, "update": "2016-02-08T21:12:51", "name": "00013-BRETAGNE SUD", "address": "BRETAGNE SUD - 1 RUE PIERRE CHEREAU", "lon": -1.559161066618992, "status": "OPEN", "stands": 17, "lat": 47.216787949913034}}, {"geometry": {"coordinates": [-1.556937645378872, 47.21759668240601], "type": "Point"}, "type": "Feature", "properties": {"bikes": 4, "update": "2016-02-08T21:07:03", "name": "00006-PLACE DU CIRQUE", "address": "PLACE DU CIRQUE - 7 ALLEE DUQUESNE", "lon": -1.556937645378872, "status": "OPEN", "stands": 11, "lat": 47.21759668240601}}]}
=======
{"type": "FeatureCollection", "features": [{"type": "Feature", "geometry": {"type": "Point", "coordinates": [-1.553049129320471, 47.212108463141774]}, "properties": {"bikes": 4, "stands": 36, "name": "00038-PLACE RICORDEAU", "status": "OPEN", "lon": -1.553049129320471, "lat": 47.212108463141774, "update": "2016-02-08T21:04:07", "address": "PLACE RICORDEAU"}}, {"type": "Feature", "geometry": {"type": "Point", "coordinates": [-1.547999925907375, 47.22542988533347]}, "properties": {"bikes": 8, "stands": 7, "name": "00066-CHANZY", "status": "OPEN", "lon": -1.547999925907375, "lat": 47.22542988533347, "update": "2016-02-08T21:09:38", "address": "CHANZY - FACE AU 23 AVENUE DE CHANZY"}}, {"type": "Feature", "geometry": {"type": "Point", "coordinates": [-1.55154060534636, 47.216479771820744]}, "properties": {"bikes": 8, "stands": 7, "name": "00003-STRASBOURG", "status": "OPEN", "lon": -1.55154060534636, "lat": 47.216479771820744, "update": "2016-02-08T21:05:36", "address": "STRASBOURG - PLACE TIRANT LO BLANC"}}, {"type": "Feature", "geometry": {"type": "Point", "coordinates": [-1.553484290392954, 47.21857181309145]}, "properties": {"bikes": 10, "stands": 10, "name": "00002-H\u00d4TEL DE VILLE", "status": "OPEN", "lon": -1.553484290392954, "lat": 47.21857181309145, "update": "2016-02-08T21:05:26", "address": "H\u00d4TEL DE VILLE - FACE AU 29 RUE DE STRASBOURG"}}, {"type": "Feature", "geometry": {"type": "Point", "coordinates": [-1.564806790782994, 47.20691895869599]}, "properties": {"bikes": 9, "stands": 21, "name": "00043 - MACHINE DE L'\u00ceLE", "status": "OPEN", "lon": -1.564806790782994, "lat": 47.20691895869599, "update": "2016-02-08T21:05:14", "address": "MACHINE DE L'\u00ceLE - 3 BD LEON BUREAU"}}, {"type": "Feature", "geometry": {"type": "Point", "coordinates": [-1.525933451925082, 47.21074214218137]}, "properties": {"bikes": 14, "stands": 5, "name": "00084-R\u00c9GION", "status": "OPEN", "lon": -1.525933451925082, "lat": 47.21074214218137, "update": "2016-02-08T21:01:31", "address": "REGION - RUE DE LA LOIRE"}}, {"type": "Feature", "geometry": {"type": "Point", "coordinates": [-1.550411914119152, 47.208804642437784]}, "properties": {"bikes": 14, "stands": 1, "name": "00040-MADELEINE", "status": "OPEN", "lon": -1.550411914119152, "lat": 47.208804642437784, "update": "2016-02-08T21:04:33", "address": "MADELEINE - 2 QUAI MONCOUSU"}}, {"type": "Feature", "geometry": {"type": "Point", "coordinates": [-1.555531041936261, 47.220392126691955]}, "properties": {"bikes": 13, "stands": 3, "name": "00022-MOQUECHIEN", "status": "OPEN", "lon": -1.555531041936261, "lat": 47.220392126691955, "update": "2016-02-08T21:03:46", "address": "MOQUECHIEN - 8 RUE MOQUECHIEN"}}, {"type": "Feature", "geometry": {"type": "Point", "coordinates": [-1.572610286970505, 47.20659772898787]}, "properties": {"bikes": 9, "stands": 16, "name": "00042-GARE MARITIME", "status": "OPEN", "lon": -1.572610286970505, "lat": 47.20659772898787, "update": "2016-02-08T21:07:12", "address": "GARE MARITIME - PLACE JACKSONVILLE"}}, {"type": "Feature", "geometry": {"type": "Point", "coordinates": [-1.549291898557657, 47.19280351379784]}, "properties": {"bikes": 10, "stands": 9, "name": "00102-GARE PT ROUSSEAU", "status": "OPEN", "lon": -1.549291898557657, "lat": 47.19280351379784, "update": "2016-02-08T21:02:56", "address": "GARE PONT ROUSSEAU - RUE DE LA GARE - REZE"}}, {"type": "Feature", "geometry": {"type": "Point", "coordinates": [-1.541777739850638, 47.206798618575256]}, "properties": {"bikes": 3, "stands": 12, "name": "00056-VINCENT GACHE", "status": "OPEN", "lon": -1.541777739850638, "lat": 47.206798618575256, "update": "2016-02-08T21:06:45", "address": "VINCENT GACHE - 9 RUE FRANCOIS ALBERT"}}, {"type": "Feature", "geometry": {"type": "Point", "coordinates": [-1.556126125975167, 47.215331358010445]}, "properties": {"bikes": 10, "stands": 5, "name": "00007- BARILLERIE", "status": "OPEN", "lon": -1.556126125975167, "lat": 47.215331358010445, "update": "2016-02-08T21:04:53", "address": "BARILLERIE - 2 ALLEE PENTHIEVRE"}}, {"type": "Feature", "geometry": {"type": "Point", "coordinates": [-1.55892310936669, 47.204783935599195]}, "properties": {"bikes": 8, "stands": 5, "name": "00045-PRAIRIE AU DUC", "status": "OPEN", "lon": -1.55892310936669, "lat": 47.204783935599195, "update": "2016-02-08T21:09:19", "address": "PRAIRIE AU DUC - 40 BOULEVARD DE LA PRAIRIE AU DUC"}}, {"type": "Feature", "geometry": {"type": "Point", "coordinates": [-1.568490581479757, 47.206384991216765]}, "properties": {"bikes": 2, "stands": 17, "name": "00103 - STATION MOBILE", "status": "OPEN", "lon": -1.568490581479757, "lat": 47.206384991216765, "update": "2016-02-08T21:03:26", "address": "ILE DE NANTES PARC DES CHANTIERS A COTE DU CARROUSEL  (Station mobile)"}}, {"type": "Feature", "geometry": {"type": "Point", "coordinates": [-1.534184544523239, 47.216369613307506]}, "properties": {"bikes": 2, "stands": 26, "name": "00010- PICASSO", "status": "OPEN", "lon": -1.534184544523239, "lat": 47.216369613307506, "update": "2016-02-08T21:05:29", "address": "PICASSO - RUE PABLO PICASSO"}}, {"type": "Feature", "geometry": {"type": "Point", "coordinates": [-1.542208634875899, 47.218132613316826]}, "properties": {"bikes": 34, "stands": 6, "name": "00062-GARE NORD", "status": "OPEN", "lon": -1.542208634875899, "lat": 47.218132613316826, "update": "2016-02-08T21:09:56", "address": "GARE NORD - 1 PLACE CHARLES LE ROUX"}}, {"type": "Feature", "geometry": {"type": "Point", "coordinates": [-1.535981000861306, 47.208466072191925]}, "properties": {"bikes": 1, "stands": 14, "name": "00058-PALAIS DES SPORTS", "status": "OPEN", "lon": -1.535981000861306, "lat": 47.208466072191925, "update": "2016-02-08T21:03:12", "address": "PALAIS DES SPORTS - 21 RUE RENE VIVIANI"}}, {"type": "Feature", "geometry": {"type": "Point", "coordinates": [-1.556344610167984, 47.243263914975486]}, "properties": {"bikes": 9, "stands": 11, "name": "00094-PETIT PORT", "status": "OPEN", "lon": -1.556344610167984, "lat": 47.243263914975486, "update": "2016-02-08T21:00:22", "address": "PETIT PORT - BD DU PETIT PORT"}}, {"type": "Feature", "geometry": {"type": "Point", "coordinates": [-1.559086551239872, 47.212083030753185]}, "properties": {"bikes": 14, "stands": 2, "name": "00031-BOURSE", "status": "OPEN", "lon": -1.559086551239872, "lat": 47.212083030753185, "update": "2016-02-08T21:00:18", "address": "BOURSE - SQUARE DE LA BOURSE"}}, {"type": "Feature", "geometry": {"type": "Point", "coordinates": [-1.574924617192968, 47.21433366088933]}, "properties": {"bikes": 5, "stands": 10, "name": "00074-CANCLAUX", "status": "OPEN", "lon": -1.574924617192968, "lat": 47.21433366088933, "update": "2016-02-08T21:02:41", "address": "CANCLAUX - 8 PLACE CANCLAUX"}}, {"type": "Feature", "geometry": {"type": "Point", "coordinates": [-1.561806393011127, 47.22862569057461]}, "properties": {"bikes": 8, "stands": 7, "name": "00072-BELLAMY-GU\u00c9 MOREAU", "status": "OPEN", "lon": -1.561806393011127, "lat": 47.22862569057461, "update": "2016-02-08T21:06:48", "address": "Bellamy-Gu\u00e9 Moreau-138 rue Paul Bellamy"}}, {"type": "Feature", "geometry": {"type": "Point", "coordinates": [-1.558920890474776, 47.219854467329974]}, "properties": {"bikes": 5, "stands": 10, "name": "00019-SAINT SIMILIEN", "status": "OPEN", "lon": -1.558920890474776, "lat": 47.219854467329974, "update": "2016-02-08T21:01:36", "address": "SAINT SIMILIEN - 1 PLACE SAINT SIMILIEN"}}, {"type": "Feature", "geometry": {"type": "Point", "coordinates": [-1.529735885980363, 47.21419463149648]}, "properties": {"bikes": 9, "stands": 11, "name": "00051-TABARLY", "status": "OPEN", "lon": -1.529735885980363, "lat": 47.21419463149648, "update": "2016-02-08T21:04:11", "address": "AVENUE DE BERLIN DEVANT MAISON DE QUARTIER"}}, {"type": "Feature", "geometry": {"type": "Point", "coordinates": [-1.578689264310988, 47.20743863754715]}, "properties": {"bikes": 5, "stands": 9, "name": "00089-SAINT-AIGNAN", "status": "OPEN", "lon": -1.578689264310988, "lat": 47.20743863754715, "update": "2016-02-08T21:07:19", "address": "SAINT AIGNAN - 65 BD ST AIGNAN"}}, {"type": "Feature", "geometry": {"type": "Point", "coordinates": [-1.557532467914316, 47.207605640212115]}, "properties": {"bikes": 6, "stands": 19, "name": "00077-ECOLE D'ARCHITECTURE", "status": "OPEN", "lon": -1.557532467914316, "lat": 47.207605640212115, "update": "2016-02-08T21:00:48", "address": "ECOLE D'ARCHITECTURE - QUAI F MITTERRAND"}}, {"type": "Feature", "geometry": {"type": "Point", "coordinates": [-1.571373578112414, 47.223604815399085]}, "properties": {"bikes": 11, "stands": 4, "name": "00087-ANATOLE FRANCE", "status": "OPEN", "lon": -1.571373578112414, "lat": 47.223604815399085, "update": "2016-02-08T21:02:19", "address": "ANATOLE FRANCE - 41 RUE ALEXANDRE DUMAS"}}, {"type": "Feature", "geometry": {"type": "Point", "coordinates": [-1.548161311046709, 47.20702417983412]}, "properties": {"bikes": 6, "stands": 9, "name": "00047- MARTYRS NANTAIS", "status": "OPEN", "lon": -1.548161311046709, "lat": 47.20702417983412, "update": "2016-02-08T21:04:28", "address": "MARTYRS NANTAIS - 1 BD DES MARTYRS NANTAIS"}}, {"type": "Feature", "geometry": {"type": "Point", "coordinates": [-1.540292594289221, 47.22908808709286]}, "properties": {"bikes": 15, "stands": 5, "name": "00097-SAINT DONATIEN", "status": "OPEN", "lon": -1.540292594289221, "lat": 47.22908808709286, "update": "2016-02-08T21:09:01", "address": "SAINT DONATIEN - PLACE DU 51\u00e9me RIMA"}}, {"type": "Feature", "geometry": {"type": "Point", "coordinates": [-1.557393235628245, 47.21312055103121]}, "properties": {"bikes": 16, "stands": 22, "name": "00030-COMMERCE", "status": "OPEN", "lon": -1.557393235628245, "lat": 47.21312055103121, "update": "2016-02-08T21:10:12", "address": "COMMERCE - FACE PLACE DU COMMERCE"}}, {"type": "Feature", "geometry": {"type": "Point", "coordinates": [-1.569171883302444, 47.21792981632508]}, "properties": {"bikes": 8, "stands": 7, "name": "00027-GUIST'HAU NORD", "status": "OPEN", "lon": -1.569171883302444, "lat": 47.21792981632508, "update": "2016-02-08T21:03:19", "address": "GUIST'HAU NORD - 42 BD GUIST'HAU"}}, {"type": "Feature", "geometry": {"type": "Point", "coordinates": [-1.562986793288367, 47.21718482329023]}, "properties": {"bikes": 10, "stands": 7, "name": "00015-PLACE ARISTIDE BRIAND", "status": "OPEN", "lon": -1.562986793288367, "lat": 47.21718482329023, "update": "2016-02-08T21:02:13", "address": "PLACE ARISTIDE BRIAND"}}, {"type": "Feature", "geometry": {"type": "Point", "coordinates": [-1.530180435959972, 47.208199645038825]}, "properties": {"bikes": 10, "stands": 4, "name": "00083-MILLERAND", "status": "OPEN", "lon": -1.530180435959972, "lat": 47.208199645038825, "update": "2016-02-08T21:05:06", "address": "MILLERAND - 9 BD ALEXANDRE MILLERAND"}}, {"type": "Feature", "geometry": {"type": "Point", "coordinates": [-1.561744905652581, 47.210886925815934]}, "properties": {"bikes": 7, "stands": 13, "name": "00034-MEDIATHEQUE", "status": "OPEN", "lon": -1.561744905652581, "lat": 47.210886925815934, "update": "2016-02-08T21:09:30", "address": "MEDIATHEQUE - 24 QUAI DE LA FOSSE"}}, {"type": "Feature", "geometry": {"type": "Point", "coordinates": [-1.572114577993728, 47.229580605369215]}, "properties": {"bikes": 9, "stands": 7, "name": "00091-RD PT VANNES", "status": "OPEN", "lon": -1.572114577993728, "lat": 47.229580605369215, "update": "2016-02-08T21:03:16", "address": "RD PT VANNES - 65 BD LE LASSEUR"}}, {"type": "Feature", "geometry": {"type": "Point", "coordinates": [-1.555183107916184, 47.20532409029517]}, "properties": {"bikes": 17, "stands": 3, "name": "00046-PLACE REPUBLIQUE", "status": "OPEN", "lon": -1.555183107916184, "lat": 47.20532409029517, "update": "2016-02-08T21:10:17", "address": "PLACE DE LA REPUBLIQUE - 3 PLACE DE LA REPUBLIQUE"}}, {"type": "Feature", "geometry": {"type": "Point", "coordinates": [-1.557229797031573, 47.222902006053054]}, "properties": {"bikes": 3, "stands": 12, "name": "00020-BELLAMY", "status": "OPEN", "lon": -1.557229797031573, "lat": 47.222902006053054, "update": "2016-02-08T21:05:33", "address": "BELLAMY - 50 RUE PAUL BELLAMY"}}, {"type": "Feature", "geometry": {"type": "Point", "coordinates": [-1.545507251231619, 47.20095551723967]}, "properties": {"bikes": 6, "stands": 8, "name": "00081 - MANGIN", "status": "OPEN", "lon": -1.545507251231619, "lat": 47.20095551723967, "update": "2016-02-08T21:08:08", "address": "MANGIN - DEV 8 PLACE MANGIN"}}, {"type": "Feature", "geometry": {"type": "Point", "coordinates": [-1.544298470945214, 47.21078140655944]}, "properties": {"bikes": 12, "stands": 3, "name": "00055-MAGELLAN", "status": "OPEN", "lon": -1.544298470945214, "lat": 47.21078140655944, "update": "2016-02-08T21:04:38", "address": "MAGELLAN - 11 RUE DE BELFORT"}}, {"type": "Feature", "geometry": {"type": "Point", "coordinates": [-1.540514488290191, 47.20844367718286]}, "properties": {"bikes": 2, "stands": 13, "name": "00078-DE GAULLE", "status": "OPEN", "lon": -1.540514488290191, "lat": 47.20844367718286, "update": "2016-02-08T21:07:40", "address": "DE GAULLE - PONT A. BRIAND / BD DE GAULLE"}}, {"type": "Feature", "geometry": {"type": "Point", "coordinates": [-1.552147986072217, 47.22777476106513]}, "properties": {"bikes": 14, "stands": 5, "name": "00067-PLACE WALDECK ROUSSEAU", "status": "OPEN", "lon": -1.552147986072217, "lat": 47.22777476106513, "update": "2016-02-08T21:02:02", "address": "PLACE WALDECK ROUSSEAU"}}, {"type": "Feature", "geometry": {"type": "Point", "coordinates": [-1.537581863003988, 47.205396132179104]}, "properties": {"bikes": 14, "stands": 6, "name": "00057-GAETAN RONDEAU", "status": "OPEN", "lon": -1.537581863003988, "lat": 47.205396132179104, "update": "2016-02-08T21:02:54", "address": "GAETAN RONDEAU - 20 RUE GAETAN RONDEAU"}}, {"type": "Feature", "geometry": {"type": "Point", "coordinates": [-1.536511118183477, 47.213237140630014]}, "properties": {"bikes": 4, "stands": 11, "name": "00079-MALAKOFF", "status": "OPEN", "lon": -1.536511118183477, "lat": 47.213237140630014, "update": "2016-02-08T21:10:16", "address": "MALAKOFF - 15 QUAI MALAKOFF"}}, {"type": "Feature", "geometry": {"type": "Point", "coordinates": [-1.571369360221906, 47.21230895884701]}, "properties": {"bikes": 13, "stands": 5, "name": "00075-LAMORICIERE", "status": "OPEN", "lon": -1.571369360221906, "lat": 47.21230895884701, "update": "2016-02-08T21:03:50", "address": "LAMORICIERE - PLACE BEAUMANOIR"}}, {"type": "Feature", "geometry": {"type": "Point", "coordinates": [-1.563308366869757, 47.22142933898549]}, "properties": {"bikes": 8, "stands": 6, "name": "00018-PLACE VIARME", "status": "OPEN", "lon": -1.563308366869757, "lat": 47.22142933898549, "update": "2016-02-08T21:04:36", "address": "PLACE VIARME - 23 PLACE VIARME"}}, {"type": "Feature", "geometry": {"type": "Point", "coordinates": [-1.556421138973112, 47.234687038295554]}, "properties": {"bikes": 2, "stands": 23, "name": "00095-MICHELET", "status": "OPEN", "lon": -1.556421138973112, "lat": 47.234687038295554, "update": "2016-02-08T21:00:44", "address": "MICHELET - BD MICHELET"}}, {"type": "Feature", "geometry": {"type": "Point", "coordinates": [-1.560022819676629, 47.226394430986105]}, "properties": {"bikes": 4, "stands": 10, "name": "00085-BEL AIR", "status": "OPEN", "lon": -1.560022819676629, "lat": 47.226394430986105, "update": "2016-02-08T21:06:14", "address": "BEL AIR - 102 RUE PAUL BELLAMY"}}, {"type": "Feature", "geometry": {"type": "Point", "coordinates": [-1.56605906933562, 47.23302818477594]}, "properties": {"bikes": 9, "stands": 11, "name": "00092-DT PT RENNES", "status": "OPEN", "lon": -1.56605906933562, "lat": 47.23302818477594, "update": "2016-02-08T21:06:37", "address": "RD PT RENNES - ANGLE BD LE LASSEUR & RUE PAUL BELLAMY"}}, {"type": "Feature", "geometry": {"type": "Point", "coordinates": [-1.539712888264826, 47.21391161818379]}, "properties": {"bikes": 6, "stands": 9, "name": "00059-STADE SAUPIN", "status": "OPEN", "lon": -1.539712888264826, "lat": 47.21391161818379, "update": "2016-02-08T21:09:37", "address": "STADE SAUPIN - 35 QUAI MALAKOFF"}}, {"type": "Feature", "geometry": {"type": "Point", "coordinates": [-1.549886024937758, 47.211736393222054]}, "properties": {"bikes": 11, "stands": 4, "name": "00053-OLIVETTES", "status": "OPEN", "lon": -1.549886024937758, "lat": 47.211736393222054, "update": "2016-02-08T21:05:31", "address": "OLIVETTES - 10 RUE DES OLIVETTES"}}, {"type": "Feature", "geometry": {"type": "Point", "coordinates": [-1.570515336280715, 47.209429092524424]}, "properties": {"bikes": 9, "stands": 6, "name": "00076-PLACE REN\u00c9 BOUHIER", "status": "OPEN", "lon": -1.570515336280715, "lat": 47.209429092524424, "update": "2016-02-08T21:05:21", "address": "PLACE RENE BOUHIER - 8 PLACE RENE BOUHIER"}}, {"type": "Feature", "geometry": {"type": "Point", "coordinates": [-1.557111680197571, 47.21620089258823]}, "properties": {"bikes": 3, "stands": 16, "name": "00008-BOUCHERIE", "status": "OPEN", "lon": -1.557111680197571, "lat": 47.21620089258823, "update": "2016-02-08T21:02:19", "address": "BOUCHERIE - FACE AU 4 RUE DE LA BOUCHERIE"}}, {"type": "Feature", "geometry": {"type": "Point", "coordinates": [-1.570438598073934, 47.220882433018865]}, "properties": {"bikes": 10, "stands": 3, "name": "00073-SARRADIN", "status": "OPEN", "lon": -1.570438598073934, "lat": 47.220882433018865, "update": "2016-02-08T21:08:44", "address": "SARRADIN - FACE AU 4 PLACE SARRADIN"}}, {"type": "Feature", "geometry": {"type": "Point", "coordinates": [-1.547058938534335, 47.21651740326776]}, "properties": {"bikes": 6, "stands": 8, "name": "00049-DUCHESSE ANNE", "status": "OPEN", "lon": -1.547058938534335, "lat": 47.21651740326776, "update": "2016-02-08T21:08:09", "address": "DUCHESSE ANNE - 2 PLACE DE LA DUCHESSE ANNE"}}, {"type": "Feature", "geometry": {"type": "Point", "coordinates": [-1.555309011107301, 47.246298068423485]}, "properties": {"bikes": 17, "stands": 23, "name": "00093-FACULTES", "status": "OPEN", "lon": -1.555309011107301, "lat": 47.246298068423485, "update": "2016-02-08T21:08:05", "address": "FACULTES - ANGLE ROUTE DE LA JONELIERE & BD G. MOLLET"}}, {"type": "Feature", "geometry": {"type": "Point", "coordinates": [-1.551849784370311, 47.217505374678645]}, "properties": {"bikes": 12, "stands": 2, "name": "00048-VERDUN", "status": "OPEN", "lon": -1.551849784370311, "lat": 47.217505374678645, "update": "2016-02-08T21:03:30", "address": "VERDUN - 15 RUE DE VERDUN"}}, {"type": "Feature", "geometry": {"type": "Point", "coordinates": [-1.55408380740881, 47.220255183724454]}, "properties": {"bikes": 8, "stands": 17, "name": "00001-PREFECTURE", "status": "OPEN", "lon": -1.55408380740881, "lat": 47.220255183724454, "update": "2016-02-08T21:03:00", "address": "PREFECTURE - 5 QUAI CEINERAY"}}, {"type": "Feature", "geometry": {"type": "Point", "coordinates": [-1.542404741250403, 47.227145468224634]}, "properties": {"bikes": 11, "stands": 0, "name": "00023-BUAT", "status": "OPEN", "lon": -1.542404741250403, "lat": 47.227145468224634, "update": "2016-02-08T21:07:32", "address": "BUAT - 118 RUE DE COULMIERS"}}, {"type": "Feature", "geometry": {"type": "Point", "coordinates": [-1.576612843727262, 47.22419506173264]}, "properties": {"bikes": 6, "stands": 9, "name": "00090-PROCE", "status": "OPEN", "lon": -1.576612843727262, "lat": 47.22419506173264, "update": "2016-02-08T21:00:45", "address": "PROCE - ANGLE BD G. SERPETTE & BD A. PAGEOT"}}, {"type": "Feature", "geometry": {"type": "Point", "coordinates": [-1.5502297, 47.2191122]}, "properties": {"bikes": 5, "stands": 10, "name": "00032-FOCH", "status": "OPEN", "lon": -1.5502297, "lat": 47.2191122, "update": "2016-02-08T21:01:11", "address": "FOCH - PLACE FOCH"}}, {"type": "Feature", "geometry": {"type": "Point", "coordinates": [-1.561570147641708, 47.21921395261352]}, "properties": {"bikes": 3, "stands": 10, "name": "00017-SAINTE ELISABETH", "status": "OPEN", "lon": -1.561570147641708, "lat": 47.21921395261352, "update": "2016-02-08T21:06:07", "address": "SAINTE ELISABTEH - 3 PLACE STE ELISABETH"}}, {"type": "Feature", "geometry": {"type": "Point", "coordinates": [-1.555269922656021, 47.213450231365094]}, "properties": {"bikes": 4, "stands": 11, "name": "00029-DUGUAY TROUIN", "status": "OPEN", "lon": -1.555269922656021, "lat": 47.213450231365094, "update": "2016-02-08T21:02:32", "address": "DUGUAY TROUIN - 7 ALLEE DUGUAY TROUIN"}}, {"type": "Feature", "geometry": {"type": "Point", "coordinates": [-1.550226242563373, 47.21514969516256]}, "properties": {"bikes": 2, "stands": 14, "name": "00050-CHATEAU", "status": "OPEN", "lon": -1.550226242563373, "lat": 47.21514969516256, "update": "2016-02-08T21:04:27", "address": "CHATEAU - 2 RUE DES ETATS"}}, {"type": "Feature", "geometry": {"type": "Point", "coordinates": [-1.5568245371939, 47.211465063355035]}, "properties": {"bikes": 6, "stands": 15, "name": "00037-FEYDEAU", "status": "OPEN", "lon": -1.5568245371939, "lat": 47.211465063355035, "update": "2016-02-08T21:03:13", "address": "FEYDEAU - 1 ALLEE ILE GLORIETTE"}}, {"type": "Feature", "geometry": {"type": "Point", "coordinates": [-1.567501842502272, 47.22547062698044]}, "properties": {"bikes": 16, "stands": 0, "name": "00086-HAUTS PAV\u00c9S", "status": "OPEN", "lon": -1.567501842502272, "lat": 47.22547062698044, "update": "2016-02-08T21:07:44", "address": "HAUT PAVES - ANGLE RUE DE BERRY/RUE DES HAUTS PAVES"}}, {"type": "Feature", "geometry": {"type": "Point", "coordinates": [-1.555233144631466, 47.209406573873714]}, "properties": {"bikes": 7, "stands": 12, "name": "00039-QUAI MONCOUSU", "status": "OPEN", "lon": -1.555233144631466, "lat": 47.209406573873714, "update": "2016-02-08T21:02:48", "address": "QUAI MONCOUSU - 11 QUAI MONCOUSU"}}, {"type": "Feature", "geometry": {"type": "Point", "coordinates": [-1.565543986075099, 47.212168974412094]}, "properties": {"bikes": 10, "stands": 5, "name": "00035-JEAN V", "status": "OPEN", "lon": -1.565543986075099, "lat": 47.212168974412094, "update": "2016-02-08T21:00:21", "address": "JEAN V - 2 PLACE JEAN V"}}, {"type": "Feature", "geometry": {"type": "Point", "coordinates": [-1.529959592703474, 47.223508869811994]}, "properties": {"bikes": 14, "stands": 1, "name": "00025-DALBY", "status": "OPEN", "lon": -1.529959592703474, "lat": 47.223508869811994, "update": "2016-02-08T21:05:53", "address": "DALBY- 61 BD ERNEST DALBY FACE STATION SERVICE"}}, {"type": "Feature", "geometry": {"type": "Point", "coordinates": [-1.561173077989395, 47.20831728844152]}, "properties": {"bikes": 7, "stands": 18, "name": "00044-PALAIS DE JUSTICE", "status": "OPEN", "lon": -1.561173077989395, "lat": 47.20831728844152, "update": "2016-02-08T21:07:09", "address": "PALAIS DE JUSTICE - 19 QUAI FRANCOIS MITTERAND"}}, {"type": "Feature", "geometry": {"type": "Point", "coordinates": [-1.536540663464699, 47.1958989090141]}, "properties": {"bikes": 3, "stands": 12, "name": "00099-ST JACQUES", "status": "OPEN", "lon": -1.536540663464699, "lat": 47.1958989090141, "update": "2016-02-08T21:01:12", "address": "ST JACQUES - RUE ST JACQUES"}}, {"type": "Feature", "geometry": {"type": "Point", "coordinates": [-1.551548484803203, 47.204003208491145]}, "properties": {"bikes": 9, "stands": 6, "name": "00080 - VICTOR HUGO", "status": "OPEN", "lon": -1.551548484803203, "lat": 47.204003208491145, "update": "2016-02-08T21:05:40", "address": "VICTOR HUGO - BD VICTOR HUGO"}}, {"type": "Feature", "geometry": {"type": "Point", "coordinates": [-1.545905939112105, 47.215591463959825]}, "properties": {"bikes": 6, "stands": 9, "name": "00061-LU - LIEU UNIQUE", "status": "OPEN", "lon": -1.545905939112105, "lat": 47.215591463959825, "update": "2016-02-08T21:10:04", "address": "LIEU UNIQUE - FACE 23 QUAI FERDINAND FAVRE"}}, {"type": "Feature", "geometry": {"type": "Point", "coordinates": [-1.556476339327795, 47.22114332912908]}, "properties": {"bikes": 9, "stands": 7, "name": "00021-MARCHE TALENSAC SUD", "status": "OPEN", "lon": -1.556476339327795, "lat": 47.22114332912908, "update": "2016-02-08T21:02:49", "address": "MARCHE TALENSAC SUD - 6 RUE TALENSAC"}}, {"type": "Feature", "geometry": {"type": "Point", "coordinates": [-1.558940746690739, 47.22185363818837]}, "properties": {"bikes": 8, "stands": 5, "name": "00071-MARCHE TALENSAC NORD", "status": "OPEN", "lon": -1.558940746690739, "lat": 47.22185363818837, "update": "2016-02-08T21:06:37", "address": "MARCHE TALENSAC NORD - 18 RUE TALENSAC"}}, {"type": "Feature", "geometry": {"type": "Point", "coordinates": [-1.569524048742154, 47.208357479819504]}, "properties": {"bikes": 13, "stands": 2, "name": "00041-CHANTIER NAVAL", "status": "OPEN", "lon": -1.569524048742154, "lat": 47.208357479819504, "update": "2016-02-08T21:05:25", "address": "CHANTIER NAVAL - 87 QUAI DE LA FOSSE"}}, {"type": "Feature", "geometry": {"type": "Point", "coordinates": [-1.563900673465861, 47.21515818868574]}, "properties": {"bikes": 0, "stands": 20, "name": "00012-PLACE DELORME", "status": "OPEN", "lon": -1.563900673465861, "lat": 47.21515818868574, "update": "2016-02-08T21:06:18", "address": "PLACE DELORME"}}, {"type": "Feature", "geometry": {"type": "Point", "coordinates": [-1.550828036456355, 47.18921204751304]}, "properties": {"bikes": 8, "stands": 7, "name": "00098-HUIT MAI", "status": "OPEN", "lon": -1.550828036456355, "lat": 47.18921204751304, "update": "2016-02-08T21:04:02", "address": "HUIT MAI - AVENUE DE LA LIBERATION - REZE"}}, {"type": "Feature", "geometry": {"type": "Point", "coordinates": [-1.567004526265165, 47.21682795997449]}, "properties": {"bikes": 4, "stands": 11, "name": "00026-GUIST'HAU SUD", "status": "OPEN", "lon": -1.567004526265165, "lat": 47.21682795997449, "update": "2016-02-08T21:09:04", "address": "GUIST'HAU SUD - 26 BOULEVARD GUIST'HAU"}}, {"type": "Feature", "geometry": {"type": "Point", "coordinates": [-1.548750555741977, 47.214327524589145]}, "properties": {"bikes": 4, "stands": 11, "name": "00052-BACO", "status": "OPEN", "lon": -1.548750555741977, "lat": 47.214327524589145, "update": "2016-02-08T21:07:44", "address": "BACO - FACE AU 8 ALLEE BACO"}}, {"type": "Feature", "geometry": {"type": "Point", "coordinates": [-1.560675283700123, 47.215578942427136]}, "properties": {"bikes": 10, "stands": 5, "name": "00011-CALVAIRE", "status": "OPEN", "lon": -1.560675283700123, "lat": 47.215578942427136, "update": "2016-02-08T21:06:09", "address": "CALVAIRE - PL.DES VOLONTAIRES DE LA DEFENSE PASSIVE"}}, {"type": "Feature", "geometry": {"type": "Point", "coordinates": [-1.544718964531585, 47.219834197318974]}, "properties": {"bikes": 8, "stands": 7, "name": "00063-JARDIN DES PLANTES", "status": "OPEN", "lon": -1.544718964531585, "lat": 47.219834197318974, "update": "2016-02-08T21:06:15", "address": "JARDIN DES PLANTES - 6 RUE STANILAS BAUDRY"}}, {"type": "Feature", "geometry": {"type": "Point", "coordinates": [-1.563419484053747, 47.21902754473837]}, "properties": {"bikes": 6, "stands": 9, "name": "00016-PLACE EDOUARD NORMAND", "status": "OPEN", "lon": -1.563419484053747, "lat": 47.21902754473837, "update": "2016-02-08T21:10:00", "address": "PLACE EDOUARD NORMAND - FACE AU 7 PLACE EDOUARD NORMAND"}}, {"type": "Feature", "geometry": {"type": "Point", "coordinates": [-1.577175414321782, 47.211501070117826]}, "properties": {"bikes": 5, "stands": 10, "name": "00088-MELLINET", "status": "OPEN", "lon": -1.577175414321782, "lat": 47.211501070117826, "update": "2016-02-08T21:07:29", "address": "MELLINET - 1 BD ALLARD"}}, {"type": "Feature", "geometry": {"type": "Point", "coordinates": [-1.542844, 47.215505]}, "properties": {"bikes": 15, "stands": 15, "name": "00070-GARE SUD 2", "status": "OPEN", "lon": -1.542844, "lat": 47.215505, "update": "2016-02-08T21:09:56", "address": "Quai Malakoff - c\u00f4t\u00e9 canal st F\u00e9lix"}}, {"type": "Feature", "geometry": {"type": "Point", "coordinates": [-1.5543847138777, 47.216667582015184]}, "properties": {"bikes": 0, "stands": 13, "name": "00004-MOULIN", "status": "OPEN", "lon": -1.5543847138777, "lat": 47.216667582015184, "update": "2016-02-08T21:02:17", "address": "MOULIN - FACE AU 18 RUE DU MOULIN"}}, {"type": "Feature", "geometry": {"type": "Point", "coordinates": [-1.549221766809888, 47.235335222208626]}, "properties": {"bikes": 10, "stands": 6, "name": "00096-TORTIERE", "status": "OPEN", "lon": -1.549221766809888, "lat": 47.235335222208626, "update": "2016-02-08T21:05:47", "address": "TORTIERE - BD EUGENE ORIEUX"}}, {"type": "Feature", "geometry": {"type": "Point", "coordinates": [-1.547099233718495, 47.221785183522634]}, "properties": {"bikes": 8, "stands": 7, "name": "00064-SAINT CLEMENT", "status": "OPEN", "lon": -1.547099233718495, "lat": 47.221785183522634, "update": "2016-02-08T21:03:39", "address": "SAINT CLEMENT - FACE AU 37 RUE DU MARECHAL JOFFRE"}}, {"type": "Feature", "geometry": {"type": "Point", "coordinates": [-1.559017485167438, 47.215814587139455]}, "properties": {"bikes": 10, "stands": 3, "name": "00009-GUEPIN", "status": "OPEN", "lon": -1.559017485167438, "lat": 47.215814587139455, "update": "2016-02-08T21:09:24", "address": "GUEPIN - 8 RUE DE L'ARCHE SECHE"}}, {"type": "Feature", "geometry": {"type": "Point", "coordinates": [-1.563140874431397, 47.213522613719896]}, "properties": {"bikes": 0, "stands": 15, "name": "00033-RACINE", "status": "OPEN", "lon": -1.563140874431397, "lat": 47.213522613719896, "update": "2016-02-08T21:04:49", "address": "RACINE - 4 RUE RACINE"}}, {"type": "Feature", "geometry": {"type": "Point", "coordinates": [-1.542847782057658, 47.215919436013635]}, "properties": {"bikes": 33, "stands": 7, "name": "00060-GARE SUD", "status": "OPEN", "lon": -1.542847782057658, "lat": 47.215919436013635, "update": "2016-02-08T21:02:13", "address": "GARE SUD - FACE 12 RUE LOURMEL"}}, {"type": "Feature", "geometry": {"type": "Point", "coordinates": [-1.553711961402328, 47.22451490719107]}, "properties": {"bikes": 12, "stands": 3, "name": "00024-VERSAILLES", "status": "OPEN", "lon": -1.553711961402328, "lat": 47.22451490719107, "update": "2016-02-08T21:08:22", "address": "VERSAILLES - FACE AU 25 QUAI DE VERSAILLES"}}, {"type": "Feature", "geometry": {"type": "Point", "coordinates": [-1.533118244923623, 47.206757512308414]}, "properties": {"bikes": 6, "stands": 10, "name": "00082-SEBILLEAU", "status": "OPEN", "lon": -1.533118244923623, "lat": 47.206757512308414, "update": "2016-02-08T21:08:18", "address": "SEBILLEAU - 9 RUE GAETAN RONDEAU"}}, {"type": "Feature", "geometry": {"type": "Point", "coordinates": [-1.556749263076553, 47.218837230469425]}, "properties": {"bikes": 5, "stands": 10, "name": "00005-BROSSARD", "status": "OPEN", "lon": -1.556749263076553, "lat": 47.218837230469425, "update": "2016-02-08T21:00:17", "address": "BROSSARD - 25 RUE ARMAND BROSSARD"}}, {"type": "Feature", "geometry": {"type": "Point", "coordinates": [-1.54156809120326, 47.1965313642396]}, "properties": {"bikes": 14, "stands": 14, "name": "00101 - PIRMIL", "status": "OPEN", "lon": -1.54156809120326, "lat": 47.1965313642396, "update": "2016-02-08T21:03:36", "address": "PIRMIL - RUE ESNOUL DES CHATELETS"}}, {"type": "Feature", "geometry": {"type": "Point", "coordinates": [-1.534717540470481, 47.199923092905216]}, "properties": {"bikes": 13, "stands": 7, "name": "00100 - GRENERAIE", "status": "OPEN", "lon": -1.534717540470481, "lat": 47.199923092905216, "update": "2016-02-08T21:04:48", "address": "GRENERAIE - PARC DE LA GRENERAIE"}}, {"type": "Feature", "geometry": {"type": "Point", "coordinates": [-1.544952541668585, 47.213180085527846]}, "properties": {"bikes": 19, "stands": 11, "name": "00054- CITE INTERNATIONALE DES CONGRES", "status": "OPEN", "lon": -1.544952541668585, "lat": 47.213180085527846, "update": "2016-02-08T21:07:55", "address": "CITE INTERNATIONAL DES CONGRES - 2 RUE DE JEMMAPES"}}, {"type": "Feature", "geometry": {"type": "Point", "coordinates": [-1.567568016663838, 47.21446342738575]}, "properties": {"bikes": 7, "stands": 6, "name": "00028- PLACE DE L'EDIT NANTES", "status": "OPEN", "lon": -1.567568016663838, "lat": 47.21446342738575, "update": "2016-02-08T21:03:30", "address": "PLACE DE L'EDIT DE NANTES"}}, {"type": "Feature", "geometry": {"type": "Point", "coordinates": [-1.545212434215091, 47.22406787948748]}, "properties": {"bikes": 12, "stands": 3, "name": "00068-LIVET", "status": "OPEN", "lon": -1.545212434215091, "lat": 47.22406787948748, "update": "2016-02-08T21:03:53", "address": "LIVET - FACE AU 65 RUE DU FOUR"}}, {"type": "Feature", "geometry": {"type": "Point", "coordinates": [-1.551666442545979, 47.222587339906696]}, "properties": {"bikes": 15, "stands": 0, "name": "00065-COURS SULLY", "status": "OPEN", "lon": -1.551666442545979, "lat": 47.222587339906696, "update": "2016-02-08T21:08:40", "address": "COURS SULLY - FACE AU 9 COURS SULLY"}}, {"type": "Feature", "geometry": {"type": "Point", "coordinates": [-1.559161066618992, 47.216787949913034]}, "properties": {"bikes": 3, "stands": 17, "name": "00013-BRETAGNE SUD", "status": "OPEN", "lon": -1.559161066618992, "lat": 47.216787949913034, "update": "2016-02-08T21:02:47", "address": "BRETAGNE SUD - 1 RUE PIERRE CHEREAU"}}, {"type": "Feature", "geometry": {"type": "Point", "coordinates": [-1.556937645378872, 47.21759668240601]}, "properties": {"bikes": 4, "stands": 11, "name": "00006-PLACE DU CIRQUE", "status": "OPEN", "lon": -1.556937645378872, "lat": 47.21759668240601, "update": "2016-02-08T21:07:03", "address": "PLACE DU CIRQUE - 7 ALLEE DUQUESNE"}}]}
>>>>>>> f138dd437432b1a27f4bd27c1682d307e4633e5c
