{"features": [{"geometry": {"coordinates": [-1.553049129320471, 47.212108463141774], "type": "Point"}, "properties": {"name": "00038-PLACE RICORDEAU", "lon": -1.553049129320471, "status": "OPEN", "stands": 31, "bikes": 9, "update": "2016-02-06T13:10:28", "lat": 47.212108463141774, "address": "PLACE RICORDEAU"}, "type": "Feature"}, {"geometry": {"coordinates": [-1.547999925907375, 47.22542988533347], "type": "Point"}, "properties": {"name": "00066-CHANZY", "lon": -1.547999925907375, "status": "OPEN", "stands": 11, "bikes": 4, "update": "2016-02-06T13:14:53", "lat": 47.22542988533347, "address": "CHANZY - FACE AU 23 AVENUE DE CHANZY"}, "type": "Feature"}, {"geometry": {"coordinates": [-1.55154060534636, 47.216479771820744], "type": "Point"}, "properties": {"name": "00003-STRASBOURG", "lon": -1.55154060534636, "status": "OPEN", "stands": 12, "bikes": 3, "update": "2016-02-06T13:16:07", "lat": 47.216479771820744, "address": "STRASBOURG - PLACE TIRANT LO BLANC"}, "type": "Feature"}, {"geometry": {"coordinates": [-1.553484290392954, 47.21857181309145], "type": "Point"}, "properties": {"name": "00002-H\u00d4TEL DE VILLE", "lon": -1.553484290392954, "status": "OPEN", "stands": 15, "bikes": 5, "update": "2016-02-06T13:07:50", "lat": 47.21857181309145, "address": "H\u00d4TEL DE VILLE - FACE AU 29 RUE DE STRASBOURG"}, "type": "Feature"}, {"geometry": {"coordinates": [-1.564806790782994, 47.20691895869599], "type": "Point"}, "properties": {"name": "00043 - MACHINE DE L'\u00ceLE", "lon": -1.564806790782994, "status": "OPEN", "stands": 28, "bikes": 2, "update": "2016-02-06T13:16:12", "lat": 47.20691895869599, "address": "MACHINE DE L'\u00ceLE - 3 BD LEON BUREAU"}, "type": "Feature"}, {"geometry": {"coordinates": [-1.525933451925082, 47.21074214218137], "type": "Point"}, "properties": {"name": "00084-R\u00c9GION", "lon": -1.525933451925082, "status": "OPEN", "stands": 15, "bikes": 4, "update": "2016-02-06T13:15:03", "lat": 47.21074214218137, "address": "REGION - RUE DE LA LOIRE"}, "type": "Feature"}, {"geometry": {"coordinates": [-1.550411914119152, 47.208804642437784], "type": "Point"}, "properties": {"name": "00040-MADELEINE", "lon": -1.550411914119152, "status": "OPEN", "stands": 14, "bikes": 1, "update": "2016-02-06T13:07:09", "lat": 47.208804642437784, "address": "MADELEINE - 2 QUAI MONCOUSU"}, "type": "Feature"}, {"geometry": {"coordinates": [-1.555531041936261, 47.220392126691955], "type": "Point"}, "properties": {"name": "00022-MOQUECHIEN", "lon": -1.555531041936261, "status": "OPEN", "stands": 10, "bikes": 6, "update": "2016-02-06T13:07:42", "lat": 47.220392126691955, "address": "MOQUECHIEN - 8 RUE MOQUECHIEN"}, "type": "Feature"}, {"geometry": {"coordinates": [-1.572610286970505, 47.20659772898787], "type": "Point"}, "properties": {"name": "00042-GARE MARITIME", "lon": -1.572610286970505, "status": "OPEN", "stands": 3, "bikes": 22, "update": "2016-02-06T13:10:17", "lat": 47.20659772898787, "address": "GARE MARITIME - PLACE JACKSONVILLE"}, "type": "Feature"}, {"geometry": {"coordinates": [-1.549291898557657, 47.19280351379784], "type": "Point"}, "properties": {"name": "00102-GARE PT ROUSSEAU", "lon": -1.549291898557657, "status": "OPEN", "stands": 10, "bikes": 9, "update": "2016-02-06T13:10:48", "lat": 47.19280351379784, "address": "GARE PONT ROUSSEAU - RUE DE LA GARE - REZE"}, "type": "Feature"}, {"geometry": {"coordinates": [-1.541777739850638, 47.206798618575256], "type": "Point"}, "properties": {"name": "00056-VINCENT GACHE", "lon": -1.541777739850638, "status": "OPEN", "stands": 10, "bikes": 5, "update": "2016-02-06T13:12:29", "lat": 47.206798618575256, "address": "VINCENT GACHE - 9 RUE FRANCOIS ALBERT"}, "type": "Feature"}, {"geometry": {"coordinates": [-1.556126125975167, 47.215331358010445], "type": "Point"}, "properties": {"name": "00007- BARILLERIE", "lon": -1.556126125975167, "status": "OPEN", "stands": 3, "bikes": 12, "update": "2016-02-06T13:10:01", "lat": 47.215331358010445, "address": "BARILLERIE - 2 ALLEE PENTHIEVRE"}, "type": "Feature"}, {"geometry": {"coordinates": [-1.55892310936669, 47.204783935599195], "type": "Point"}, "properties": {"name": "00045-PRAIRIE AU DUC", "lon": -1.55892310936669, "status": "OPEN", "stands": 8, "bikes": 5, "update": "2016-02-06T13:13:53", "lat": 47.204783935599195, "address": "PRAIRIE AU DUC - 40 BOULEVARD DE LA PRAIRIE AU DUC"}, "type": "Feature"}, {"geometry": {"coordinates": [-1.568490581479757, 47.206384991216765], "type": "Point"}, "properties": {"name": "00103 - STATION MOBILE", "lon": -1.568490581479757, "status": "OPEN", "stands": 15, "bikes": 4, "update": "2016-02-06T13:12:43", "lat": 47.206384991216765, "address": "ILE DE NANTES PARC DES CHANTIERS A COTE DU CARROUSEL  (Station mobile)"}, "type": "Feature"}, {"geometry": {"coordinates": [-1.534184544523239, 47.216369613307506], "type": "Point"}, "properties": {"name": "00010- PICASSO", "lon": -1.534184544523239, "status": "OPEN", "stands": 8, "bikes": 20, "update": "2016-02-06T13:09:17", "lat": 47.216369613307506, "address": "PICASSO - RUE PABLO PICASSO"}, "type": "Feature"}, {"geometry": {"coordinates": [-1.542208634875899, 47.218132613316826], "type": "Point"}, "properties": {"name": "00062-GARE NORD", "lon": -1.542208634875899, "status": "OPEN", "stands": 5, "bikes": 35, "update": "2016-02-06T13:07:40", "lat": 47.218132613316826, "address": "GARE NORD - 1 PLACE CHARLES LE ROUX"}, "type": "Feature"}, {"geometry": {"coordinates": [-1.535981000861306, 47.208466072191925], "type": "Point"}, "properties": {"name": "00058-PALAIS DES SPORTS", "lon": -1.535981000861306, "status": "OPEN", "stands": 12, "bikes": 3, "update": "2016-02-06T13:09:53", "lat": 47.208466072191925, "address": "PALAIS DES SPORTS - 21 RUE RENE VIVIANI"}, "type": "Feature"}, {"geometry": {"coordinates": [-1.556344610167984, 47.243263914975486], "type": "Point"}, "properties": {"name": "00094-PETIT PORT", "lon": -1.556344610167984, "status": "OPEN", "stands": 6, "bikes": 14, "update": "2016-02-06T13:14:45", "lat": 47.243263914975486, "address": "PETIT PORT - BD DU PETIT PORT"}, "type": "Feature"}, {"geometry": {"coordinates": [-1.559086551239872, 47.212083030753185], "type": "Point"}, "properties": {"name": "00031-BOURSE", "lon": -1.559086551239872, "status": "OPEN", "stands": 3, "bikes": 13, "update": "2016-02-06T13:12:30", "lat": 47.212083030753185, "address": "BOURSE - SQUARE DE LA BOURSE"}, "type": "Feature"}, {"geometry": {"coordinates": [-1.574924617192968, 47.21433366088933], "type": "Point"}, "properties": {"name": "00074-CANCLAUX", "lon": -1.574924617192968, "status": "OPEN", "stands": 11, "bikes": 4, "update": "2016-02-06T13:15:51", "lat": 47.21433366088933, "address": "CANCLAUX - 8 PLACE CANCLAUX"}, "type": "Feature"}, {"geometry": {"coordinates": [-1.561806393011127, 47.22862569057461], "type": "Point"}, "properties": {"name": "00072-BELLAMY-GU\u00c9 MOREAU", "lon": -1.561806393011127, "status": "OPEN", "stands": 1, "bikes": 14, "update": "2016-02-06T13:06:57", "lat": 47.22862569057461, "address": "Bellamy-Gu\u00e9 Moreau-138 rue Paul Bellamy"}, "type": "Feature"}, {"geometry": {"coordinates": [-1.558920890474776, 47.219854467329974], "type": "Point"}, "properties": {"name": "00019-SAINT SIMILIEN", "lon": -1.558920890474776, "status": "OPEN", "stands": 14, "bikes": 1, "update": "2016-02-06T13:15:36", "lat": 47.219854467329974, "address": "SAINT SIMILIEN - 1 PLACE SAINT SIMILIEN"}, "type": "Feature"}, {"geometry": {"coordinates": [-1.529735885980363, 47.21419463149648], "type": "Point"}, "properties": {"name": "00051-TABARLY", "lon": -1.529735885980363, "status": "OPEN", "stands": 5, "bikes": 15, "update": "2016-02-06T13:12:46", "lat": 47.21419463149648, "address": "AVENUE DE BERLIN DEVANT MAISON DE QUARTIER"}, "type": "Feature"}, {"geometry": {"coordinates": [-1.578689264310988, 47.20743863754715], "type": "Point"}, "properties": {"name": "00089-SAINT-AIGNAN", "lon": -1.578689264310988, "status": "OPEN", "stands": 6, "bikes": 8, "update": "2016-02-06T13:14:06", "lat": 47.20743863754715, "address": "SAINT AIGNAN - 65 BD ST AIGNAN"}, "type": "Feature"}, {"geometry": {"coordinates": [-1.557532467914316, 47.207605640212115], "type": "Point"}, "properties": {"name": "00077-ECOLE D'ARCHITECTURE", "lon": -1.557532467914316, "status": "OPEN", "stands": 25, "bikes": 0, "update": "2016-02-06T13:14:45", "lat": 47.207605640212115, "address": "ECOLE D'ARCHITECTURE - QUAI F MITTERRAND"}, "type": "Feature"}, {"geometry": {"coordinates": [-1.571373578112414, 47.223604815399085], "type": "Point"}, "properties": {"name": "00087-ANATOLE FRANCE", "lon": -1.571373578112414, "status": "OPEN", "stands": 6, "bikes": 9, "update": "2016-02-06T13:11:43", "lat": 47.223604815399085, "address": "ANATOLE FRANCE - 41 RUE ALEXANDRE DUMAS"}, "type": "Feature"}, {"geometry": {"coordinates": [-1.548161311046709, 47.20702417983412], "type": "Point"}, "properties": {"name": "00047- MARTYRS NANTAIS", "lon": -1.548161311046709, "status": "OPEN", "stands": 14, "bikes": 1, "update": "2016-02-06T13:12:08", "lat": 47.20702417983412, "address": "MARTYRS NANTAIS - 1 BD DES MARTYRS NANTAIS"}, "type": "Feature"}, {"geometry": {"coordinates": [-1.540292594289221, 47.22908808709286], "type": "Point"}, "properties": {"name": "00097-SAINT DONATIEN", "lon": -1.540292594289221, "status": "OPEN", "stands": 15, "bikes": 5, "update": "2016-02-06T13:14:57", "lat": 47.22908808709286, "address": "SAINT DONATIEN - PLACE DU 51\u00e9me RIMA"}, "type": "Feature"}, {"geometry": {"coordinates": [-1.557393235628245, 47.21312055103121], "type": "Point"}, "properties": {"name": "00030-COMMERCE", "lon": -1.557393235628245, "status": "OPEN", "stands": 19, "bikes": 20, "update": "2016-02-06T13:08:15", "lat": 47.21312055103121, "address": "COMMERCE - FACE PLACE DU COMMERCE"}, "type": "Feature"}, {"geometry": {"coordinates": [-1.569171883302444, 47.21792981632508], "type": "Point"}, "properties": {"name": "00027-GUIST'HAU NORD", "lon": -1.569171883302444, "status": "OPEN", "stands": 11, "bikes": 4, "update": "2016-02-06T13:08:18", "lat": 47.21792981632508, "address": "GUIST'HAU NORD - 42 BD GUIST'HAU"}, "type": "Feature"}, {"geometry": {"coordinates": [-1.562986793288367, 47.21718482329023], "type": "Point"}, "properties": {"name": "00015-PLACE ARISTIDE BRIAND", "lon": -1.562986793288367, "status": "OPEN", "stands": 15, "bikes": 2, "update": "2016-02-06T13:09:31", "lat": 47.21718482329023, "address": "PLACE ARISTIDE BRIAND"}, "type": "Feature"}, {"geometry": {"coordinates": [-1.530180435959972, 47.208199645038825], "type": "Point"}, "properties": {"name": "00083-MILLERAND", "lon": -1.530180435959972, "status": "OPEN", "stands": 13, "bikes": 1, "update": "2016-02-06T13:10:53", "lat": 47.208199645038825, "address": "MILLERAND - 9 BD ALEXANDRE MILLERAND"}, "type": "Feature"}, {"geometry": {"coordinates": [-1.561744905652581, 47.210886925815934], "type": "Point"}, "properties": {"name": "00034-MEDIATHEQUE", "lon": -1.561744905652581, "status": "OPEN", "stands": 4, "bikes": 16, "update": "2016-02-06T13:08:30", "lat": 47.210886925815934, "address": "MEDIATHEQUE - 24 QUAI DE LA FOSSE"}, "type": "Feature"}, {"geometry": {"coordinates": [-1.572114577993728, 47.229580605369215], "type": "Point"}, "properties": {"name": "00091-RD PT VANNES", "lon": -1.572114577993728, "status": "OPEN", "stands": 8, "bikes": 8, "update": "2016-02-06T13:15:31", "lat": 47.229580605369215, "address": "RD PT VANNES - 65 BD LE LASSEUR"}, "type": "Feature"}, {"geometry": {"coordinates": [-1.555183107916184, 47.20532409029517], "type": "Point"}, "properties": {"name": "00046-PLACE REPUBLIQUE", "lon": -1.555183107916184, "status": "OPEN", "stands": 3, "bikes": 17, "update": "2016-02-06T13:13:01", "lat": 47.20532409029517, "address": "PLACE DE LA REPUBLIQUE - 3 PLACE DE LA REPUBLIQUE"}, "type": "Feature"}, {"geometry": {"coordinates": [-1.557229797031573, 47.222902006053054], "type": "Point"}, "properties": {"name": "00020-BELLAMY", "lon": -1.557229797031573, "status": "OPEN", "stands": 14, "bikes": 1, "update": "2016-02-06T13:14:32", "lat": 47.222902006053054, "address": "BELLAMY - 50 RUE PAUL BELLAMY"}, "type": "Feature"}, {"geometry": {"coordinates": [-1.545507251231619, 47.20095551723967], "type": "Point"}, "properties": {"name": "00081 - MANGIN", "lon": -1.545507251231619, "status": "OPEN", "stands": 4, "bikes": 10, "update": "2016-02-06T13:07:06", "lat": 47.20095551723967, "address": "MANGIN - DEV 8 PLACE MANGIN"}, "type": "Feature"}, {"geometry": {"coordinates": [-1.544298470945214, 47.21078140655944], "type": "Point"}, "properties": {"name": "00055-MAGELLAN", "lon": -1.544298470945214, "status": "OPEN", "stands": 9, "bikes": 6, "update": "2016-02-06T13:11:32", "lat": 47.21078140655944, "address": "MAGELLAN - 11 RUE DE BELFORT"}, "type": "Feature"}, {"geometry": {"coordinates": [-1.540514488290191, 47.20844367718286], "type": "Point"}, "properties": {"name": "00078-DE GAULLE", "lon": -1.540514488290191, "status": "OPEN", "stands": 8, "bikes": 7, "update": "2016-02-06T13:07:37", "lat": 47.20844367718286, "address": "DE GAULLE - PONT A. BRIAND / BD DE GAULLE"}, "type": "Feature"}, {"geometry": {"coordinates": [-1.552147986072217, 47.22777476106513], "type": "Point"}, "properties": {"name": "00067-PLACE WALDECK ROUSSEAU", "lon": -1.552147986072217, "status": "OPEN", "stands": 1, "bikes": 18, "update": "2016-02-06T13:12:19", "lat": 47.22777476106513, "address": "PLACE WALDECK ROUSSEAU"}, "type": "Feature"}, {"geometry": {"coordinates": [-1.537581863003988, 47.205396132179104], "type": "Point"}, "properties": {"name": "00057-GAETAN RONDEAU", "lon": -1.537581863003988, "status": "OPEN", "stands": 10, "bikes": 10, "update": "2016-02-06T13:12:21", "lat": 47.205396132179104, "address": "GAETAN RONDEAU - 20 RUE GAETAN RONDEAU"}, "type": "Feature"}, {"geometry": {"coordinates": [-1.536511118183477, 47.213237140630014], "type": "Point"}, "properties": {"name": "00079-MALAKOFF", "lon": -1.536511118183477, "status": "OPEN", "stands": 3, "bikes": 12, "update": "2016-02-06T13:13:01", "lat": 47.213237140630014, "address": "MALAKOFF - 15 QUAI MALAKOFF"}, "type": "Feature"}, {"geometry": {"coordinates": [-1.571369360221906, 47.21230895884701], "type": "Point"}, "properties": {"name": "00075-LAMORICIERE", "lon": -1.571369360221906, "status": "OPEN", "stands": 7, "bikes": 11, "update": "2016-02-06T13:13:07", "lat": 47.21230895884701, "address": "LAMORICIERE - PLACE BEAUMANOIR"}, "type": "Feature"}, {"geometry": {"coordinates": [-1.563308366869757, 47.22142933898549], "type": "Point"}, "properties": {"name": "00018-PLACE VIARME", "lon": -1.563308366869757, "status": "OPEN", "stands": 11, "bikes": 3, "update": "2016-02-06T13:11:30", "lat": 47.22142933898549, "address": "PLACE VIARME - 23 PLACE VIARME"}, "type": "Feature"}, {"geometry": {"coordinates": [-1.556421138973112, 47.234687038295554], "type": "Point"}, "properties": {"name": "00095-MICHELET", "lon": -1.556421138973112, "status": "OPEN", "stands": 25, "bikes": 0, "update": "2016-02-06T13:11:16", "lat": 47.234687038295554, "address": "MICHELET - BD MICHELET"}, "type": "Feature"}, {"geometry": {"coordinates": [-1.560022819676629, 47.226394430986105], "type": "Point"}, "properties": {"name": "00085-BEL AIR", "lon": -1.560022819676629, "status": "OPEN", "stands": 7, "bikes": 7, "update": "2016-02-06T13:12:48", "lat": 47.226394430986105, "address": "BEL AIR - 102 RUE PAUL BELLAMY"}, "type": "Feature"}, {"geometry": {"coordinates": [-1.56605906933562, 47.23302818477594], "type": "Point"}, "properties": {"name": "00092-DT PT RENNES", "lon": -1.56605906933562, "status": "OPEN", "stands": 10, "bikes": 10, "update": "2016-02-06T13:12:48", "lat": 47.23302818477594, "address": "RD PT RENNES - ANGLE BD LE LASSEUR & RUE PAUL BELLAMY"}, "type": "Feature"}, {"geometry": {"coordinates": [-1.539712888264826, 47.21391161818379], "type": "Point"}, "properties": {"name": "00059-STADE SAUPIN", "lon": -1.539712888264826, "status": "OPEN", "stands": 5, "bikes": 10, "update": "2016-02-06T13:13:41", "lat": 47.21391161818379, "address": "STADE SAUPIN - 35 QUAI MALAKOFF"}, "type": "Feature"}, {"geometry": {"coordinates": [-1.549886024937758, 47.211736393222054], "type": "Point"}, "properties": {"name": "00053-OLIVETTES", "lon": -1.549886024937758, "status": "OPEN", "stands": 9, "bikes": 6, "update": "2016-02-06T13:13:49", "lat": 47.211736393222054, "address": "OLIVETTES - 10 RUE DES OLIVETTES"}, "type": "Feature"}, {"geometry": {"coordinates": [-1.570515336280715, 47.209429092524424], "type": "Point"}, "properties": {"name": "00076-PLACE REN\u00c9 BOUHIER", "lon": -1.570515336280715, "status": "OPEN", "stands": 1, "bikes": 14, "update": "2016-02-06T13:14:19", "lat": 47.209429092524424, "address": "PLACE RENE BOUHIER - 8 PLACE RENE BOUHIER"}, "type": "Feature"}, {"geometry": {"coordinates": [-1.557111680197571, 47.21620089258823], "type": "Point"}, "properties": {"name": "00008-BOUCHERIE", "lon": -1.557111680197571, "status": "OPEN", "stands": 17, "bikes": 2, "update": "2016-02-06T13:15:15", "lat": 47.21620089258823, "address": "BOUCHERIE - FACE AU 4 RUE DE LA BOUCHERIE"}, "type": "Feature"}, {"geometry": {"coordinates": [-1.570438598073934, 47.220882433018865], "type": "Point"}, "properties": {"name": "00073-SARRADIN", "lon": -1.570438598073934, "status": "OPEN", "stands": 13, "bikes": 0, "update": "2016-02-06T13:14:57", "lat": 47.220882433018865, "address": "SARRADIN - FACE AU 4 PLACE SARRADIN"}, "type": "Feature"}, {"geometry": {"coordinates": [-1.547058938534335, 47.21651740326776], "type": "Point"}, "properties": {"name": "00049-DUCHESSE ANNE", "lon": -1.547058938534335, "status": "OPEN", "stands": 3, "bikes": 12, "update": "2016-02-06T13:12:18", "lat": 47.21651740326776, "address": "DUCHESSE ANNE - 2 PLACE DE LA DUCHESSE ANNE"}, "type": "Feature"}, {"geometry": {"coordinates": [-1.555309011107301, 47.246298068423485], "type": "Point"}, "properties": {"name": "00093-FACULTES", "lon": -1.555309011107301, "status": "OPEN", "stands": 12, "bikes": 28, "update": "2016-02-06T13:15:11", "lat": 47.246298068423485, "address": "FACULTES - ANGLE ROUTE DE LA JONELIERE & BD G. MOLLET"}, "type": "Feature"}, {"geometry": {"coordinates": [-1.551849784370311, 47.217505374678645], "type": "Point"}, "properties": {"name": "00048-VERDUN", "lon": -1.551849784370311, "status": "OPEN", "stands": 2, "bikes": 12, "update": "2016-02-06T13:08:07", "lat": 47.217505374678645, "address": "VERDUN - 15 RUE DE VERDUN"}, "type": "Feature"}, {"geometry": {"coordinates": [-1.55408380740881, 47.220255183724454], "type": "Point"}, "properties": {"name": "00001-PREFECTURE", "lon": -1.55408380740881, "status": "OPEN", "stands": 22, "bikes": 3, "update": "2016-02-06T13:16:04", "lat": 47.220255183724454, "address": "PREFECTURE - 5 QUAI CEINERAY"}, "type": "Feature"}, {"geometry": {"coordinates": [-1.542404741250403, 47.227145468224634], "type": "Point"}, "properties": {"name": "00023-BUAT", "lon": -1.542404741250403, "status": "OPEN", "stands": 9, "bikes": 2, "update": "2016-02-06T13:11:05", "lat": 47.227145468224634, "address": "BUAT - 118 RUE DE COULMIERS"}, "type": "Feature"}, {"geometry": {"coordinates": [-1.576612843727262, 47.22419506173264], "type": "Point"}, "properties": {"name": "00090-PROCE", "lon": -1.576612843727262, "status": "OPEN", "stands": 11, "bikes": 4, "update": "2016-02-06T13:10:03", "lat": 47.22419506173264, "address": "PROCE - ANGLE BD G. SERPETTE & BD A. PAGEOT"}, "type": "Feature"}, {"geometry": {"coordinates": [-1.5502297, 47.2191122], "type": "Point"}, "properties": {"name": "00032-FOCH", "lon": -1.5502297, "status": "OPEN", "stands": 7, "bikes": 8, "update": "2016-02-06T13:11:21", "lat": 47.2191122, "address": "FOCH - PLACE FOCH"}, "type": "Feature"}, {"geometry": {"coordinates": [-1.561570147641708, 47.21921395261352], "type": "Point"}, "properties": {"name": "00017-SAINTE ELISABETH", "lon": -1.561570147641708, "status": "OPEN", "stands": 13, "bikes": 1, "update": "2016-02-06T13:09:52", "lat": 47.21921395261352, "address": "SAINTE ELISABTEH - 3 PLACE STE ELISABETH"}, "type": "Feature"}, {"geometry": {"coordinates": [-1.555269922656021, 47.213450231365094], "type": "Point"}, "properties": {"name": "00029-DUGUAY TROUIN", "lon": -1.555269922656021, "status": "OPEN", "stands": 10, "bikes": 5, "update": "2016-02-06T13:10:54", "lat": 47.213450231365094, "address": "DUGUAY TROUIN - 7 ALLEE DUGUAY TROUIN"}, "type": "Feature"}, {"geometry": {"coordinates": [-1.550226242563373, 47.21514969516256], "type": "Point"}, "properties": {"name": "00050-CHATEAU", "lon": -1.550226242563373, "status": "OPEN", "stands": 7, "bikes": 9, "update": "2016-02-06T13:09:44", "lat": 47.21514969516256, "address": "CHATEAU - 2 RUE DES ETATS"}, "type": "Feature"}, {"geometry": {"coordinates": [-1.5568245371939, 47.211465063355035], "type": "Point"}, "properties": {"name": "00037-FEYDEAU", "lon": -1.5568245371939, "status": "OPEN", "stands": 8, "bikes": 13, "update": "2016-02-06T13:12:20", "lat": 47.211465063355035, "address": "FEYDEAU - 1 ALLEE ILE GLORIETTE"}, "type": "Feature"}, {"geometry": {"coordinates": [-1.567501842502272, 47.22547062698044], "type": "Point"}, "properties": {"name": "00086-HAUTS PAV\u00c9S", "lon": -1.567501842502272, "status": "OPEN", "stands": 8, "bikes": 8, "update": "2016-02-06T13:12:25", "lat": 47.22547062698044, "address": "HAUT PAVES - ANGLE RUE DE BERRY/RUE DES HAUTS PAVES"}, "type": "Feature"}, {"geometry": {"coordinates": [-1.555233144631466, 47.209406573873714], "type": "Point"}, "properties": {"name": "00039-QUAI MONCOUSU", "lon": -1.555233144631466, "status": "OPEN", "stands": 12, "bikes": 7, "update": "2016-02-06T13:07:45", "lat": 47.209406573873714, "address": "QUAI MONCOUSU - 11 QUAI MONCOUSU"}, "type": "Feature"}, {"geometry": {"coordinates": [-1.565543986075099, 47.212168974412094], "type": "Point"}, "properties": {"name": "00035-JEAN V", "lon": -1.565543986075099, "status": "OPEN", "stands": 7, "bikes": 8, "update": "2016-02-06T13:13:50", "lat": 47.212168974412094, "address": "JEAN V - 2 PLACE JEAN V"}, "type": "Feature"}, {"geometry": {"coordinates": [-1.529959592703474, 47.223508869811994], "type": "Point"}, "properties": {"name": "00025-DALBY", "lon": -1.529959592703474, "status": "OPEN", "stands": 6, "bikes": 9, "update": "2016-02-06T13:11:53", "lat": 47.223508869811994, "address": "DALBY- 61 BD ERNEST DALBY FACE STATION SERVICE"}, "type": "Feature"}, {"geometry": {"coordinates": [-1.561173077989395, 47.20831728844152], "type": "Point"}, "properties": {"name": "00044-PALAIS DE JUSTICE", "lon": -1.561173077989395, "status": "OPEN", "stands": 17, "bikes": 8, "update": "2016-02-06T13:12:44", "lat": 47.20831728844152, "address": "PALAIS DE JUSTICE - 19 QUAI FRANCOIS MITTERAND"}, "type": "Feature"}, {"geometry": {"coordinates": [-1.536540663464699, 47.1958989090141], "type": "Point"}, "properties": {"name": "00099-ST JACQUES", "lon": -1.536540663464699, "status": "OPEN", "stands": 2, "bikes": 12, "update": "2016-02-06T13:15:02", "lat": 47.1958989090141, "address": "ST JACQUES - RUE ST JACQUES"}, "type": "Feature"}, {"geometry": {"coordinates": [-1.551548484803203, 47.204003208491145], "type": "Point"}, "properties": {"name": "00080 - VICTOR HUGO", "lon": -1.551548484803203, "status": "OPEN", "stands": 13, "bikes": 2, "update": "2016-02-06T13:13:21", "lat": 47.204003208491145, "address": "VICTOR HUGO - BD VICTOR HUGO"}, "type": "Feature"}, {"geometry": {"coordinates": [-1.545905939112105, 47.215591463959825], "type": "Point"}, "properties": {"name": "00061-LU - LIEU UNIQUE", "lon": -1.545905939112105, "status": "OPEN", "stands": 3, "bikes": 12, "update": "2016-02-06T13:11:50", "lat": 47.215591463959825, "address": "LIEU UNIQUE - FACE 23 QUAI FERDINAND FAVRE"}, "type": "Feature"}, {"geometry": {"coordinates": [-1.556476339327795, 47.22114332912908], "type": "Point"}, "properties": {"name": "00021-MARCHE TALENSAC SUD", "lon": -1.556476339327795, "status": "OPEN", "stands": 9, "bikes": 7, "update": "2016-02-06T13:10:23", "lat": 47.22114332912908, "address": "MARCHE TALENSAC SUD - 6 RUE TALENSAC"}, "type": "Feature"}, {"geometry": {"coordinates": [-1.558940746690739, 47.22185363818837], "type": "Point"}, "properties": {"name": "00071-MARCHE TALENSAC NORD", "lon": -1.558940746690739, "status": "OPEN", "stands": 10, "bikes": 4, "update": "2016-02-06T13:11:20", "lat": 47.22185363818837, "address": "MARCHE TALENSAC NORD - 18 RUE TALENSAC"}, "type": "Feature"}, {"geometry": {"coordinates": [-1.569524048742154, 47.208357479819504], "type": "Point"}, "properties": {"name": "00041-CHANTIER NAVAL", "lon": -1.569524048742154, "status": "OPEN", "stands": 0, "bikes": 15, "update": "2016-02-06T13:10:34", "lat": 47.208357479819504, "address": "CHANTIER NAVAL - 87 QUAI DE LA FOSSE"}, "type": "Feature"}, {"geometry": {"coordinates": [-1.563900673465861, 47.21515818868574], "type": "Point"}, "properties": {"name": "00012-PLACE DELORME", "lon": -1.563900673465861, "status": "OPEN", "stands": 12, "bikes": 8, "update": "2016-02-06T13:12:26", "lat": 47.21515818868574, "address": "PLACE DELORME"}, "type": "Feature"}, {"geometry": {"coordinates": [-1.550828036456355, 47.18921204751304], "type": "Point"}, "properties": {"name": "00098-HUIT MAI", "lon": -1.550828036456355, "status": "OPEN", "stands": 7, "bikes": 7, "update": "2016-02-06T13:13:00", "lat": 47.18921204751304, "address": "HUIT MAI - AVENUE DE LA LIBERATION - REZE"}, "type": "Feature"}, {"geometry": {"coordinates": [-1.567004526265165, 47.21682795997449], "type": "Point"}, "properties": {"name": "00026-GUIST'HAU SUD", "lon": -1.567004526265165, "status": "OPEN", "stands": 15, "bikes": 0, "update": "2016-02-06T13:11:45", "lat": 47.21682795997449, "address": "GUIST'HAU SUD - 26 BOULEVARD GUIST'HAU"}, "type": "Feature"}, {"geometry": {"coordinates": [-1.548750555741977, 47.214327524589145], "type": "Point"}, "properties": {"name": "00052-BACO", "lon": -1.548750555741977, "status": "OPEN", "stands": 8, "bikes": 7, "update": "2016-02-06T13:09:29", "lat": 47.214327524589145, "address": "BACO - FACE AU 8 ALLEE BACO"}, "type": "Feature"}, {"geometry": {"coordinates": [-1.560675283700123, 47.215578942427136], "type": "Point"}, "properties": {"name": "00011-CALVAIRE", "lon": -1.560675283700123, "status": "OPEN", "stands": 15, "bikes": 0, "update": "2016-02-06T13:15:29", "lat": 47.215578942427136, "address": "CALVAIRE - PL.DES VOLONTAIRES DE LA DEFENSE PASSIVE"}, "type": "Feature"}, {"geometry": {"coordinates": [-1.544718964531585, 47.219834197318974], "type": "Point"}, "properties": {"name": "00063-JARDIN DES PLANTES", "lon": -1.544718964531585, "status": "OPEN", "stands": 3, "bikes": 12, "update": "2016-02-06T13:09:01", "lat": 47.219834197318974, "address": "JARDIN DES PLANTES - 6 RUE STANILAS BAUDRY"}, "type": "Feature"}, {"geometry": {"coordinates": [-1.563419484053747, 47.21902754473837], "type": "Point"}, "properties": {"name": "00016-PLACE EDOUARD NORMAND", "lon": -1.563419484053747, "status": "OPEN", "stands": 13, "bikes": 2, "update": "2016-02-06T13:12:45", "lat": 47.21902754473837, "address": "PLACE EDOUARD NORMAND - FACE AU 7 PLACE EDOUARD NORMAND"}, "type": "Feature"}, {"geometry": {"coordinates": [-1.577175414321782, 47.211501070117826], "type": "Point"}, "properties": {"name": "00088-MELLINET", "lon": -1.577175414321782, "status": "OPEN", "stands": 8, "bikes": 7, "update": "2016-02-06T13:12:05", "lat": 47.211501070117826, "address": "MELLINET - 1 BD ALLARD"}, "type": "Feature"}, {"geometry": {"coordinates": [-1.542844, 47.215505], "type": "Point"}, "properties": {"name": "00070-GARE SUD 2", "lon": -1.542844, "status": "OPEN", "stands": 1, "bikes": 29, "update": "2016-02-06T13:11:50", "lat": 47.215505, "address": "Quai Malakoff - c\u00f4t\u00e9 canal st F\u00e9lix"}, "type": "Feature"}, {"geometry": {"coordinates": [-1.5543847138777, 47.216667582015184], "type": "Point"}, "properties": {"name": "00004-MOULIN", "lon": -1.5543847138777, "status": "OPEN", "stands": 10, "bikes": 3, "update": "2016-02-06T13:10:46", "lat": 47.216667582015184, "address": "MOULIN - FACE AU 18 RUE DU MOULIN"}, "type": "Feature"}, {"geometry": {"coordinates": [-1.549221766809888, 47.235335222208626], "type": "Point"}, "properties": {"name": "00096-TORTIERE", "lon": -1.549221766809888, "status": "OPEN", "stands": 9, "bikes": 7, "update": "2016-02-06T13:09:31", "lat": 47.235335222208626, "address": "TORTIERE - BD EUGENE ORIEUX"}, "type": "Feature"}, {"geometry": {"coordinates": [-1.547099233718495, 47.221785183522634], "type": "Point"}, "properties": {"name": "00064-SAINT CLEMENT", "lon": -1.547099233718495, "status": "OPEN", "stands": 5, "bikes": 10, "update": "2016-02-06T13:15:25", "lat": 47.221785183522634, "address": "SAINT CLEMENT - FACE AU 37 RUE DU MARECHAL JOFFRE"}, "type": "Feature"}, {"geometry": {"coordinates": [-1.559017485167438, 47.215814587139455], "type": "Point"}, "properties": {"name": "00009-GUEPIN", "lon": -1.559017485167438, "status": "OPEN", "stands": 13, "bikes": 1, "update": "2016-02-06T13:15:21", "lat": 47.215814587139455, "address": "GUEPIN - 8 RUE DE L'ARCHE SECHE"}, "type": "Feature"}, {"geometry": {"coordinates": [-1.563140874431397, 47.213522613719896], "type": "Point"}, "properties": {"name": "00033-RACINE", "lon": -1.563140874431397, "status": "OPEN", "stands": 12, "bikes": 3, "update": "2016-02-06T13:13:02", "lat": 47.213522613719896, "address": "RACINE - 4 RUE RACINE"}, "type": "Feature"}, {"geometry": {"coordinates": [-1.542847782057658, 47.215919436013635], "type": "Point"}, "properties": {"name": "00060-GARE SUD", "lon": -1.542847782057658, "status": "OPEN", "stands": 10, "bikes": 30, "update": "2016-02-06T13:11:22", "lat": 47.215919436013635, "address": "GARE SUD - FACE 12 RUE LOURMEL"}, "type": "Feature"}, {"geometry": {"coordinates": [-1.553711961402328, 47.22451490719107], "type": "Point"}, "properties": {"name": "00024-VERSAILLES", "lon": -1.553711961402328, "status": "OPEN", "stands": 1, "bikes": 14, "update": "2016-02-06T13:16:19", "lat": 47.22451490719107, "address": "VERSAILLES - FACE AU 25 QUAI DE VERSAILLES"}, "type": "Feature"}, {"geometry": {"coordinates": [-1.533118244923623, 47.206757512308414], "type": "Point"}, "properties": {"name": "00082-SEBILLEAU", "lon": -1.533118244923623, "status": "OPEN", "stands": 6, "bikes": 10, "update": "2016-02-06T13:08:12", "lat": 47.206757512308414, "address": "SEBILLEAU - 9 RUE GAETAN RONDEAU"}, "type": "Feature"}, {"geometry": {"coordinates": [-1.556749263076553, 47.218837230469425], "type": "Point"}, "properties": {"name": "00005-BROSSARD", "lon": -1.556749263076553, "status": "OPEN", "stands": 9, "bikes": 6, "update": "2016-02-06T13:15:30", "lat": 47.218837230469425, "address": "BROSSARD - 25 RUE ARMAND BROSSARD"}, "type": "Feature"}, {"geometry": {"coordinates": [-1.54156809120326, 47.1965313642396], "type": "Point"}, "properties": {"name": "00101 - PIRMIL", "lon": -1.54156809120326, "status": "OPEN", "stands": 12, "bikes": 16, "update": "2016-02-06T13:15:19", "lat": 47.1965313642396, "address": "PIRMIL - RUE ESNOUL DES CHATELETS"}, "type": "Feature"}, {"geometry": {"coordinates": [-1.534717540470481, 47.199923092905216], "type": "Point"}, "properties": {"name": "00100 - GRENERAIE", "lon": -1.534717540470481, "status": "OPEN", "stands": 5, "bikes": 15, "update": "2016-02-06T13:15:03", "lat": 47.199923092905216, "address": "GRENERAIE - PARC DE LA GRENERAIE"}, "type": "Feature"}, {"geometry": {"coordinates": [-1.544952541668585, 47.213180085527846], "type": "Point"}, "properties": {"name": "00054- CITE INTERNATIONALE DES CONGRES", "lon": -1.544952541668585, "status": "OPEN", "stands": 6, "bikes": 24, "update": "2016-02-06T13:15:58", "lat": 47.213180085527846, "address": "CITE INTERNATIONAL DES CONGRES - 2 RUE DE JEMMAPES"}, "type": "Feature"}, {"geometry": {"coordinates": [-1.567568016663838, 47.21446342738575], "type": "Point"}, "properties": {"name": "00028- PLACE DE L'EDIT NANTES", "lon": -1.567568016663838, "status": "OPEN", "stands": 8, "bikes": 5, "update": "2016-02-06T13:15:19", "lat": 47.21446342738575, "address": "PLACE DE L'EDIT DE NANTES"}, "type": "Feature"}, {"geometry": {"coordinates": [-1.545212434215091, 47.22406787948748], "type": "Point"}, "properties": {"name": "00068-LIVET", "lon": -1.545212434215091, "status": "OPEN", "stands": 14, "bikes": 1, "update": "2016-02-06T13:11:07", "lat": 47.22406787948748, "address": "LIVET - FACE AU 65 RUE DU FOUR"}, "type": "Feature"}, {"geometry": {"coordinates": [-1.551666442545979, 47.222587339906696], "type": "Point"}, "properties": {"name": "00065-COURS SULLY", "lon": -1.551666442545979, "status": "OPEN", "stands": 7, "bikes": 8, "update": "2016-02-06T13:15:33", "lat": 47.222587339906696, "address": "COURS SULLY - FACE AU 9 COURS SULLY"}, "type": "Feature"}, {"geometry": {"coordinates": [-1.559161066618992, 47.216787949913034], "type": "Point"}, "properties": {"name": "00013-BRETAGNE SUD", "lon": -1.559161066618992, "status": "OPEN", "stands": 18, "bikes": 2, "update": "2016-02-06T13:09:57", "lat": 47.216787949913034, "address": "BRETAGNE SUD - 1 RUE PIERRE CHEREAU"}, "type": "Feature"}, {"geometry": {"coordinates": [-1.556937645378872, 47.21759668240601], "type": "Point"}, "properties": {"name": "00006-PLACE DU CIRQUE", "lon": -1.556937645378872, "status": "OPEN", "stands": 13, "bikes": 2, "update": "2016-02-06T13:08:45", "lat": 47.21759668240601, "address": "PLACE DU CIRQUE - 7 ALLEE DUQUESNE"}, "type": "Feature"}], "type": "FeatureCollection"}