{"type": "FeatureCollection", "features": [{"type": "Feature", "properties": {"status": "OPEN", "lon": -1.553049129320471, "address": "PLACE RICORDEAU", "name": "00038-PLACE RICORDEAU", "bikes": 3, "lat": 47.212108463141774, "stands": 37, "update": "2016-02-06T17:49:35"}, "geometry": {"type": "Point", "coordinates": [-1.553049129320471, 47.212108463141774]}}, {"type": "Feature", "properties": {"status": "OPEN", "lon": -1.547999925907375, "address": "CHANZY - FACE AU 23 AVENUE DE CHANZY", "name": "00066-CHANZY", "bikes": 5, "lat": 47.22542988533347, "stands": 10, "update": "2016-02-06T17:46:49"}, "geometry": {"type": "Point", "coordinates": [-1.547999925907375, 47.22542988533347]}}, {"type": "Feature", "properties": {"status": "OPEN", "lon": -1.55154060534636, "address": "STRASBOURG - PLACE TIRANT LO BLANC", "name": "00003-STRASBOURG", "bikes": 7, "lat": 47.216479771820744, "stands": 8, "update": "2016-02-06T17:45:27"}, "geometry": {"type": "Point", "coordinates": [-1.55154060534636, 47.216479771820744]}}, {"type": "Feature", "properties": {"status": "OPEN", "lon": -1.553484290392954, "address": "H\u00d4TEL DE VILLE - FACE AU 29 RUE DE STRASBOURG", "name": "00002-H\u00d4TEL DE VILLE", "bikes": 8, "lat": 47.21857181309145, "stands": 12, "update": "2016-02-06T17:50:41"}, "geometry": {"type": "Point", "coordinates": [-1.553484290392954, 47.21857181309145]}}, {"type": "Feature", "properties": {"status": "OPEN", "lon": -1.564806790782994, "address": "MACHINE DE L'\u00ceLE - 3 BD LEON BUREAU", "name": "00043 - MACHINE DE L'\u00ceLE", "bikes": 25, "lat": 47.20691895869599, "stands": 5, "update": "2016-02-06T17:54:53"}, "geometry": {"type": "Point", "coordinates": [-1.564806790782994, 47.20691895869599]}}, {"type": "Feature", "properties": {"status": "OPEN", "lon": -1.525933451925082, "address": "REGION - RUE DE LA LOIRE", "name": "00084-R\u00c9GION", "bikes": 1, "lat": 47.21074214218137, "stands": 18, "update": "2016-02-06T17:50:04"}, "geometry": {"type": "Point", "coordinates": [-1.525933451925082, 47.21074214218137]}}, {"type": "Feature", "properties": {"status": "OPEN", "lon": -1.550411914119152, "address": "MADELEINE - 2 QUAI MONCOUSU", "name": "00040-MADELEINE", "bikes": 0, "lat": 47.208804642437784, "stands": 15, "update": "2016-02-06T17:50:04"}, "geometry": {"type": "Point", "coordinates": [-1.550411914119152, 47.208804642437784]}}, {"type": "Feature", "properties": {"status": "OPEN", "lon": -1.555531041936261, "address": "MOQUECHIEN - 8 RUE MOQUECHIEN", "name": "00022-MOQUECHIEN", "bikes": 4, "lat": 47.220392126691955, "stands": 12, "update": "2016-02-06T17:45:59"}, "geometry": {"type": "Point", "coordinates": [-1.555531041936261, 47.220392126691955]}}, {"type": "Feature", "properties": {"status": "OPEN", "lon": -1.572610286970505, "address": "GARE MARITIME - PLACE JACKSONVILLE", "name": "00042-GARE MARITIME", "bikes": 13, "lat": 47.20659772898787, "stands": 12, "update": "2016-02-06T17:51:34"}, "geometry": {"type": "Point", "coordinates": [-1.572610286970505, 47.20659772898787]}}, {"type": "Feature", "properties": {"status": "OPEN", "lon": -1.549291898557657, "address": "GARE PONT ROUSSEAU - RUE DE LA GARE - REZE", "name": "00102-GARE PT ROUSSEAU", "bikes": 13, "lat": 47.19280351379784, "stands": 6, "update": "2016-02-06T17:48:58"}, "geometry": {"type": "Point", "coordinates": [-1.549291898557657, 47.19280351379784]}}, {"type": "Feature", "properties": {"status": "OPEN", "lon": -1.541777739850638, "address": "VINCENT GACHE - 9 RUE FRANCOIS ALBERT", "name": "00056-VINCENT GACHE", "bikes": 5, "lat": 47.206798618575256, "stands": 10, "update": "2016-02-06T17:54:17"}, "geometry": {"type": "Point", "coordinates": [-1.541777739850638, 47.206798618575256]}}, {"type": "Feature", "properties": {"status": "OPEN", "lon": -1.556126125975167, "address": "BARILLERIE - 2 ALLEE PENTHIEVRE", "name": "00007- BARILLERIE", "bikes": 3, "lat": 47.215331358010445, "stands": 12, "update": "2016-02-06T17:53:58"}, "geometry": {"type": "Point", "coordinates": [-1.556126125975167, 47.215331358010445]}}, {"type": "Feature", "properties": {"status": "OPEN", "lon": -1.55892310936669, "address": "PRAIRIE AU DUC - 40 BOULEVARD DE LA PRAIRIE AU DUC", "name": "00045-PRAIRIE AU DUC", "bikes": 5, "lat": 47.204783935599195, "stands": 8, "update": "2016-02-06T17:49:06"}, "geometry": {"type": "Point", "coordinates": [-1.55892310936669, 47.204783935599195]}}, {"type": "Feature", "properties": {"status": "OPEN", "lon": -1.568490581479757, "address": "ILE DE NANTES PARC DES CHANTIERS A COTE DU CARROUSEL  (Station mobile)", "name": "00103 - STATION MOBILE", "bikes": 0, "lat": 47.206384991216765, "stands": 19, "update": "2016-02-06T17:49:20"}, "geometry": {"type": "Point", "coordinates": [-1.568490581479757, 47.206384991216765]}}, {"type": "Feature", "properties": {"status": "OPEN", "lon": -1.534184544523239, "address": "PICASSO - RUE PABLO PICASSO", "name": "00010- PICASSO", "bikes": 22, "lat": 47.216369613307506, "stands": 6, "update": "2016-02-06T17:48:26"}, "geometry": {"type": "Point", "coordinates": [-1.534184544523239, 47.216369613307506]}}, {"type": "Feature", "properties": {"status": "OPEN", "lon": -1.542208634875899, "address": "GARE NORD - 1 PLACE CHARLES LE ROUX", "name": "00062-GARE NORD", "bikes": 40, "lat": 47.218132613316826, "stands": 0, "update": "2016-02-06T17:53:06"}, "geometry": {"type": "Point", "coordinates": [-1.542208634875899, 47.218132613316826]}}, {"type": "Feature", "properties": {"status": "OPEN", "lon": -1.535981000861306, "address": "PALAIS DES SPORTS - 21 RUE RENE VIVIANI", "name": "00058-PALAIS DES SPORTS", "bikes": 3, "lat": 47.208466072191925, "stands": 12, "update": "2016-02-06T17:49:19"}, "geometry": {"type": "Point", "coordinates": [-1.535981000861306, 47.208466072191925]}}, {"type": "Feature", "properties": {"status": "OPEN", "lon": -1.556344610167984, "address": "PETIT PORT - BD DU PETIT PORT", "name": "00094-PETIT PORT", "bikes": 10, "lat": 47.243263914975486, "stands": 10, "update": "2016-02-06T17:49:09"}, "geometry": {"type": "Point", "coordinates": [-1.556344610167984, 47.243263914975486]}}, {"type": "Feature", "properties": {"status": "OPEN", "lon": -1.559086551239872, "address": "BOURSE - SQUARE DE LA BOURSE", "name": "00031-BOURSE", "bikes": 10, "lat": 47.212083030753185, "stands": 6, "update": "2016-02-06T17:53:49"}, "geometry": {"type": "Point", "coordinates": [-1.559086551239872, 47.212083030753185]}}, {"type": "Feature", "properties": {"status": "OPEN", "lon": -1.574924617192968, "address": "CANCLAUX - 8 PLACE CANCLAUX", "name": "00074-CANCLAUX", "bikes": 6, "lat": 47.21433366088933, "stands": 9, "update": "2016-02-06T17:50:36"}, "geometry": {"type": "Point", "coordinates": [-1.574924617192968, 47.21433366088933]}}, {"type": "Feature", "properties": {"status": "OPEN", "lon": -1.561806393011127, "address": "Bellamy-Gu\u00e9 Moreau-138 rue Paul Bellamy", "name": "00072-BELLAMY-GU\u00c9 MOREAU", "bikes": 13, "lat": 47.22862569057461, "stands": 2, "update": "2016-02-06T17:46:53"}, "geometry": {"type": "Point", "coordinates": [-1.561806393011127, 47.22862569057461]}}, {"type": "Feature", "properties": {"status": "OPEN", "lon": -1.558920890474776, "address": "SAINT SIMILIEN - 1 PLACE SAINT SIMILIEN", "name": "00019-SAINT SIMILIEN", "bikes": 0, "lat": 47.219854467329974, "stands": 15, "update": "2016-02-06T17:49:40"}, "geometry": {"type": "Point", "coordinates": [-1.558920890474776, 47.219854467329974]}}, {"type": "Feature", "properties": {"status": "OPEN", "lon": -1.529735885980363, "address": "AVENUE DE BERLIN DEVANT MAISON DE QUARTIER", "name": "00051-TABARLY", "bikes": 19, "lat": 47.21419463149648, "stands": 1, "update": "2016-02-06T17:55:07"}, "geometry": {"type": "Point", "coordinates": [-1.529735885980363, 47.21419463149648]}}, {"type": "Feature", "properties": {"status": "OPEN", "lon": -1.578689264310988, "address": "SAINT AIGNAN - 65 BD ST AIGNAN", "name": "00089-SAINT-AIGNAN", "bikes": 6, "lat": 47.20743863754715, "stands": 8, "update": "2016-02-06T17:54:18"}, "geometry": {"type": "Point", "coordinates": [-1.578689264310988, 47.20743863754715]}}, {"type": "Feature", "properties": {"status": "OPEN", "lon": -1.557532467914316, "address": "ECOLE D'ARCHITECTURE - QUAI F MITTERRAND", "name": "00077-ECOLE D'ARCHITECTURE", "bikes": 2, "lat": 47.207605640212115, "stands": 23, "update": "2016-02-06T17:52:26"}, "geometry": {"type": "Point", "coordinates": [-1.557532467914316, 47.207605640212115]}}, {"type": "Feature", "properties": {"status": "OPEN", "lon": -1.571373578112414, "address": "ANATOLE FRANCE - 41 RUE ALEXANDRE DUMAS", "name": "00087-ANATOLE FRANCE", "bikes": 3, "lat": 47.223604815399085, "stands": 12, "update": "2016-02-06T17:46:55"}, "geometry": {"type": "Point", "coordinates": [-1.571373578112414, 47.223604815399085]}}, {"type": "Feature", "properties": {"status": "OPEN", "lon": -1.548161311046709, "address": "MARTYRS NANTAIS - 1 BD DES MARTYRS NANTAIS", "name": "00047- MARTYRS NANTAIS", "bikes": 4, "lat": 47.20702417983412, "stands": 11, "update": "2016-02-06T17:53:25"}, "geometry": {"type": "Point", "coordinates": [-1.548161311046709, 47.20702417983412]}}, {"type": "Feature", "properties": {"status": "OPEN", "lon": -1.540292594289221, "address": "SAINT DONATIEN - PLACE DU 51\u00e9me RIMA", "name": "00097-SAINT DONATIEN", "bikes": 2, "lat": 47.22908808709286, "stands": 18, "update": "2016-02-06T17:48:26"}, "geometry": {"type": "Point", "coordinates": [-1.540292594289221, 47.22908808709286]}}, {"type": "Feature", "properties": {"status": "OPEN", "lon": -1.557393235628245, "address": "COMMERCE - FACE PLACE DU COMMERCE", "name": "00030-COMMERCE", "bikes": 37, "lat": 47.21312055103121, "stands": 2, "update": "2016-02-06T17:55:04"}, "geometry": {"type": "Point", "coordinates": [-1.557393235628245, 47.21312055103121]}}, {"type": "Feature", "properties": {"status": "OPEN", "lon": -1.569171883302444, "address": "GUIST'HAU NORD - 42 BD GUIST'HAU", "name": "00027-GUIST'HAU NORD", "bikes": 2, "lat": 47.21792981632508, "stands": 13, "update": "2016-02-06T17:45:24"}, "geometry": {"type": "Point", "coordinates": [-1.569171883302444, 47.21792981632508]}}, {"type": "Feature", "properties": {"status": "OPEN", "lon": -1.562986793288367, "address": "PLACE ARISTIDE BRIAND", "name": "00015-PLACE ARISTIDE BRIAND", "bikes": 6, "lat": 47.21718482329023, "stands": 11, "update": "2016-02-06T17:50:17"}, "geometry": {"type": "Point", "coordinates": [-1.562986793288367, 47.21718482329023]}}, {"type": "Feature", "properties": {"status": "OPEN", "lon": -1.530180435959972, "address": "MILLERAND - 9 BD ALEXANDRE MILLERAND", "name": "00083-MILLERAND", "bikes": 0, "lat": 47.208199645038825, "stands": 14, "update": "2016-02-06T17:50:16"}, "geometry": {"type": "Point", "coordinates": [-1.530180435959972, 47.208199645038825]}}, {"type": "Feature", "properties": {"status": "OPEN", "lon": -1.561744905652581, "address": "MEDIATHEQUE - 24 QUAI DE LA FOSSE", "name": "00034-MEDIATHEQUE", "bikes": 17, "lat": 47.210886925815934, "stands": 3, "update": "2016-02-06T17:53:46"}, "geometry": {"type": "Point", "coordinates": [-1.561744905652581, 47.210886925815934]}}, {"type": "Feature", "properties": {"status": "OPEN", "lon": -1.572114577993728, "address": "RD PT VANNES - 65 BD LE LASSEUR", "name": "00091-RD PT VANNES", "bikes": 7, "lat": 47.229580605369215, "stands": 9, "update": "2016-02-06T17:48:30"}, "geometry": {"type": "Point", "coordinates": [-1.572114577993728, 47.229580605369215]}}, {"type": "Feature", "properties": {"status": "OPEN", "lon": -1.555183107916184, "address": "PLACE DE LA REPUBLIQUE - 3 PLACE DE LA REPUBLIQUE", "name": "00046-PLACE REPUBLIQUE", "bikes": 19, "lat": 47.20532409029517, "stands": 1, "update": "2016-02-06T17:54:33"}, "geometry": {"type": "Point", "coordinates": [-1.555183107916184, 47.20532409029517]}}, {"type": "Feature", "properties": {"status": "OPEN", "lon": -1.557229797031573, "address": "BELLAMY - 50 RUE PAUL BELLAMY", "name": "00020-BELLAMY", "bikes": 1, "lat": 47.222902006053054, "stands": 14, "update": "2016-02-06T17:50:55"}, "geometry": {"type": "Point", "coordinates": [-1.557229797031573, 47.222902006053054]}}, {"type": "Feature", "properties": {"status": "OPEN", "lon": -1.545507251231619, "address": "MANGIN - DEV 8 PLACE MANGIN", "name": "00081 - MANGIN", "bikes": 4, "lat": 47.20095551723967, "stands": 10, "update": "2016-02-06T17:51:52"}, "geometry": {"type": "Point", "coordinates": [-1.545507251231619, 47.20095551723967]}}, {"type": "Feature", "properties": {"status": "OPEN", "lon": -1.544298470945214, "address": "MAGELLAN - 11 RUE DE BELFORT", "name": "00055-MAGELLAN", "bikes": 7, "lat": 47.21078140655944, "stands": 8, "update": "2016-02-06T17:52:04"}, "geometry": {"type": "Point", "coordinates": [-1.544298470945214, 47.21078140655944]}}, {"type": "Feature", "properties": {"status": "OPEN", "lon": -1.540514488290191, "address": "DE GAULLE - PONT A. BRIAND / BD DE GAULLE", "name": "00078-DE GAULLE", "bikes": 8, "lat": 47.20844367718286, "stands": 7, "update": "2016-02-06T17:54:49"}, "geometry": {"type": "Point", "coordinates": [-1.540514488290191, 47.20844367718286]}}, {"type": "Feature", "properties": {"status": "OPEN", "lon": -1.552147986072217, "address": "PLACE WALDECK ROUSSEAU", "name": "00067-PLACE WALDECK ROUSSEAU", "bikes": 7, "lat": 47.22777476106513, "stands": 12, "update": "2016-02-06T17:48:05"}, "geometry": {"type": "Point", "coordinates": [-1.552147986072217, 47.22777476106513]}}, {"type": "Feature", "properties": {"status": "OPEN", "lon": -1.537581863003988, "address": "GAETAN RONDEAU - 20 RUE GAETAN RONDEAU", "name": "00057-GAETAN RONDEAU", "bikes": 16, "lat": 47.205396132179104, "stands": 4, "update": "2016-02-06T17:55:04"}, "geometry": {"type": "Point", "coordinates": [-1.537581863003988, 47.205396132179104]}}, {"type": "Feature", "properties": {"status": "OPEN", "lon": -1.536511118183477, "address": "MALAKOFF - 15 QUAI MALAKOFF", "name": "00079-MALAKOFF", "bikes": 12, "lat": 47.213237140630014, "stands": 3, "update": "2016-02-06T17:45:56"}, "geometry": {"type": "Point", "coordinates": [-1.536511118183477, 47.213237140630014]}}, {"type": "Feature", "properties": {"status": "OPEN", "lon": -1.571369360221906, "address": "LAMORICIERE - PLACE BEAUMANOIR", "name": "00075-LAMORICIERE", "bikes": 8, "lat": 47.21230895884701, "stands": 10, "update": "2016-02-06T17:55:16"}, "geometry": {"type": "Point", "coordinates": [-1.571369360221906, 47.21230895884701]}}, {"type": "Feature", "properties": {"status": "OPEN", "lon": -1.563308366869757, "address": "PLACE VIARME - 23 PLACE VIARME", "name": "00018-PLACE VIARME", "bikes": 7, "lat": 47.22142933898549, "stands": 7, "update": "2016-02-06T17:48:50"}, "geometry": {"type": "Point", "coordinates": [-1.563308366869757, 47.22142933898549]}}, {"type": "Feature", "properties": {"status": "OPEN", "lon": -1.556421138973112, "address": "MICHELET - BD MICHELET", "name": "00095-MICHELET", "bikes": 0, "lat": 47.234687038295554, "stands": 25, "update": "2016-02-06T17:52:17"}, "geometry": {"type": "Point", "coordinates": [-1.556421138973112, 47.234687038295554]}}, {"type": "Feature", "properties": {"status": "OPEN", "lon": -1.560022819676629, "address": "BEL AIR - 102 RUE PAUL BELLAMY", "name": "00085-BEL AIR", "bikes": 3, "lat": 47.226394430986105, "stands": 11, "update": "2016-02-06T17:54:38"}, "geometry": {"type": "Point", "coordinates": [-1.560022819676629, 47.226394430986105]}}, {"type": "Feature", "properties": {"status": "OPEN", "lon": -1.56605906933562, "address": "RD PT RENNES - ANGLE BD LE LASSEUR & RUE PAUL BELLAMY", "name": "00092-DT PT RENNES", "bikes": 8, "lat": 47.23302818477594, "stands": 12, "update": "2016-02-06T17:50:38"}, "geometry": {"type": "Point", "coordinates": [-1.56605906933562, 47.23302818477594]}}, {"type": "Feature", "properties": {"status": "OPEN", "lon": -1.539712888264826, "address": "STADE SAUPIN - 35 QUAI MALAKOFF", "name": "00059-STADE SAUPIN", "bikes": 10, "lat": 47.21391161818379, "stands": 5, "update": "2016-02-06T17:54:43"}, "geometry": {"type": "Point", "coordinates": [-1.539712888264826, 47.21391161818379]}}, {"type": "Feature", "properties": {"status": "OPEN", "lon": -1.549886024937758, "address": "OLIVETTES - 10 RUE DES OLIVETTES", "name": "00053-OLIVETTES", "bikes": 4, "lat": 47.211736393222054, "stands": 11, "update": "2016-02-06T17:51:48"}, "geometry": {"type": "Point", "coordinates": [-1.549886024937758, 47.211736393222054]}}, {"type": "Feature", "properties": {"status": "OPEN", "lon": -1.570515336280715, "address": "PLACE RENE BOUHIER - 8 PLACE RENE BOUHIER", "name": "00076-PLACE REN\u00c9 BOUHIER", "bikes": 0, "lat": 47.209429092524424, "stands": 15, "update": "2016-02-06T17:54:36"}, "geometry": {"type": "Point", "coordinates": [-1.570515336280715, 47.209429092524424]}}, {"type": "Feature", "properties": {"status": "OPEN", "lon": -1.557111680197571, "address": "BOUCHERIE - FACE AU 4 RUE DE LA BOUCHERIE", "name": "00008-BOUCHERIE", "bikes": 3, "lat": 47.21620089258823, "stands": 16, "update": "2016-02-06T17:53:37"}, "geometry": {"type": "Point", "coordinates": [-1.557111680197571, 47.21620089258823]}}, {"type": "Feature", "properties": {"status": "OPEN", "lon": -1.570438598073934, "address": "SARRADIN - FACE AU 4 PLACE SARRADIN", "name": "00073-SARRADIN", "bikes": 0, "lat": 47.220882433018865, "stands": 13, "update": "2016-02-06T17:46:41"}, "geometry": {"type": "Point", "coordinates": [-1.570438598073934, 47.220882433018865]}}, {"type": "Feature", "properties": {"status": "OPEN", "lon": -1.547058938534335, "address": "DUCHESSE ANNE - 2 PLACE DE LA DUCHESSE ANNE", "name": "00049-DUCHESSE ANNE", "bikes": 13, "lat": 47.21651740326776, "stands": 2, "update": "2016-02-06T17:53:29"}, "geometry": {"type": "Point", "coordinates": [-1.547058938534335, 47.21651740326776]}}, {"type": "Feature", "properties": {"status": "OPEN", "lon": -1.555309011107301, "address": "FACULTES - ANGLE ROUTE DE LA JONELIERE & BD G. MOLLET", "name": "00093-FACULTES", "bikes": 25, "lat": 47.246298068423485, "stands": 15, "update": "2016-02-06T17:55:15"}, "geometry": {"type": "Point", "coordinates": [-1.555309011107301, 47.246298068423485]}}, {"type": "Feature", "properties": {"status": "OPEN", "lon": -1.551849784370311, "address": "VERDUN - 15 RUE DE VERDUN", "name": "00048-VERDUN", "bikes": 10, "lat": 47.217505374678645, "stands": 4, "update": "2016-02-06T17:53:08"}, "geometry": {"type": "Point", "coordinates": [-1.551849784370311, 47.217505374678645]}}, {"type": "Feature", "properties": {"status": "OPEN", "lon": -1.55408380740881, "address": "PREFECTURE - 5 QUAI CEINERAY", "name": "00001-PREFECTURE", "bikes": 5, "lat": 47.220255183724454, "stands": 20, "update": "2016-02-06T17:54:16"}, "geometry": {"type": "Point", "coordinates": [-1.55408380740881, 47.220255183724454]}}, {"type": "Feature", "properties": {"status": "OPEN", "lon": -1.542404741250403, "address": "BUAT - 118 RUE DE COULMIERS", "name": "00023-BUAT", "bikes": 2, "lat": 47.227145468224634, "stands": 9, "update": "2016-02-06T17:52:55"}, "geometry": {"type": "Point", "coordinates": [-1.542404741250403, 47.227145468224634]}}, {"type": "Feature", "properties": {"status": "OPEN", "lon": -1.576612843727262, "address": "PROCE - ANGLE BD G. SERPETTE & BD A. PAGEOT", "name": "00090-PROCE", "bikes": 7, "lat": 47.22419506173264, "stands": 8, "update": "2016-02-06T17:48:43"}, "geometry": {"type": "Point", "coordinates": [-1.576612843727262, 47.22419506173264]}}, {"type": "Feature", "properties": {"status": "OPEN", "lon": -1.5502297, "address": "FOCH - PLACE FOCH", "name": "00032-FOCH", "bikes": 9, "lat": 47.2191122, "stands": 6, "update": "2016-02-06T17:47:52"}, "geometry": {"type": "Point", "coordinates": [-1.5502297, 47.2191122]}}, {"type": "Feature", "properties": {"status": "OPEN", "lon": -1.561570147641708, "address": "SAINTE ELISABTEH - 3 PLACE STE ELISABETH", "name": "00017-SAINTE ELISABETH", "bikes": 11, "lat": 47.21921395261352, "stands": 3, "update": "2016-02-06T17:54:35"}, "geometry": {"type": "Point", "coordinates": [-1.561570147641708, 47.21921395261352]}}, {"type": "Feature", "properties": {"status": "OPEN", "lon": -1.555269922656021, "address": "DUGUAY TROUIN - 7 ALLEE DUGUAY TROUIN", "name": "00029-DUGUAY TROUIN", "bikes": 13, "lat": 47.213450231365094, "stands": 2, "update": "2016-02-06T17:54:12"}, "geometry": {"type": "Point", "coordinates": [-1.555269922656021, 47.213450231365094]}}, {"type": "Feature", "properties": {"status": "OPEN", "lon": -1.550226242563373, "address": "CHATEAU - 2 RUE DES ETATS", "name": "00050-CHATEAU", "bikes": 15, "lat": 47.21514969516256, "stands": 1, "update": "2016-02-06T17:51:56"}, "geometry": {"type": "Point", "coordinates": [-1.550226242563373, 47.21514969516256]}}, {"type": "Feature", "properties": {"status": "OPEN", "lon": -1.5568245371939, "address": "FEYDEAU - 1 ALLEE ILE GLORIETTE", "name": "00037-FEYDEAU", "bikes": 8, "lat": 47.211465063355035, "stands": 13, "update": "2016-02-06T17:54:35"}, "geometry": {"type": "Point", "coordinates": [-1.5568245371939, 47.211465063355035]}}, {"type": "Feature", "properties": {"status": "OPEN", "lon": -1.567501842502272, "address": "HAUT PAVES - ANGLE RUE DE BERRY/RUE DES HAUTS PAVES", "name": "00086-HAUTS PAV\u00c9S", "bikes": 1, "lat": 47.22547062698044, "stands": 15, "update": "2016-02-06T17:45:46"}, "geometry": {"type": "Point", "coordinates": [-1.567501842502272, 47.22547062698044]}}, {"type": "Feature", "properties": {"status": "OPEN", "lon": -1.555233144631466, "address": "QUAI MONCOUSU - 11 QUAI MONCOUSU", "name": "00039-QUAI MONCOUSU", "bikes": 4, "lat": 47.209406573873714, "stands": 15, "update": "2016-02-06T17:46:32"}, "geometry": {"type": "Point", "coordinates": [-1.555233144631466, 47.209406573873714]}}, {"type": "Feature", "properties": {"status": "OPEN", "lon": -1.565543986075099, "address": "JEAN V - 2 PLACE JEAN V", "name": "00035-JEAN V", "bikes": 0, "lat": 47.212168974412094, "stands": 15, "update": "2016-02-06T17:55:05"}, "geometry": {"type": "Point", "coordinates": [-1.565543986075099, 47.212168974412094]}}, {"type": "Feature", "properties": {"status": "OPEN", "lon": -1.529959592703474, "address": "DALBY- 61 BD ERNEST DALBY FACE STATION SERVICE", "name": "00025-DALBY", "bikes": 1, "lat": 47.223508869811994, "stands": 14, "update": "2016-02-06T17:52:26"}, "geometry": {"type": "Point", "coordinates": [-1.529959592703474, 47.223508869811994]}}, {"type": "Feature", "properties": {"status": "OPEN", "lon": -1.561173077989395, "address": "PALAIS DE JUSTICE - 19 QUAI FRANCOIS MITTERAND", "name": "00044-PALAIS DE JUSTICE", "bikes": 11, "lat": 47.20831728844152, "stands": 13, "update": "2016-02-06T17:50:29"}, "geometry": {"type": "Point", "coordinates": [-1.561173077989395, 47.20831728844152]}}, {"type": "Feature", "properties": {"status": "OPEN", "lon": -1.536540663464699, "address": "ST JACQUES - RUE ST JACQUES", "name": "00099-ST JACQUES", "bikes": 14, "lat": 47.1958989090141, "stands": 0, "update": "2016-02-06T17:50:02"}, "geometry": {"type": "Point", "coordinates": [-1.536540663464699, 47.1958989090141]}}, {"type": "Feature", "properties": {"status": "OPEN", "lon": -1.551548484803203, "address": "VICTOR HUGO - BD VICTOR HUGO", "name": "00080 - VICTOR HUGO", "bikes": 6, "lat": 47.204003208491145, "stands": 9, "update": "2016-02-06T17:55:10"}, "geometry": {"type": "Point", "coordinates": [-1.551548484803203, 47.204003208491145]}}, {"type": "Feature", "properties": {"status": "OPEN", "lon": -1.545905939112105, "address": "LIEU UNIQUE - FACE 23 QUAI FERDINAND FAVRE", "name": "00061-LU - LIEU UNIQUE", "bikes": 13, "lat": 47.215591463959825, "stands": 2, "update": "2016-02-06T17:47:52"}, "geometry": {"type": "Point", "coordinates": [-1.545905939112105, 47.215591463959825]}}, {"type": "Feature", "properties": {"status": "OPEN", "lon": -1.556476339327795, "address": "MARCHE TALENSAC SUD - 6 RUE TALENSAC", "name": "00021-MARCHE TALENSAC SUD", "bikes": 10, "lat": 47.22114332912908, "stands": 6, "update": "2016-02-06T17:51:47"}, "geometry": {"type": "Point", "coordinates": [-1.556476339327795, 47.22114332912908]}}, {"type": "Feature", "properties": {"status": "OPEN", "lon": -1.558940746690739, "address": "MARCHE TALENSAC NORD - 18 RUE TALENSAC", "name": "00071-MARCHE TALENSAC NORD", "bikes": 1, "lat": 47.22185363818837, "stands": 13, "update": "2016-02-06T17:51:18"}, "geometry": {"type": "Point", "coordinates": [-1.558940746690739, 47.22185363818837]}}, {"type": "Feature", "properties": {"status": "OPEN", "lon": -1.569524048742154, "address": "CHANTIER NAVAL - 87 QUAI DE LA FOSSE", "name": "00041-CHANTIER NAVAL", "bikes": 11, "lat": 47.208357479819504, "stands": 4, "update": "2016-02-06T17:51:59"}, "geometry": {"type": "Point", "coordinates": [-1.569524048742154, 47.208357479819504]}}, {"type": "Feature", "properties": {"status": "OPEN", "lon": -1.563900673465861, "address": "PLACE DELORME", "name": "00012-PLACE DELORME", "bikes": 15, "lat": 47.21515818868574, "stands": 5, "update": "2016-02-06T17:50:40"}, "geometry": {"type": "Point", "coordinates": [-1.563900673465861, 47.21515818868574]}}, {"type": "Feature", "properties": {"status": "OPEN", "lon": -1.550828036456355, "address": "HUIT MAI - AVENUE DE LA LIBERATION - REZE", "name": "00098-HUIT MAI", "bikes": 5, "lat": 47.18921204751304, "stands": 9, "update": "2016-02-06T17:49:24"}, "geometry": {"type": "Point", "coordinates": [-1.550828036456355, 47.18921204751304]}}, {"type": "Feature", "properties": {"status": "OPEN", "lon": -1.567004526265165, "address": "GUIST'HAU SUD - 26 BOULEVARD GUIST'HAU", "name": "00026-GUIST'HAU SUD", "bikes": 2, "lat": 47.21682795997449, "stands": 13, "update": "2016-02-06T17:55:10"}, "geometry": {"type": "Point", "coordinates": [-1.567004526265165, 47.21682795997449]}}, {"type": "Feature", "properties": {"status": "OPEN", "lon": -1.548750555741977, "address": "BACO - FACE AU 8 ALLEE BACO", "name": "00052-BACO", "bikes": 8, "lat": 47.214327524589145, "stands": 7, "update": "2016-02-06T17:52:43"}, "geometry": {"type": "Point", "coordinates": [-1.548750555741977, 47.214327524589145]}}, {"type": "Feature", "properties": {"status": "OPEN", "lon": -1.560675283700123, "address": "CALVAIRE - PL.DES VOLONTAIRES DE LA DEFENSE PASSIVE", "name": "00011-CALVAIRE", "bikes": 1, "lat": 47.215578942427136, "stands": 14, "update": "2016-02-06T17:47:21"}, "geometry": {"type": "Point", "coordinates": [-1.560675283700123, 47.215578942427136]}}, {"type": "Feature", "properties": {"status": "OPEN", "lon": -1.544718964531585, "address": "JARDIN DES PLANTES - 6 RUE STANILAS BAUDRY", "name": "00063-JARDIN DES PLANTES", "bikes": 9, "lat": 47.219834197318974, "stands": 6, "update": "2016-02-06T17:53:54"}, "geometry": {"type": "Point", "coordinates": [-1.544718964531585, 47.219834197318974]}}, {"type": "Feature", "properties": {"status": "OPEN", "lon": -1.563419484053747, "address": "PLACE EDOUARD NORMAND - FACE AU 7 PLACE EDOUARD NORMAND", "name": "00016-PLACE EDOUARD NORMAND", "bikes": 1, "lat": 47.21902754473837, "stands": 14, "update": "2016-02-06T17:52:50"}, "geometry": {"type": "Point", "coordinates": [-1.563419484053747, 47.21902754473837]}}, {"type": "Feature", "properties": {"status": "OPEN", "lon": -1.577175414321782, "address": "MELLINET - 1 BD ALLARD", "name": "00088-MELLINET", "bikes": 9, "lat": 47.211501070117826, "stands": 6, "update": "2016-02-06T17:54:27"}, "geometry": {"type": "Point", "coordinates": [-1.577175414321782, 47.211501070117826]}}, {"type": "Feature", "properties": {"status": "OPEN", "lon": -1.542844, "address": "Quai Malakoff - c\u00f4t\u00e9 canal st F\u00e9lix", "name": "00070-GARE SUD 2", "bikes": 30, "lat": 47.215505, "stands": 0, "update": "2016-02-06T17:54:37"}, "geometry": {"type": "Point", "coordinates": [-1.542844, 47.215505]}}, {"type": "Feature", "properties": {"status": "OPEN", "lon": -1.5543847138777, "address": "MOULIN - FACE AU 18 RUE DU MOULIN", "name": "00004-MOULIN", "bikes": 6, "lat": 47.216667582015184, "stands": 7, "update": "2016-02-06T17:48:19"}, "geometry": {"type": "Point", "coordinates": [-1.5543847138777, 47.216667582015184]}}, {"type": "Feature", "properties": {"status": "OPEN", "lon": -1.549221766809888, "address": "TORTIERE - BD EUGENE ORIEUX", "name": "00096-TORTIERE", "bikes": 0, "lat": 47.235335222208626, "stands": 16, "update": "2016-02-06T17:53:02"}, "geometry": {"type": "Point", "coordinates": [-1.549221766809888, 47.235335222208626]}}, {"type": "Feature", "properties": {"status": "OPEN", "lon": -1.547099233718495, "address": "SAINT CLEMENT - FACE AU 37 RUE DU MARECHAL JOFFRE", "name": "00064-SAINT CLEMENT", "bikes": 6, "lat": 47.221785183522634, "stands": 9, "update": "2016-02-06T17:51:16"}, "geometry": {"type": "Point", "coordinates": [-1.547099233718495, 47.221785183522634]}}, {"type": "Feature", "properties": {"status": "OPEN", "lon": -1.559017485167438, "address": "GUEPIN - 8 RUE DE L'ARCHE SECHE", "name": "00009-GUEPIN", "bikes": 0, "lat": 47.215814587139455, "stands": 14, "update": "2016-02-06T17:52:38"}, "geometry": {"type": "Point", "coordinates": [-1.559017485167438, 47.215814587139455]}}, {"type": "Feature", "properties": {"status": "OPEN", "lon": -1.563140874431397, "address": "RACINE - 4 RUE RACINE", "name": "00033-RACINE", "bikes": 9, "lat": 47.213522613719896, "stands": 6, "update": "2016-02-06T17:48:10"}, "geometry": {"type": "Point", "coordinates": [-1.563140874431397, 47.213522613719896]}}, {"type": "Feature", "properties": {"status": "OPEN", "lon": -1.542847782057658, "address": "GARE SUD - FACE 12 RUE LOURMEL", "name": "00060-GARE SUD", "bikes": 31, "lat": 47.215919436013635, "stands": 9, "update": "2016-02-06T17:48:32"}, "geometry": {"type": "Point", "coordinates": [-1.542847782057658, 47.215919436013635]}}, {"type": "Feature", "properties": {"status": "OPEN", "lon": -1.553711961402328, "address": "VERSAILLES - FACE AU 25 QUAI DE VERSAILLES", "name": "00024-VERSAILLES", "bikes": 13, "lat": 47.22451490719107, "stands": 2, "update": "2016-02-06T17:54:55"}, "geometry": {"type": "Point", "coordinates": [-1.553711961402328, 47.22451490719107]}}, {"type": "Feature", "properties": {"status": "OPEN", "lon": -1.533118244923623, "address": "SEBILLEAU - 9 RUE GAETAN RONDEAU", "name": "00082-SEBILLEAU", "bikes": 6, "lat": 47.206757512308414, "stands": 10, "update": "2016-02-06T17:45:29"}, "geometry": {"type": "Point", "coordinates": [-1.533118244923623, 47.206757512308414]}}, {"type": "Feature", "properties": {"status": "OPEN", "lon": -1.556749263076553, "address": "BROSSARD - 25 RUE ARMAND BROSSARD", "name": "00005-BROSSARD", "bikes": 11, "lat": 47.218837230469425, "stands": 4, "update": "2016-02-06T17:53:18"}, "geometry": {"type": "Point", "coordinates": [-1.556749263076553, 47.218837230469425]}}, {"type": "Feature", "properties": {"status": "OPEN", "lon": -1.54156809120326, "address": "PIRMIL - RUE ESNOUL DES CHATELETS", "name": "00101 - PIRMIL", "bikes": 9, "lat": 47.1965313642396, "stands": 19, "update": "2016-02-06T17:51:54"}, "geometry": {"type": "Point", "coordinates": [-1.54156809120326, 47.1965313642396]}}, {"type": "Feature", "properties": {"status": "OPEN", "lon": -1.534717540470481, "address": "GRENERAIE - PARC DE LA GRENERAIE", "name": "00100 - GRENERAIE", "bikes": 16, "lat": 47.199923092905216, "stands": 4, "update": "2016-02-06T17:48:41"}, "geometry": {"type": "Point", "coordinates": [-1.534717540470481, 47.199923092905216]}}, {"type": "Feature", "properties": {"status": "OPEN", "lon": -1.544952541668585, "address": "CITE INTERNATIONAL DES CONGRES - 2 RUE DE JEMMAPES", "name": "00054- CITE INTERNATIONALE DES CONGRES", "bikes": 21, "lat": 47.213180085527846, "stands": 9, "update": "2016-02-06T17:47:37"}, "geometry": {"type": "Point", "coordinates": [-1.544952541668585, 47.213180085527846]}}, {"type": "Feature", "properties": {"status": "OPEN", "lon": -1.567568016663838, "address": "PLACE DE L'EDIT DE NANTES", "name": "00028- PLACE DE L'EDIT NANTES", "bikes": 0, "lat": 47.21446342738575, "stands": 13, "update": "2016-02-06T17:50:57"}, "geometry": {"type": "Point", "coordinates": [-1.567568016663838, 47.21446342738575]}}, {"type": "Feature", "properties": {"status": "OPEN", "lon": -1.545212434215091, "address": "LIVET - FACE AU 65 RUE DU FOUR", "name": "00068-LIVET", "bikes": 8, "lat": 47.22406787948748, "stands": 7, "update": "2016-02-06T17:48:44"}, "geometry": {"type": "Point", "coordinates": [-1.545212434215091, 47.22406787948748]}}, {"type": "Feature", "properties": {"status": "OPEN", "lon": -1.551666442545979, "address": "COURS SULLY - FACE AU 9 COURS SULLY", "name": "00065-COURS SULLY", "bikes": 0, "lat": 47.222587339906696, "stands": 15, "update": "2016-02-06T17:49:18"}, "geometry": {"type": "Point", "coordinates": [-1.551666442545979, 47.222587339906696]}}, {"type": "Feature", "properties": {"status": "OPEN", "lon": -1.559161066618992, "address": "BRETAGNE SUD - 1 RUE PIERRE CHEREAU", "name": "00013-BRETAGNE SUD", "bikes": 2, "lat": 47.216787949913034, "stands": 18, "update": "2016-02-06T17:53:25"}, "geometry": {"type": "Point", "coordinates": [-1.559161066618992, 47.216787949913034]}}, {"type": "Feature", "properties": {"status": "OPEN", "lon": -1.556937645378872, "address": "PLACE DU CIRQUE - 7 ALLEE DUQUESNE", "name": "00006-PLACE DU CIRQUE", "bikes": 11, "lat": 47.21759668240601, "stands": 4, "update": "2016-02-06T17:51:51"}, "geometry": {"type": "Point", "coordinates": [-1.556937645378872, 47.21759668240601]}}]}