{"features": [{"geometry": {"coordinates": [-1.553049129320471, 47.212108463141774], "type": "Point"}, "properties": {"stands": 32, "lat": 47.212108463141774, "update": "2016-02-06T12:47:20", "status": "OPEN", "bikes": 8, "address": "PLACE RICORDEAU", "name": "00038-PLACE RICORDEAU", "lon": -1.553049129320471}, "type": "Feature"}, {"geometry": {"coordinates": [-1.547999925907375, 47.22542988533347], "type": "Point"}, "properties": {"stands": 12, "lat": 47.22542988533347, "update": "2016-02-06T12:41:36", "status": "OPEN", "bikes": 3, "address": "CHANZY - FACE AU 23 AVENUE DE CHANZY", "name": "00066-CHANZY", "lon": -1.547999925907375}, "type": "Feature"}, {"geometry": {"coordinates": [-1.55154060534636, 47.216479771820744], "type": "Point"}, "properties": {"stands": 12, "lat": 47.216479771820744, "update": "2016-02-06T12:45:54", "status": "OPEN", "bikes": 3, "address": "STRASBOURG - PLACE TIRANT LO BLANC", "name": "00003-STRASBOURG", "lon": -1.55154060534636}, "type": "Feature"}, {"geometry": {"coordinates": [-1.553484290392954, 47.21857181309145], "type": "Point"}, "properties": {"stands": 16, "lat": 47.21857181309145, "update": "2016-02-06T12:48:23", "status": "OPEN", "bikes": 4, "address": "H\u00d4TEL DE VILLE - FACE AU 29 RUE DE STRASBOURG", "name": "00002-H\u00d4TEL DE VILLE", "lon": -1.553484290392954}, "type": "Feature"}, {"geometry": {"coordinates": [-1.564806790782994, 47.20691895869599], "type": "Point"}, "properties": {"stands": 29, "lat": 47.20691895869599, "update": "2016-02-06T12:42:46", "status": "OPEN", "bikes": 1, "address": "MACHINE DE L'\u00ceLE - 3 BD LEON BUREAU", "name": "00043 - MACHINE DE L'\u00ceLE", "lon": -1.564806790782994}, "type": "Feature"}, {"geometry": {"coordinates": [-1.525933451925082, 47.21074214218137], "type": "Point"}, "properties": {"stands": 15, "lat": 47.21074214218137, "update": "2016-02-06T12:44:53", "status": "OPEN", "bikes": 4, "address": "REGION - RUE DE LA LOIRE", "name": "00084-R\u00c9GION", "lon": -1.525933451925082}, "type": "Feature"}, {"geometry": {"coordinates": [-1.550411914119152, 47.208804642437784], "type": "Point"}, "properties": {"stands": 15, "lat": 47.208804642437784, "update": "2016-02-06T12:42:42", "status": "OPEN", "bikes": 0, "address": "MADELEINE - 2 QUAI MONCOUSU", "name": "00040-MADELEINE", "lon": -1.550411914119152}, "type": "Feature"}, {"geometry": {"coordinates": [-1.555531041936261, 47.220392126691955], "type": "Point"}, "properties": {"stands": 10, "lat": 47.220392126691955, "update": "2016-02-06T12:47:35", "status": "OPEN", "bikes": 6, "address": "MOQUECHIEN - 8 RUE MOQUECHIEN", "name": "00022-MOQUECHIEN", "lon": -1.555531041936261}, "type": "Feature"}, {"geometry": {"coordinates": [-1.572610286970505, 47.20659772898787], "type": "Point"}, "properties": {"stands": 6, "lat": 47.20659772898787, "update": "2016-02-06T12:47:22", "status": "OPEN", "bikes": 19, "address": "GARE MARITIME - PLACE JACKSONVILLE", "name": "00042-GARE MARITIME", "lon": -1.572610286970505}, "type": "Feature"}, {"geometry": {"coordinates": [-1.549291898557657, 47.19280351379784], "type": "Point"}, "properties": {"stands": 9, "lat": 47.19280351379784, "update": "2016-02-06T12:47:18", "status": "OPEN", "bikes": 10, "address": "GARE PONT ROUSSEAU - RUE DE LA GARE - REZE", "name": "00102-GARE PT ROUSSEAU", "lon": -1.549291898557657}, "type": "Feature"}, {"geometry": {"coordinates": [-1.541777739850638, 47.206798618575256], "type": "Point"}, "properties": {"stands": 9, "lat": 47.206798618575256, "update": "2016-02-06T12:46:13", "status": "OPEN", "bikes": 6, "address": "VINCENT GACHE - 9 RUE FRANCOIS ALBERT", "name": "00056-VINCENT GACHE", "lon": -1.541777739850638}, "type": "Feature"}, {"geometry": {"coordinates": [-1.556126125975167, 47.215331358010445], "type": "Point"}, "properties": {"stands": 3, "lat": 47.215331358010445, "update": "2016-02-06T12:49:18", "status": "OPEN", "bikes": 12, "address": "BARILLERIE - 2 ALLEE PENTHIEVRE", "name": "00007- BARILLERIE", "lon": -1.556126125975167}, "type": "Feature"}, {"geometry": {"coordinates": [-1.55892310936669, 47.204783935599195], "type": "Point"}, "properties": {"stands": 8, "lat": 47.204783935599195, "update": "2016-02-06T12:43:42", "status": "OPEN", "bikes": 5, "address": "PRAIRIE AU DUC - 40 BOULEVARD DE LA PRAIRIE AU DUC", "name": "00045-PRAIRIE AU DUC", "lon": -1.55892310936669}, "type": "Feature"}, {"geometry": {"coordinates": [-1.568490581479757, 47.206384991216765], "type": "Point"}, "properties": {"stands": 15, "lat": 47.206384991216765, "update": "2016-02-06T12:42:32", "status": "OPEN", "bikes": 4, "address": "ILE DE NANTES PARC DES CHANTIERS A COTE DU CARROUSEL  (Station mobile)", "name": "00103 - STATION MOBILE", "lon": -1.568490581479757}, "type": "Feature"}, {"geometry": {"coordinates": [-1.534184544523239, 47.216369613307506], "type": "Point"}, "properties": {"stands": 11, "lat": 47.216369613307506, "update": "2016-02-06T12:49:50", "status": "OPEN", "bikes": 17, "address": "PICASSO - RUE PABLO PICASSO", "name": "00010- PICASSO", "lon": -1.534184544523239}, "type": "Feature"}, {"geometry": {"coordinates": [-1.542208634875899, 47.218132613316826], "type": "Point"}, "properties": {"stands": 6, "lat": 47.218132613316826, "update": "2016-02-06T12:46:36", "status": "OPEN", "bikes": 34, "address": "GARE NORD - 1 PLACE CHARLES LE ROUX", "name": "00062-GARE NORD", "lon": -1.542208634875899}, "type": "Feature"}, {"geometry": {"coordinates": [-1.535981000861306, 47.208466072191925], "type": "Point"}, "properties": {"stands": 12, "lat": 47.208466072191925, "update": "2016-02-06T12:49:46", "status": "OPEN", "bikes": 3, "address": "PALAIS DES SPORTS - 21 RUE RENE VIVIANI", "name": "00058-PALAIS DES SPORTS", "lon": -1.535981000861306}, "type": "Feature"}, {"geometry": {"coordinates": [-1.556344610167984, 47.243263914975486], "type": "Point"}, "properties": {"stands": 6, "lat": 47.243263914975486, "update": "2016-02-06T12:44:33", "status": "OPEN", "bikes": 14, "address": "PETIT PORT - BD DU PETIT PORT", "name": "00094-PETIT PORT", "lon": -1.556344610167984}, "type": "Feature"}, {"geometry": {"coordinates": [-1.559086551239872, 47.212083030753185], "type": "Point"}, "properties": {"stands": 2, "lat": 47.212083030753185, "update": "2016-02-06T12:46:49", "status": "OPEN", "bikes": 14, "address": "BOURSE - SQUARE DE LA BOURSE", "name": "00031-BOURSE", "lon": -1.559086551239872}, "type": "Feature"}, {"geometry": {"coordinates": [-1.574924617192968, 47.21433366088933], "type": "Point"}, "properties": {"stands": 9, "lat": 47.21433366088933, "update": "2016-02-06T12:48:40", "status": "OPEN", "bikes": 6, "address": "CANCLAUX - 8 PLACE CANCLAUX", "name": "00074-CANCLAUX", "lon": -1.574924617192968}, "type": "Feature"}, {"geometry": {"coordinates": [-1.561806393011127, 47.22862569057461], "type": "Point"}, "properties": {"stands": 1, "lat": 47.22862569057461, "update": "2016-02-06T12:46:50", "status": "OPEN", "bikes": 14, "address": "Bellamy-Gu\u00e9 Moreau-138 rue Paul Bellamy", "name": "00072-BELLAMY-GU\u00c9 MOREAU", "lon": -1.561806393011127}, "type": "Feature"}, {"geometry": {"coordinates": [-1.558920890474776, 47.219854467329974], "type": "Point"}, "properties": {"stands": 14, "lat": 47.219854467329974, "update": "2016-02-06T12:45:11", "status": "OPEN", "bikes": 1, "address": "SAINT SIMILIEN - 1 PLACE SAINT SIMILIEN", "name": "00019-SAINT SIMILIEN", "lon": -1.558920890474776}, "type": "Feature"}, {"geometry": {"coordinates": [-1.529735885980363, 47.21419463149648], "type": "Point"}, "properties": {"stands": 5, "lat": 47.21419463149648, "update": "2016-02-06T12:42:32", "status": "OPEN", "bikes": 15, "address": "AVENUE DE BERLIN DEVANT MAISON DE QUARTIER", "name": "00051-TABARLY", "lon": -1.529735885980363}, "type": "Feature"}, {"geometry": {"coordinates": [-1.578689264310988, 47.20743863754715], "type": "Point"}, "properties": {"stands": 7, "lat": 47.20743863754715, "update": "2016-02-06T12:45:03", "status": "OPEN", "bikes": 7, "address": "SAINT AIGNAN - 65 BD ST AIGNAN", "name": "00089-SAINT-AIGNAN", "lon": -1.578689264310988}, "type": "Feature"}, {"geometry": {"coordinates": [-1.557532467914316, 47.207605640212115], "type": "Point"}, "properties": {"stands": 25, "lat": 47.207605640212115, "update": "2016-02-06T12:45:37", "status": "OPEN", "bikes": 0, "address": "ECOLE D'ARCHITECTURE - QUAI F MITTERRAND", "name": "00077-ECOLE D'ARCHITECTURE", "lon": -1.557532467914316}, "type": "Feature"}, {"geometry": {"coordinates": [-1.571373578112414, 47.223604815399085], "type": "Point"}, "properties": {"stands": 7, "lat": 47.223604815399085, "update": "2016-02-06T12:40:35", "status": "OPEN", "bikes": 8, "address": "ANATOLE FRANCE - 41 RUE ALEXANDRE DUMAS", "name": "00087-ANATOLE FRANCE", "lon": -1.571373578112414}, "type": "Feature"}, {"geometry": {"coordinates": [-1.548161311046709, 47.20702417983412], "type": "Point"}, "properties": {"stands": 15, "lat": 47.20702417983412, "update": "2016-02-06T12:43:12", "status": "OPEN", "bikes": 0, "address": "MARTYRS NANTAIS - 1 BD DES MARTYRS NANTAIS", "name": "00047- MARTYRS NANTAIS", "lon": -1.548161311046709}, "type": "Feature"}, {"geometry": {"coordinates": [-1.540292594289221, 47.22908808709286], "type": "Point"}, "properties": {"stands": 17, "lat": 47.22908808709286, "update": "2016-02-06T12:43:42", "status": "OPEN", "bikes": 3, "address": "SAINT DONATIEN - PLACE DU 51\u00e9me RIMA", "name": "00097-SAINT DONATIEN", "lon": -1.540292594289221}, "type": "Feature"}, {"geometry": {"coordinates": [-1.557393235628245, 47.21312055103121], "type": "Point"}, "properties": {"stands": 20, "lat": 47.21312055103121, "update": "2016-02-06T12:43:02", "status": "OPEN", "bikes": 19, "address": "COMMERCE - FACE PLACE DU COMMERCE", "name": "00030-COMMERCE", "lon": -1.557393235628245}, "type": "Feature"}, {"geometry": {"coordinates": [-1.569171883302444, 47.21792981632508], "type": "Point"}, "properties": {"stands": 10, "lat": 47.21792981632508, "update": "2016-02-06T12:48:00", "status": "OPEN", "bikes": 5, "address": "GUIST'HAU NORD - 42 BD GUIST'HAU", "name": "00027-GUIST'HAU NORD", "lon": -1.569171883302444}, "type": "Feature"}, {"geometry": {"coordinates": [-1.562986793288367, 47.21718482329023], "type": "Point"}, "properties": {"stands": 14, "lat": 47.21718482329023, "update": "2016-02-06T12:43:24", "status": "OPEN", "bikes": 3, "address": "PLACE ARISTIDE BRIAND", "name": "00015-PLACE ARISTIDE BRIAND", "lon": -1.562986793288367}, "type": "Feature"}, {"geometry": {"coordinates": [-1.530180435959972, 47.208199645038825], "type": "Point"}, "properties": {"stands": 12, "lat": 47.208199645038825, "update": "2016-02-06T12:40:57", "status": "OPEN", "bikes": 2, "address": "MILLERAND - 9 BD ALEXANDRE MILLERAND", "name": "00083-MILLERAND", "lon": -1.530180435959972}, "type": "Feature"}, {"geometry": {"coordinates": [-1.561744905652581, 47.210886925815934], "type": "Point"}, "properties": {"stands": 8, "lat": 47.210886925815934, "update": "2016-02-06T12:47:06", "status": "OPEN", "bikes": 12, "address": "MEDIATHEQUE - 24 QUAI DE LA FOSSE", "name": "00034-MEDIATHEQUE", "lon": -1.561744905652581}, "type": "Feature"}, {"geometry": {"coordinates": [-1.572114577993728, 47.229580605369215], "type": "Point"}, "properties": {"stands": 9, "lat": 47.229580605369215, "update": "2016-02-06T12:40:33", "status": "OPEN", "bikes": 7, "address": "RD PT VANNES - 65 BD LE LASSEUR", "name": "00091-RD PT VANNES", "lon": -1.572114577993728}, "type": "Feature"}, {"geometry": {"coordinates": [-1.555183107916184, 47.20532409029517], "type": "Point"}, "properties": {"stands": 4, "lat": 47.20532409029517, "update": "2016-02-06T12:41:08", "status": "OPEN", "bikes": 16, "address": "PLACE DE LA REPUBLIQUE - 3 PLACE DE LA REPUBLIQUE", "name": "00046-PLACE REPUBLIQUE", "lon": -1.555183107916184}, "type": "Feature"}, {"geometry": {"coordinates": [-1.557229797031573, 47.222902006053054], "type": "Point"}, "properties": {"stands": 13, "lat": 47.222902006053054, "update": "2016-02-06T12:47:26", "status": "OPEN", "bikes": 2, "address": "BELLAMY - 50 RUE PAUL BELLAMY", "name": "00020-BELLAMY", "lon": -1.557229797031573}, "type": "Feature"}, {"geometry": {"coordinates": [-1.545507251231619, 47.20095551723967], "type": "Point"}, "properties": {"stands": 3, "lat": 47.20095551723967, "update": "2016-02-06T12:40:27", "status": "OPEN", "bikes": 11, "address": "MANGIN - DEV 8 PLACE MANGIN", "name": "00081 - MANGIN", "lon": -1.545507251231619}, "type": "Feature"}, {"geometry": {"coordinates": [-1.544298470945214, 47.21078140655944], "type": "Point"}, "properties": {"stands": 7, "lat": 47.21078140655944, "update": "2016-02-06T12:48:18", "status": "OPEN", "bikes": 8, "address": "MAGELLAN - 11 RUE DE BELFORT", "name": "00055-MAGELLAN", "lon": -1.544298470945214}, "type": "Feature"}, {"geometry": {"coordinates": [-1.540514488290191, 47.20844367718286], "type": "Point"}, "properties": {"stands": 8, "lat": 47.20844367718286, "update": "2016-02-06T12:47:30", "status": "OPEN", "bikes": 7, "address": "DE GAULLE - PONT A. BRIAND / BD DE GAULLE", "name": "00078-DE GAULLE", "lon": -1.540514488290191}, "type": "Feature"}, {"geometry": {"coordinates": [-1.552147986072217, 47.22777476106513], "type": "Point"}, "properties": {"stands": 1, "lat": 47.22777476106513, "update": "2016-02-06T12:43:39", "status": "OPEN", "bikes": 18, "address": "PLACE WALDECK ROUSSEAU", "name": "00067-PLACE WALDECK ROUSSEAU", "lon": -1.552147986072217}, "type": "Feature"}, {"geometry": {"coordinates": [-1.537581863003988, 47.205396132179104], "type": "Point"}, "properties": {"stands": 8, "lat": 47.205396132179104, "update": "2016-02-06T12:47:33", "status": "OPEN", "bikes": 12, "address": "GAETAN RONDEAU - 20 RUE GAETAN RONDEAU", "name": "00057-GAETAN RONDEAU", "lon": -1.537581863003988}, "type": "Feature"}, {"geometry": {"coordinates": [-1.536511118183477, 47.213237140630014], "type": "Point"}, "properties": {"stands": 3, "lat": 47.213237140630014, "update": "2016-02-06T12:42:50", "status": "OPEN", "bikes": 12, "address": "MALAKOFF - 15 QUAI MALAKOFF", "name": "00079-MALAKOFF", "lon": -1.536511118183477}, "type": "Feature"}, {"geometry": {"coordinates": [-1.571369360221906, 47.21230895884701], "type": "Point"}, "properties": {"stands": 8, "lat": 47.21230895884701, "update": "2016-02-06T12:49:46", "status": "OPEN", "bikes": 10, "address": "LAMORICIERE - PLACE BEAUMANOIR", "name": "00075-LAMORICIERE", "lon": -1.571369360221906}, "type": "Feature"}, {"geometry": {"coordinates": [-1.563308366869757, 47.22142933898549], "type": "Point"}, "properties": {"stands": 10, "lat": 47.22142933898549, "update": "2016-02-06T12:50:16", "status": "OPEN", "bikes": 4, "address": "PLACE VIARME - 23 PLACE VIARME", "name": "00018-PLACE VIARME", "lon": -1.563308366869757}, "type": "Feature"}, {"geometry": {"coordinates": [-1.556421138973112, 47.234687038295554], "type": "Point"}, "properties": {"stands": 25, "lat": 47.234687038295554, "update": "2016-02-06T12:41:08", "status": "OPEN", "bikes": 0, "address": "MICHELET - BD MICHELET", "name": "00095-MICHELET", "lon": -1.556421138973112}, "type": "Feature"}, {"geometry": {"coordinates": [-1.560022819676629, 47.226394430986105], "type": "Point"}, "properties": {"stands": 7, "lat": 47.226394430986105, "update": "2016-02-06T12:42:39", "status": "OPEN", "bikes": 7, "address": "BEL AIR - 102 RUE PAUL BELLAMY", "name": "00085-BEL AIR", "lon": -1.560022819676629}, "type": "Feature"}, {"geometry": {"coordinates": [-1.56605906933562, 47.23302818477594], "type": "Point"}, "properties": {"stands": 8, "lat": 47.23302818477594, "update": "2016-02-06T12:42:57", "status": "OPEN", "bikes": 12, "address": "RD PT RENNES - ANGLE BD LE LASSEUR & RUE PAUL BELLAMY", "name": "00092-DT PT RENNES", "lon": -1.56605906933562}, "type": "Feature"}, {"geometry": {"coordinates": [-1.539712888264826, 47.21391161818379], "type": "Point"}, "properties": {"stands": 4, "lat": 47.21391161818379, "update": "2016-02-06T12:44:46", "status": "OPEN", "bikes": 11, "address": "STADE SAUPIN - 35 QUAI MALAKOFF", "name": "00059-STADE SAUPIN", "lon": -1.539712888264826}, "type": "Feature"}, {"geometry": {"coordinates": [-1.549886024937758, 47.211736393222054], "type": "Point"}, "properties": {"stands": 10, "lat": 47.211736393222054, "update": "2016-02-06T12:48:21", "status": "OPEN", "bikes": 5, "address": "OLIVETTES - 10 RUE DES OLIVETTES", "name": "00053-OLIVETTES", "lon": -1.549886024937758}, "type": "Feature"}, {"geometry": {"coordinates": [-1.570515336280715, 47.209429092524424], "type": "Point"}, "properties": {"stands": 6, "lat": 47.209429092524424, "update": "2016-02-06T12:49:02", "status": "OPEN", "bikes": 9, "address": "PLACE RENE BOUHIER - 8 PLACE RENE BOUHIER", "name": "00076-PLACE REN\u00c9 BOUHIER", "lon": -1.570515336280715}, "type": "Feature"}, {"geometry": {"coordinates": [-1.557111680197571, 47.21620089258823], "type": "Point"}, "properties": {"stands": 17, "lat": 47.21620089258823, "update": "2016-02-06T12:45:05", "status": "OPEN", "bikes": 2, "address": "BOUCHERIE - FACE AU 4 RUE DE LA BOUCHERIE", "name": "00008-BOUCHERIE", "lon": -1.557111680197571}, "type": "Feature"}, {"geometry": {"coordinates": [-1.570438598073934, 47.220882433018865], "type": "Point"}, "properties": {"stands": 13, "lat": 47.220882433018865, "update": "2016-02-06T12:44:41", "status": "OPEN", "bikes": 0, "address": "SARRADIN - FACE AU 4 PLACE SARRADIN", "name": "00073-SARRADIN", "lon": -1.570438598073934}, "type": "Feature"}, {"geometry": {"coordinates": [-1.547058938534335, 47.21651740326776], "type": "Point"}, "properties": {"stands": 4, "lat": 47.21651740326776, "update": "2016-02-06T12:45:34", "status": "OPEN", "bikes": 11, "address": "DUCHESSE ANNE - 2 PLACE DE LA DUCHESSE ANNE", "name": "00049-DUCHESSE ANNE", "lon": -1.547058938534335}, "type": "Feature"}, {"geometry": {"coordinates": [-1.555309011107301, 47.246298068423485], "type": "Point"}, "properties": {"stands": 8, "lat": 47.246298068423485, "update": "2016-02-06T12:46:45", "status": "OPEN", "bikes": 32, "address": "FACULTES - ANGLE ROUTE DE LA JONELIERE & BD G. MOLLET", "name": "00093-FACULTES", "lon": -1.555309011107301}, "type": "Feature"}, {"geometry": {"coordinates": [-1.551849784370311, 47.217505374678645], "type": "Point"}, "properties": {"stands": 1, "lat": 47.217505374678645, "update": "2016-02-06T12:42:33", "status": "OPEN", "bikes": 13, "address": "VERDUN - 15 RUE DE VERDUN", "name": "00048-VERDUN", "lon": -1.551849784370311}, "type": "Feature"}, {"geometry": {"coordinates": [-1.55408380740881, 47.220255183724454], "type": "Point"}, "properties": {"stands": 22, "lat": 47.220255183724454, "update": "2016-02-06T12:40:25", "status": "OPEN", "bikes": 3, "address": "PREFECTURE - 5 QUAI CEINERAY", "name": "00001-PREFECTURE", "lon": -1.55408380740881}, "type": "Feature"}, {"geometry": {"coordinates": [-1.542404741250403, 47.227145468224634], "type": "Point"}, "properties": {"stands": 11, "lat": 47.227145468224634, "update": "2016-02-06T12:47:45", "status": "OPEN", "bikes": 0, "address": "BUAT - 118 RUE DE COULMIERS", "name": "00023-BUAT", "lon": -1.542404741250403}, "type": "Feature"}, {"geometry": {"coordinates": [-1.576612843727262, 47.22419506173264], "type": "Point"}, "properties": {"stands": 11, "lat": 47.22419506173264, "update": "2016-02-06T12:49:58", "status": "OPEN", "bikes": 4, "address": "PROCE - ANGLE BD G. SERPETTE & BD A. PAGEOT", "name": "00090-PROCE", "lon": -1.576612843727262}, "type": "Feature"}, {"geometry": {"coordinates": [-1.5502297, 47.2191122], "type": "Point"}, "properties": {"stands": 7, "lat": 47.2191122, "update": "2016-02-06T12:41:08", "status": "OPEN", "bikes": 8, "address": "FOCH - PLACE FOCH", "name": "00032-FOCH", "lon": -1.5502297}, "type": "Feature"}, {"geometry": {"coordinates": [-1.561570147641708, 47.21921395261352], "type": "Point"}, "properties": {"stands": 13, "lat": 47.21921395261352, "update": "2016-02-06T12:49:42", "status": "OPEN", "bikes": 1, "address": "SAINTE ELISABTEH - 3 PLACE STE ELISABETH", "name": "00017-SAINTE ELISABETH", "lon": -1.561570147641708}, "type": "Feature"}, {"geometry": {"coordinates": [-1.555269922656021, 47.213450231365094], "type": "Point"}, "properties": {"stands": 9, "lat": 47.213450231365094, "update": "2016-02-06T12:40:40", "status": "OPEN", "bikes": 6, "address": "DUGUAY TROUIN - 7 ALLEE DUGUAY TROUIN", "name": "00029-DUGUAY TROUIN", "lon": -1.555269922656021}, "type": "Feature"}, {"geometry": {"coordinates": [-1.550226242563373, 47.21514969516256], "type": "Point"}, "properties": {"stands": 3, "lat": 47.21514969516256, "update": "2016-02-06T12:47:56", "status": "OPEN", "bikes": 13, "address": "CHATEAU - 2 RUE DES ETATS", "name": "00050-CHATEAU", "lon": -1.550226242563373}, "type": "Feature"}, {"geometry": {"coordinates": [-1.5568245371939, 47.211465063355035], "type": "Point"}, "properties": {"stands": 5, "lat": 47.211465063355035, "update": "2016-02-06T12:46:37", "status": "OPEN", "bikes": 16, "address": "FEYDEAU - 1 ALLEE ILE GLORIETTE", "name": "00037-FEYDEAU", "lon": -1.5568245371939}, "type": "Feature"}, {"geometry": {"coordinates": [-1.567501842502272, 47.22547062698044], "type": "Point"}, "properties": {"stands": 8, "lat": 47.22547062698044, "update": "2016-02-06T12:42:12", "status": "OPEN", "bikes": 8, "address": "HAUT PAVES - ANGLE RUE DE BERRY/RUE DES HAUTS PAVES", "name": "00086-HAUTS PAV\u00c9S", "lon": -1.567501842502272}, "type": "Feature"}, {"geometry": {"coordinates": [-1.555233144631466, 47.209406573873714], "type": "Point"}, "properties": {"stands": 11, "lat": 47.209406573873714, "update": "2016-02-06T12:49:13", "status": "OPEN", "bikes": 8, "address": "QUAI MONCOUSU - 11 QUAI MONCOUSU", "name": "00039-QUAI MONCOUSU", "lon": -1.555233144631466}, "type": "Feature"}, {"geometry": {"coordinates": [-1.565543986075099, 47.212168974412094], "type": "Point"}, "properties": {"stands": 8, "lat": 47.212168974412094, "update": "2016-02-06T12:46:56", "status": "OPEN", "bikes": 7, "address": "JEAN V - 2 PLACE JEAN V", "name": "00035-JEAN V", "lon": -1.565543986075099}, "type": "Feature"}, {"geometry": {"coordinates": [-1.529959592703474, 47.223508869811994], "type": "Point"}, "properties": {"stands": 5, "lat": 47.223508869811994, "update": "2016-02-06T12:47:13", "status": "OPEN", "bikes": 10, "address": "DALBY- 61 BD ERNEST DALBY FACE STATION SERVICE", "name": "00025-DALBY", "lon": -1.529959592703474}, "type": "Feature"}, {"geometry": {"coordinates": [-1.561173077989395, 47.20831728844152], "type": "Point"}, "properties": {"stands": 20, "lat": 47.20831728844152, "update": "2016-02-06T12:43:24", "status": "OPEN", "bikes": 5, "address": "PALAIS DE JUSTICE - 19 QUAI FRANCOIS MITTERAND", "name": "00044-PALAIS DE JUSTICE", "lon": -1.561173077989395}, "type": "Feature"}, {"geometry": {"coordinates": [-1.536540663464699, 47.1958989090141], "type": "Point"}, "properties": {"stands": 2, "lat": 47.1958989090141, "update": "2016-02-06T12:44:53", "status": "OPEN", "bikes": 12, "address": "ST JACQUES - RUE ST JACQUES", "name": "00099-ST JACQUES", "lon": -1.536540663464699}, "type": "Feature"}, {"geometry": {"coordinates": [-1.551548484803203, 47.204003208491145], "type": "Point"}, "properties": {"stands": 13, "lat": 47.204003208491145, "update": "2016-02-06T12:45:58", "status": "OPEN", "bikes": 2, "address": "VICTOR HUGO - BD VICTOR HUGO", "name": "00080 - VICTOR HUGO", "lon": -1.551548484803203}, "type": "Feature"}, {"geometry": {"coordinates": [-1.545905939112105, 47.215591463959825], "type": "Point"}, "properties": {"stands": 5, "lat": 47.215591463959825, "update": "2016-02-06T12:50:05", "status": "OPEN", "bikes": 10, "address": "LIEU UNIQUE - FACE 23 QUAI FERDINAND FAVRE", "name": "00061-LU - LIEU UNIQUE", "lon": -1.545905939112105}, "type": "Feature"}, {"geometry": {"coordinates": [-1.556476339327795, 47.22114332912908], "type": "Point"}, "properties": {"stands": 7, "lat": 47.22114332912908, "update": "2016-02-06T12:47:18", "status": "OPEN", "bikes": 9, "address": "MARCHE TALENSAC SUD - 6 RUE TALENSAC", "name": "00021-MARCHE TALENSAC SUD", "lon": -1.556476339327795}, "type": "Feature"}, {"geometry": {"coordinates": [-1.558940746690739, 47.22185363818837], "type": "Point"}, "properties": {"stands": 9, "lat": 47.22185363818837, "update": "2016-02-06T12:49:57", "status": "OPEN", "bikes": 5, "address": "MARCHE TALENSAC NORD - 18 RUE TALENSAC", "name": "00071-MARCHE TALENSAC NORD", "lon": -1.558940746690739}, "type": "Feature"}, {"geometry": {"coordinates": [-1.569524048742154, 47.208357479819504], "type": "Point"}, "properties": {"stands": 0, "lat": 47.208357479819504, "update": "2016-02-06T12:40:21", "status": "OPEN", "bikes": 15, "address": "CHANTIER NAVAL - 87 QUAI DE LA FOSSE", "name": "00041-CHANTIER NAVAL", "lon": -1.569524048742154}, "type": "Feature"}, {"geometry": {"coordinates": [-1.563900673465861, 47.21515818868574], "type": "Point"}, "properties": {"stands": 9, "lat": 47.21515818868574, "update": "2016-02-06T12:49:12", "status": "OPEN", "bikes": 11, "address": "PLACE DELORME", "name": "00012-PLACE DELORME", "lon": -1.563900673465861}, "type": "Feature"}, {"geometry": {"coordinates": [-1.550828036456355, 47.18921204751304], "type": "Point"}, "properties": {"stands": 8, "lat": 47.18921204751304, "update": "2016-02-06T12:41:46", "status": "OPEN", "bikes": 6, "address": "HUIT MAI - AVENUE DE LA LIBERATION - REZE", "name": "00098-HUIT MAI", "lon": -1.550828036456355}, "type": "Feature"}, {"geometry": {"coordinates": [-1.567004526265165, 47.21682795997449], "type": "Point"}, "properties": {"stands": 15, "lat": 47.21682795997449, "update": "2016-02-06T12:41:34", "status": "OPEN", "bikes": 0, "address": "GUIST'HAU SUD - 26 BOULEVARD GUIST'HAU", "name": "00026-GUIST'HAU SUD", "lon": -1.567004526265165}, "type": "Feature"}, {"geometry": {"coordinates": [-1.548750555741977, 47.214327524589145], "type": "Point"}, "properties": {"stands": 8, "lat": 47.214327524589145, "update": "2016-02-06T12:49:24", "status": "OPEN", "bikes": 7, "address": "BACO - FACE AU 8 ALLEE BACO", "name": "00052-BACO", "lon": -1.548750555741977}, "type": "Feature"}, {"geometry": {"coordinates": [-1.560675283700123, 47.215578942427136], "type": "Point"}, "properties": {"stands": 14, "lat": 47.215578942427136, "update": "2016-02-06T12:47:06", "status": "OPEN", "bikes": 1, "address": "CALVAIRE - PL.DES VOLONTAIRES DE LA DEFENSE PASSIVE", "name": "00011-CALVAIRE", "lon": -1.560675283700123}, "type": "Feature"}, {"geometry": {"coordinates": [-1.544718964531585, 47.219834197318974], "type": "Point"}, "properties": {"stands": 3, "lat": 47.219834197318974, "update": "2016-02-06T12:48:54", "status": "OPEN", "bikes": 12, "address": "JARDIN DES PLANTES - 6 RUE STANILAS BAUDRY", "name": "00063-JARDIN DES PLANTES", "lon": -1.544718964531585}, "type": "Feature"}, {"geometry": {"coordinates": [-1.563419484053747, 47.21902754473837], "type": "Point"}, "properties": {"stands": 13, "lat": 47.21902754473837, "update": "2016-02-06T12:42:31", "status": "OPEN", "bikes": 2, "address": "PLACE EDOUARD NORMAND - FACE AU 7 PLACE EDOUARD NORMAND", "name": "00016-PLACE EDOUARD NORMAND", "lon": -1.563419484053747}, "type": "Feature"}, {"geometry": {"coordinates": [-1.577175414321782, 47.211501070117826], "type": "Point"}, "properties": {"stands": 7, "lat": 47.211501070117826, "update": "2016-02-06T12:50:07", "status": "OPEN", "bikes": 8, "address": "MELLINET - 1 BD ALLARD", "name": "00088-MELLINET", "lon": -1.577175414321782}, "type": "Feature"}, {"geometry": {"coordinates": [-1.542844, 47.215505], "type": "Point"}, "properties": {"stands": 1, "lat": 47.215505, "update": "2016-02-06T12:41:40", "status": "OPEN", "bikes": 29, "address": "Quai Malakoff - c\u00f4t\u00e9 canal st F\u00e9lix", "name": "00070-GARE SUD 2", "lon": -1.542844}, "type": "Feature"}, {"geometry": {"coordinates": [-1.5543847138777, 47.216667582015184], "type": "Point"}, "properties": {"stands": 11, "lat": 47.216667582015184, "update": "2016-02-06T12:45:46", "status": "OPEN", "bikes": 2, "address": "MOULIN - FACE AU 18 RUE DU MOULIN", "name": "00004-MOULIN", "lon": -1.5543847138777}, "type": "Feature"}, {"geometry": {"coordinates": [-1.549221766809888, 47.235335222208626], "type": "Point"}, "properties": {"stands": 10, "lat": 47.235335222208626, "update": "2016-02-06T12:48:34", "status": "OPEN", "bikes": 6, "address": "TORTIERE - BD EUGENE ORIEUX", "name": "00096-TORTIERE", "lon": -1.549221766809888}, "type": "Feature"}, {"geometry": {"coordinates": [-1.547099233718495, 47.221785183522634], "type": "Point"}, "properties": {"stands": 5, "lat": 47.221785183522634, "update": "2016-02-06T12:49:45", "status": "OPEN", "bikes": 10, "address": "SAINT CLEMENT - FACE AU 37 RUE DU MARECHAL JOFFRE", "name": "00064-SAINT CLEMENT", "lon": -1.547099233718495}, "type": "Feature"}, {"geometry": {"coordinates": [-1.559017485167438, 47.215814587139455], "type": "Point"}, "properties": {"stands": 13, "lat": 47.215814587139455, "update": "2016-02-06T12:45:12", "status": "OPEN", "bikes": 1, "address": "GUEPIN - 8 RUE DE L'ARCHE SECHE", "name": "00009-GUEPIN", "lon": -1.559017485167438}, "type": "Feature"}, {"geometry": {"coordinates": [-1.563140874431397, 47.213522613719896], "type": "Point"}, "properties": {"stands": 10, "lat": 47.213522613719896, "update": "2016-02-06T12:50:12", "status": "OPEN", "bikes": 5, "address": "RACINE - 4 RUE RACINE", "name": "00033-RACINE", "lon": -1.563140874431397}, "type": "Feature"}, {"geometry": {"coordinates": [-1.542847782057658, 47.215919436013635], "type": "Point"}, "properties": {"stands": 9, "lat": 47.215919436013635, "update": "2016-02-06T12:41:05", "status": "OPEN", "bikes": 31, "address": "GARE SUD - FACE 12 RUE LOURMEL", "name": "00060-GARE SUD", "lon": -1.542847782057658}, "type": "Feature"}, {"geometry": {"coordinates": [-1.553711961402328, 47.22451490719107], "type": "Point"}, "properties": {"stands": 5, "lat": 47.22451490719107, "update": "2016-02-06T12:45:43", "status": "OPEN", "bikes": 10, "address": "VERSAILLES - FACE AU 25 QUAI DE VERSAILLES", "name": "00024-VERSAILLES", "lon": -1.553711961402328}, "type": "Feature"}, {"geometry": {"coordinates": [-1.533118244923623, 47.206757512308414], "type": "Point"}, "properties": {"stands": 7, "lat": 47.206757512308414, "update": "2016-02-06T12:48:15", "status": "OPEN", "bikes": 9, "address": "SEBILLEAU - 9 RUE GAETAN RONDEAU", "name": "00082-SEBILLEAU", "lon": -1.533118244923623}, "type": "Feature"}, {"geometry": {"coordinates": [-1.556749263076553, 47.218837230469425], "type": "Point"}, "properties": {"stands": 9, "lat": 47.218837230469425, "update": "2016-02-06T12:50:04", "status": "OPEN", "bikes": 6, "address": "BROSSARD - 25 RUE ARMAND BROSSARD", "name": "00005-BROSSARD", "lon": -1.556749263076553}, "type": "Feature"}, {"geometry": {"coordinates": [-1.54156809120326, 47.1965313642396], "type": "Point"}, "properties": {"stands": 12, "lat": 47.1965313642396, "update": "2016-02-06T12:45:06", "status": "OPEN", "bikes": 16, "address": "PIRMIL - RUE ESNOUL DES CHATELETS", "name": "00101 - PIRMIL", "lon": -1.54156809120326}, "type": "Feature"}, {"geometry": {"coordinates": [-1.534717540470481, 47.199923092905216], "type": "Point"}, "properties": {"stands": 5, "lat": 47.199923092905216, "update": "2016-02-06T12:44:53", "status": "OPEN", "bikes": 15, "address": "GRENERAIE - PARC DE LA GRENERAIE", "name": "00100 - GRENERAIE", "lon": -1.534717540470481}, "type": "Feature"}, {"geometry": {"coordinates": [-1.544952541668585, 47.213180085527846], "type": "Point"}, "properties": {"stands": 5, "lat": 47.213180085527846, "update": "2016-02-06T12:48:50", "status": "OPEN", "bikes": 25, "address": "CITE INTERNATIONAL DES CONGRES - 2 RUE DE JEMMAPES", "name": "00054- CITE INTERNATIONALE DES CONGRES", "lon": -1.544952541668585}, "type": "Feature"}, {"geometry": {"coordinates": [-1.567568016663838, 47.21446342738575], "type": "Point"}, "properties": {"stands": 8, "lat": 47.21446342738575, "update": "2016-02-06T12:45:09", "status": "OPEN", "bikes": 5, "address": "PLACE DE L'EDIT DE NANTES", "name": "00028- PLACE DE L'EDIT NANTES", "lon": -1.567568016663838}, "type": "Feature"}, {"geometry": {"coordinates": [-1.545212434215091, 47.22406787948748], "type": "Point"}, "properties": {"stands": 13, "lat": 47.22406787948748, "update": "2016-02-06T12:45:18", "status": "OPEN", "bikes": 2, "address": "LIVET - FACE AU 65 RUE DU FOUR", "name": "00068-LIVET", "lon": -1.545212434215091}, "type": "Feature"}, {"geometry": {"coordinates": [-1.551666442545979, 47.222587339906696], "type": "Point"}, "properties": {"stands": 9, "lat": 47.222587339906696, "update": "2016-02-06T12:49:23", "status": "OPEN", "bikes": 6, "address": "COURS SULLY - FACE AU 9 COURS SULLY", "name": "00065-COURS SULLY", "lon": -1.551666442545979}, "type": "Feature"}, {"geometry": {"coordinates": [-1.559161066618992, 47.216787949913034], "type": "Point"}, "properties": {"stands": 18, "lat": 47.216787949913034, "update": "2016-02-06T12:49:49", "status": "OPEN", "bikes": 2, "address": "BRETAGNE SUD - 1 RUE PIERRE CHEREAU", "name": "00013-BRETAGNE SUD", "lon": -1.559161066618992}, "type": "Feature"}, {"geometry": {"coordinates": [-1.556937645378872, 47.21759668240601], "type": "Point"}, "properties": {"stands": 13, "lat": 47.21759668240601, "update": "2016-02-06T12:50:07", "status": "OPEN", "bikes": 2, "address": "PLACE DU CIRQUE - 7 ALLEE DUQUESNE", "name": "00006-PLACE DU CIRQUE", "lon": -1.556937645378872}, "type": "Feature"}], "type": "FeatureCollection"}