{"type": "FeatureCollection", "features": [{"type": "Feature", "geometry": {"type": "Point", "coordinates": [-1.553049129320471, 47.212108463141774]}, "properties": {"name": "00038-PLACE RICORDEAU", "lon": -1.553049129320471, "lat": 47.212108463141774, "status": "OPEN", "stands": 21, "update": "2016-02-04T18:45:16", "address": "PLACE RICORDEAU", "bikes": 18}}, {"type": "Feature", "geometry": {"type": "Point", "coordinates": [-1.547999925907375, 47.22542988533347]}, "properties": {"name": "00066-CHANZY", "lon": -1.547999925907375, "lat": 47.22542988533347, "status": "OPEN", "stands": 9, "update": "2016-02-04T18:46:17", "address": "CHANZY - FACE AU 23 AVENUE DE CHANZY", "bikes": 6}}, {"type": "Feature", "geometry": {"type": "Point", "coordinates": [-1.55154060534636, 47.216479771820744]}, "properties": {"name": "00003-STRASBOURG", "lon": -1.55154060534636, "lat": 47.216479771820744, "status": "OPEN", "stands": 9, "update": "2016-02-04T18:40:26", "address": "STRASBOURG - PLACE TIRANT LO BLANC", "bikes": 6}}, {"type": "Feature", "geometry": {"type": "Point", "coordinates": [-1.553484290392954, 47.21857181309145]}, "properties": {"name": "00002-H\u00d4TEL DE VILLE", "lon": -1.553484290392954, "lat": 47.21857181309145, "status": "OPEN", "stands": 12, "update": "2016-02-04T18:38:03", "address": "H\u00d4TEL DE VILLE - FACE AU 29 RUE DE STRASBOURG", "bikes": 8}}, {"type": "Feature", "geometry": {"type": "Point", "coordinates": [-1.564806790782994, 47.20691895869599]}, "properties": {"name": "00043 - MACHINE DE L'\u00ceLE", "lon": -1.564806790782994, "lat": 47.20691895869599, "status": "OPEN", "stands": 14, "update": "2016-02-04T18:45:15", "address": "MACHINE DE L'\u00ceLE - 3 BD LEON BUREAU", "bikes": 16}}, {"type": "Feature", "geometry": {"type": "Point", "coordinates": [-1.525933451925082, 47.21074214218137]}, "properties": {"name": "00084-R\u00c9GION", "lon": -1.525933451925082, "lat": 47.21074214218137, "status": "OPEN", "stands": 6, "update": "2016-02-04T18:40:36", "address": "REGION - RUE DE LA LOIRE", "bikes": 13}}, {"type": "Feature", "geometry": {"type": "Point", "coordinates": [-1.550411914119152, 47.208804642437784]}, "properties": {"name": "00040-MADELEINE", "lon": -1.550411914119152, "lat": 47.208804642437784, "status": "OPEN", "stands": 10, "update": "2016-02-04T18:38:39", "address": "MADELEINE - 2 QUAI MONCOUSU", "bikes": 5}}, {"type": "Feature", "geometry": {"type": "Point", "coordinates": [-1.555531041936261, 47.220392126691955]}, "properties": {"name": "00022-MOQUECHIEN", "lon": -1.555531041936261, "lat": 47.220392126691955, "status": "OPEN", "stands": 16, "update": "2016-02-04T18:37:21", "address": "MOQUECHIEN - 8 RUE MOQUECHIEN", "bikes": 0}}, {"type": "Feature", "geometry": {"type": "Point", "coordinates": [-1.572610286970505, 47.20659772898787]}, "properties": {"name": "00042-GARE MARITIME", "lon": -1.572610286970505, "lat": 47.20659772898787, "status": "OPEN", "stands": 3, "update": "2016-02-04T18:46:05", "address": "GARE MARITIME - PLACE JACKSONVILLE", "bikes": 22}}, {"type": "Feature", "geometry": {"type": "Point", "coordinates": [-1.549291898557657, 47.19280351379784]}, "properties": {"name": "00102-GARE PT ROUSSEAU", "lon": -1.549291898557657, "lat": 47.19280351379784, "status": "OPEN", "stands": 6, "update": "2016-02-04T18:43:46", "address": "GARE PONT ROUSSEAU - RUE DE LA GARE - REZE", "bikes": 14}}, {"type": "Feature", "geometry": {"type": "Point", "coordinates": [-1.541777739850638, 47.206798618575256]}, "properties": {"name": "00056-VINCENT GACHE", "lon": -1.541777739850638, "lat": 47.206798618575256, "status": "OPEN", "stands": 9, "update": "2016-02-04T18:43:00", "address": "VINCENT GACHE - 9 RUE FRANCOIS ALBERT", "bikes": 6}}, {"type": "Feature", "geometry": {"type": "Point", "coordinates": [-1.556126125975167, 47.215331358010445]}, "properties": {"name": "00007- BARILLERIE", "lon": -1.556126125975167, "lat": 47.215331358010445, "status": "OPEN", "stands": 7, "update": "2016-02-04T18:41:36", "address": "BARILLERIE - 2 ALLEE PENTHIEVRE", "bikes": 8}}, {"type": "Feature", "geometry": {"type": "Point", "coordinates": [-1.55892310936669, 47.204783935599195]}, "properties": {"name": "00045-PRAIRIE AU DUC", "lon": -1.55892310936669, "lat": 47.204783935599195, "status": "OPEN", "stands": 10, "update": "2016-02-04T18:39:40", "address": "PRAIRIE AU DUC - 40 BOULEVARD DE LA PRAIRIE AU DUC", "bikes": 3}}, {"type": "Feature", "geometry": {"type": "Point", "coordinates": [-1.568490581479757, 47.206384991216765]}, "properties": {"name": "00103 - STATION MOBILE", "lon": -1.568490581479757, "lat": 47.206384991216765, "status": "OPEN", "stands": 11, "update": "2016-02-04T18:43:12", "address": "ILE DE NANTES PARC DES CHANTIERS A COTE DU CARROUSEL  (Station mobile)", "bikes": 8}}, {"type": "Feature", "geometry": {"type": "Point", "coordinates": [-1.534184544523239, 47.216369613307506]}, "properties": {"name": "00010- PICASSO", "lon": -1.534184544523239, "lat": 47.216369613307506, "status": "OPEN", "stands": 26, "update": "2016-02-04T18:47:07", "address": "PICASSO - RUE PABLO PICASSO", "bikes": 2}}, {"type": "Feature", "geometry": {"type": "Point", "coordinates": [-1.542208634875899, 47.218132613316826]}, "properties": {"name": "00062-GARE NORD", "lon": -1.542208634875899, "lat": 47.218132613316826, "status": "OPEN", "stands": 3, "update": "2016-02-04T18:42:57", "address": "GARE NORD - 1 PLACE CHARLES LE ROUX", "bikes": 37}}, {"type": "Feature", "geometry": {"type": "Point", "coordinates": [-1.535981000861306, 47.208466072191925]}, "properties": {"name": "00058-PALAIS DES SPORTS", "lon": -1.535981000861306, "lat": 47.208466072191925, "status": "OPEN", "stands": 13, "update": "2016-02-04T18:43:14", "address": "PALAIS DES SPORTS - 21 RUE RENE VIVIANI", "bikes": 2}}, {"type": "Feature", "geometry": {"type": "Point", "coordinates": [-1.556344610167984, 47.243263914975486]}, "properties": {"name": "00094-PETIT PORT", "lon": -1.556344610167984, "lat": 47.243263914975486, "status": "OPEN", "stands": 6, "update": "2016-02-04T18:43:22", "address": "PETIT PORT - BD DU PETIT PORT", "bikes": 14}}, {"type": "Feature", "geometry": {"type": "Point", "coordinates": [-1.559086551239872, 47.212083030753185]}, "properties": {"name": "00031-BOURSE", "lon": -1.559086551239872, "lat": 47.212083030753185, "status": "OPEN", "stands": 14, "update": "2016-02-04T18:41:15", "address": "BOURSE - SQUARE DE LA BOURSE", "bikes": 2}}, {"type": "Feature", "geometry": {"type": "Point", "coordinates": [-1.574924617192968, 47.21433366088933]}, "properties": {"name": "00074-CANCLAUX", "lon": -1.574924617192968, "lat": 47.21433366088933, "status": "OPEN", "stands": 7, "update": "2016-02-04T18:40:55", "address": "CANCLAUX - 8 PLACE CANCLAUX", "bikes": 8}}, {"type": "Feature", "geometry": {"type": "Point", "coordinates": [-1.561806393011127, 47.22862569057461]}, "properties": {"name": "00072-BELLAMY-GU\u00c9 MOREAU", "lon": -1.561806393011127, "lat": 47.22862569057461, "status": "OPEN", "stands": 11, "update": "2016-02-04T18:37:49", "address": "Bellamy-Gu\u00e9 Moreau-138 rue Paul Bellamy", "bikes": 4}}, {"type": "Feature", "geometry": {"type": "Point", "coordinates": [-1.558920890474776, 47.219854467329974]}, "properties": {"name": "00019-SAINT SIMILIEN", "lon": -1.558920890474776, "lat": 47.219854467329974, "status": "OPEN", "stands": 10, "update": "2016-02-04T18:39:19", "address": "SAINT SIMILIEN - 1 PLACE SAINT SIMILIEN", "bikes": 5}}, {"type": "Feature", "geometry": {"type": "Point", "coordinates": [-1.529735885980363, 47.21419463149648]}, "properties": {"name": "00051-TABARLY", "lon": -1.529735885980363, "lat": 47.21419463149648, "status": "OPEN", "stands": 6, "update": "2016-02-04T18:45:22", "address": "AVENUE DE BERLIN DEVANT MAISON DE QUARTIER", "bikes": 14}}, {"type": "Feature", "geometry": {"type": "Point", "coordinates": [-1.578689264310988, 47.20743863754715]}, "properties": {"name": "00089-SAINT-AIGNAN", "lon": -1.578689264310988, "lat": 47.20743863754715, "status": "OPEN", "stands": 5, "update": "2016-02-04T18:38:14", "address": "SAINT AIGNAN - 65 BD ST AIGNAN", "bikes": 9}}, {"type": "Feature", "geometry": {"type": "Point", "coordinates": [-1.557532467914316, 47.207605640212115]}, "properties": {"name": "00077-ECOLE D'ARCHITECTURE", "lon": -1.557532467914316, "lat": 47.207605640212115, "status": "OPEN", "stands": 24, "update": "2016-02-04T18:47:02", "address": "ECOLE D'ARCHITECTURE - QUAI F MITTERRAND", "bikes": 1}}, {"type": "Feature", "geometry": {"type": "Point", "coordinates": [-1.571373578112414, 47.223604815399085]}, "properties": {"name": "00087-ANATOLE FRANCE", "lon": -1.571373578112414, "lat": 47.223604815399085, "status": "OPEN", "stands": 9, "update": "2016-02-04T18:46:06", "address": "ANATOLE FRANCE - 41 RUE ALEXANDRE DUMAS", "bikes": 6}}, {"type": "Feature", "geometry": {"type": "Point", "coordinates": [-1.548161311046709, 47.20702417983412]}, "properties": {"name": "00047- MARTYRS NANTAIS", "lon": -1.548161311046709, "lat": 47.20702417983412, "status": "OPEN", "stands": 15, "update": "2016-02-04T18:42:54", "address": "MARTYRS NANTAIS - 1 BD DES MARTYRS NANTAIS", "bikes": 0}}, {"type": "Feature", "geometry": {"type": "Point", "coordinates": [-1.540292594289221, 47.22908808709286]}, "properties": {"name": "00097-SAINT DONATIEN", "lon": -1.540292594289221, "lat": 47.22908808709286, "status": "OPEN", "stands": 13, "update": "2016-02-04T18:45:59", "address": "SAINT DONATIEN - PLACE DU 51\u00e9me RIMA", "bikes": 7}}, {"type": "Feature", "geometry": {"type": "Point", "coordinates": [-1.557393235628245, 47.21312055103121]}, "properties": {"name": "00030-COMMERCE", "lon": -1.557393235628245, "lat": 47.21312055103121, "status": "OPEN", "stands": 10, "update": "2016-02-04T18:45:01", "address": "COMMERCE - FACE PLACE DU COMMERCE", "bikes": 29}}, {"type": "Feature", "geometry": {"type": "Point", "coordinates": [-1.569171883302444, 47.21792981632508]}, "properties": {"name": "00027-GUIST'HAU NORD", "lon": -1.569171883302444, "lat": 47.21792981632508, "status": "OPEN", "stands": 8, "update": "2016-02-04T18:47:02", "address": "GUIST'HAU NORD - 42 BD GUIST'HAU", "bikes": 7}}, {"type": "Feature", "geometry": {"type": "Point", "coordinates": [-1.562986793288367, 47.21718482329023]}, "properties": {"name": "00015-PLACE ARISTIDE BRIAND", "lon": -1.562986793288367, "lat": 47.21718482329023, "status": "OPEN", "stands": 3, "update": "2016-02-04T18:46:20", "address": "PLACE ARISTIDE BRIAND", "bikes": 14}}, {"type": "Feature", "geometry": {"type": "Point", "coordinates": [-1.530180435959972, 47.208199645038825]}, "properties": {"name": "00083-MILLERAND", "lon": -1.530180435959972, "lat": 47.208199645038825, "status": "OPEN", "stands": 4, "update": "2016-02-04T18:45:59", "address": "MILLERAND - 9 BD ALEXANDRE MILLERAND", "bikes": 10}}, {"type": "Feature", "geometry": {"type": "Point", "coordinates": [-1.561744905652581, 47.210886925815934]}, "properties": {"name": "00034-MEDIATHEQUE", "lon": -1.561744905652581, "lat": 47.210886925815934, "status": "OPEN", "stands": 19, "update": "2016-02-04T18:46:05", "address": "MEDIATHEQUE - 24 QUAI DE LA FOSSE", "bikes": 1}}, {"type": "Feature", "geometry": {"type": "Point", "coordinates": [-1.572114577993728, 47.229580605369215]}, "properties": {"name": "00091-RD PT VANNES", "lon": -1.572114577993728, "lat": 47.229580605369215, "status": "OPEN", "stands": 11, "update": "2016-02-04T18:44:31", "address": "RD PT VANNES - 65 BD LE LASSEUR", "bikes": 5}}, {"type": "Feature", "geometry": {"type": "Point", "coordinates": [-1.555183107916184, 47.20532409029517]}, "properties": {"name": "00046-PLACE REPUBLIQUE", "lon": -1.555183107916184, "lat": 47.20532409029517, "status": "OPEN", "stands": 15, "update": "2016-02-04T18:46:13", "address": "PLACE DE LA REPUBLIQUE - 3 PLACE DE LA REPUBLIQUE", "bikes": 5}}, {"type": "Feature", "geometry": {"type": "Point", "coordinates": [-1.557229797031573, 47.222902006053054]}, "properties": {"name": "00020-BELLAMY", "lon": -1.557229797031573, "lat": 47.222902006053054, "status": "OPEN", "stands": 10, "update": "2016-02-04T18:46:15", "address": "BELLAMY - 50 RUE PAUL BELLAMY", "bikes": 5}}, {"type": "Feature", "geometry": {"type": "Point", "coordinates": [-1.545507251231619, 47.20095551723967]}, "properties": {"name": "00081 - MANGIN", "lon": -1.545507251231619, "lat": 47.20095551723967, "status": "OPEN", "stands": 2, "update": "2016-02-04T18:46:37", "address": "MANGIN - DEV 8 PLACE MANGIN", "bikes": 12}}, {"type": "Feature", "geometry": {"type": "Point", "coordinates": [-1.544298470945214, 47.21078140655944]}, "properties": {"name": "00055-MAGELLAN", "lon": -1.544298470945214, "lat": 47.21078140655944, "status": "OPEN", "stands": 8, "update": "2016-02-04T18:43:02", "address": "MAGELLAN - 11 RUE DE BELFORT", "bikes": 7}}, {"type": "Feature", "geometry": {"type": "Point", "coordinates": [-1.540514488290191, 47.20844367718286]}, "properties": {"name": "00078-DE GAULLE", "lon": -1.540514488290191, "lat": 47.20844367718286, "status": "OPEN", "stands": 13, "update": "2016-02-04T18:43:40", "address": "DE GAULLE - PONT A. BRIAND / BD DE GAULLE", "bikes": 1}}, {"type": "Feature", "geometry": {"type": "Point", "coordinates": [-1.552147986072217, 47.22777476106513]}, "properties": {"name": "00067-PLACE WALDECK ROUSSEAU", "lon": -1.552147986072217, "lat": 47.22777476106513, "status": "OPEN", "stands": 19, "update": "2016-02-04T18:46:57", "address": "PLACE WALDECK ROUSSEAU", "bikes": 0}}, {"type": "Feature", "geometry": {"type": "Point", "coordinates": [-1.537581863003988, 47.205396132179104]}, "properties": {"name": "00057-GAETAN RONDEAU", "lon": -1.537581863003988, "lat": 47.205396132179104, "status": "OPEN", "stands": 18, "update": "2016-02-04T18:47:09", "address": "GAETAN RONDEAU - 20 RUE GAETAN RONDEAU", "bikes": 2}}, {"type": "Feature", "geometry": {"type": "Point", "coordinates": [-1.536511118183477, 47.213237140630014]}, "properties": {"name": "00079-MALAKOFF", "lon": -1.536511118183477, "lat": 47.213237140630014, "status": "OPEN", "stands": 9, "update": "2016-02-04T18:40:26", "address": "MALAKOFF - 15 QUAI MALAKOFF", "bikes": 6}}, {"type": "Feature", "geometry": {"type": "Point", "coordinates": [-1.571369360221906, 47.21230895884701]}, "properties": {"name": "00075-LAMORICIERE", "lon": -1.571369360221906, "lat": 47.21230895884701, "status": "OPEN", "stands": 2, "update": "2016-02-04T18:46:11", "address": "LAMORICIERE - PLACE BEAUMANOIR", "bikes": 15}}, {"type": "Feature", "geometry": {"type": "Point", "coordinates": [-1.563308366869757, 47.22142933898549]}, "properties": {"name": "00018-PLACE VIARME", "lon": -1.563308366869757, "lat": 47.22142933898549, "status": "OPEN", "stands": 2, "update": "2016-02-04T18:46:44", "address": "PLACE VIARME - 23 PLACE VIARME", "bikes": 11}}, {"type": "Feature", "geometry": {"type": "Point", "coordinates": [-1.556421138973112, 47.234687038295554]}, "properties": {"name": "00095-MICHELET", "lon": -1.556421138973112, "lat": 47.234687038295554, "status": "OPEN", "stands": 22, "update": "2016-02-04T18:39:04", "address": "MICHELET - BD MICHELET", "bikes": 3}}, {"type": "Feature", "geometry": {"type": "Point", "coordinates": [-1.560022819676629, 47.226394430986105]}, "properties": {"name": "00085-BEL AIR", "lon": -1.560022819676629, "lat": 47.226394430986105, "status": "OPEN", "stands": 11, "update": "2016-02-04T18:44:14", "address": "BEL AIR - 102 RUE PAUL BELLAMY", "bikes": 3}}, {"type": "Feature", "geometry": {"type": "Point", "coordinates": [-1.56605906933562, 47.23302818477594]}, "properties": {"name": "00092-DT PT RENNES", "lon": -1.56605906933562, "lat": 47.23302818477594, "status": "OPEN", "stands": 11, "update": "2016-02-04T18:38:37", "address": "RD PT RENNES - ANGLE BD LE LASSEUR & RUE PAUL BELLAMY", "bikes": 9}}, {"type": "Feature", "geometry": {"type": "Point", "coordinates": [-1.539712888264826, 47.21391161818379]}, "properties": {"name": "00059-STADE SAUPIN", "lon": -1.539712888264826, "lat": 47.21391161818379, "status": "OPEN", "stands": 7, "update": "2016-02-04T18:47:17", "address": "STADE SAUPIN - 35 QUAI MALAKOFF", "bikes": 8}}, {"type": "Feature", "geometry": {"type": "Point", "coordinates": [-1.549886024937758, 47.211736393222054]}, "properties": {"name": "00053-OLIVETTES", "lon": -1.549886024937758, "lat": 47.211736393222054, "status": "OPEN", "stands": 8, "update": "2016-02-04T18:46:37", "address": "OLIVETTES - 10 RUE DES OLIVETTES", "bikes": 7}}, {"type": "Feature", "geometry": {"type": "Point", "coordinates": [-1.570515336280715, 47.209429092524424]}, "properties": {"name": "00076-PLACE REN\u00c9 BOUHIER", "lon": -1.570515336280715, "lat": 47.209429092524424, "status": "OPEN", "stands": 14, "update": "2016-02-04T18:44:38", "address": "PLACE RENE BOUHIER - 8 PLACE RENE BOUHIER", "bikes": 1}}, {"type": "Feature", "geometry": {"type": "Point", "coordinates": [-1.557111680197571, 47.21620089258823]}, "properties": {"name": "00008-BOUCHERIE", "lon": -1.557111680197571, "lat": 47.21620089258823, "status": "OPEN", "stands": 8, "update": "2016-02-04T18:46:03", "address": "BOUCHERIE - FACE AU 4 RUE DE LA BOUCHERIE", "bikes": 10}}, {"type": "Feature", "geometry": {"type": "Point", "coordinates": [-1.570438598073934, 47.220882433018865]}, "properties": {"name": "00073-SARRADIN", "lon": -1.570438598073934, "lat": 47.220882433018865, "status": "OPEN", "stands": 1, "update": "2016-02-04T18:41:30", "address": "SARRADIN - FACE AU 4 PLACE SARRADIN", "bikes": 12}}, {"type": "Feature", "geometry": {"type": "Point", "coordinates": [-1.547058938534335, 47.21651740326776]}, "properties": {"name": "00049-DUCHESSE ANNE", "lon": -1.547058938534335, "lat": 47.21651740326776, "status": "OPEN", "stands": 12, "update": "2016-02-04T18:42:42", "address": "DUCHESSE ANNE - 2 PLACE DE LA DUCHESSE ANNE", "bikes": 3}}, {"type": "Feature", "geometry": {"type": "Point", "coordinates": [-1.555309011107301, 47.246298068423485]}, "properties": {"name": "00093-FACULTES", "lon": -1.555309011107301, "lat": 47.246298068423485, "status": "OPEN", "stands": 20, "update": "2016-02-04T18:38:13", "address": "FACULTES - ANGLE ROUTE DE LA JONELIERE & BD G. MOLLET", "bikes": 20}}, {"type": "Feature", "geometry": {"type": "Point", "coordinates": [-1.551849784370311, 47.217505374678645]}, "properties": {"name": "00048-VERDUN", "lon": -1.551849784370311, "lat": 47.217505374678645, "status": "OPEN", "stands": 8, "update": "2016-02-04T18:42:33", "address": "VERDUN - 15 RUE DE VERDUN", "bikes": 6}}, {"type": "Feature", "geometry": {"type": "Point", "coordinates": [-1.55408380740881, 47.220255183724454]}, "properties": {"name": "00001-PREFECTURE", "lon": -1.55408380740881, "lat": 47.220255183724454, "status": "OPEN", "stands": 19, "update": "2016-02-04T18:42:21", "address": "PREFECTURE - 5 QUAI CEINERAY", "bikes": 6}}, {"type": "Feature", "geometry": {"type": "Point", "coordinates": [-1.542404741250403, 47.227145468224634]}, "properties": {"name": "00023-BUAT", "lon": -1.542404741250403, "lat": 47.227145468224634, "status": "OPEN", "stands": 2, "update": "2016-02-04T18:45:19", "address": "BUAT - 118 RUE DE COULMIERS", "bikes": 9}}, {"type": "Feature", "geometry": {"type": "Point", "coordinates": [-1.576612843727262, 47.22419506173264]}, "properties": {"name": "00090-PROCE", "lon": -1.576612843727262, "lat": 47.22419506173264, "status": "OPEN", "stands": 14, "update": "2016-02-04T18:44:54", "address": "PROCE - ANGLE BD G. SERPETTE & BD A. PAGEOT", "bikes": 1}}, {"type": "Feature", "geometry": {"type": "Point", "coordinates": [-1.5502297, 47.2191122]}, "properties": {"name": "00032-FOCH", "lon": -1.5502297, "lat": 47.2191122, "status": "OPEN", "stands": 13, "update": "2016-02-04T18:38:17", "address": "FOCH - PLACE FOCH", "bikes": 2}}, {"type": "Feature", "geometry": {"type": "Point", "coordinates": [-1.561570147641708, 47.21921395261352]}, "properties": {"name": "00017-SAINTE ELISABETH", "lon": -1.561570147641708, "lat": 47.21921395261352, "status": "OPEN", "stands": 5, "update": "2016-02-04T18:38:26", "address": "SAINTE ELISABTEH - 3 PLACE STE ELISABETH", "bikes": 9}}, {"type": "Feature", "geometry": {"type": "Point", "coordinates": [-1.555269922656021, 47.213450231365094]}, "properties": {"name": "00029-DUGUAY TROUIN", "lon": -1.555269922656021, "lat": 47.213450231365094, "status": "OPEN", "stands": 3, "update": "2016-02-04T18:41:11", "address": "DUGUAY TROUIN - 7 ALLEE DUGUAY TROUIN", "bikes": 12}}, {"type": "Feature", "geometry": {"type": "Point", "coordinates": [-1.550226242563373, 47.21514969516256]}, "properties": {"name": "00050-CHATEAU", "lon": -1.550226242563373, "lat": 47.21514969516256, "status": "OPEN", "stands": 10, "update": "2016-02-04T18:40:00", "address": "CHATEAU - 2 RUE DES ETATS", "bikes": 5}}, {"type": "Feature", "geometry": {"type": "Point", "coordinates": [-1.5568245371939, 47.211465063355035]}, "properties": {"name": "00037-FEYDEAU", "lon": -1.5568245371939, "lat": 47.211465063355035, "status": "OPEN", "stands": 17, "update": "2016-02-04T18:42:45", "address": "FEYDEAU - 1 ALLEE ILE GLORIETTE", "bikes": 4}}, {"type": "Feature", "geometry": {"type": "Point", "coordinates": [-1.567501842502272, 47.22547062698044]}, "properties": {"name": "00086-HAUTS PAV\u00c9S", "lon": -1.567501842502272, "lat": 47.22547062698044, "status": "OPEN", "stands": 8, "update": "2016-02-04T18:43:38", "address": "HAUT PAVES - ANGLE RUE DE BERRY/RUE DES HAUTS PAVES", "bikes": 8}}, {"type": "Feature", "geometry": {"type": "Point", "coordinates": [-1.555233144631466, 47.209406573873714]}, "properties": {"name": "00039-QUAI MONCOUSU", "lon": -1.555233144631466, "lat": 47.209406573873714, "status": "OPEN", "stands": 19, "update": "2016-02-04T18:46:42", "address": "QUAI MONCOUSU - 11 QUAI MONCOUSU", "bikes": 0}}, {"type": "Feature", "geometry": {"type": "Point", "coordinates": [-1.565543986075099, 47.212168974412094]}, "properties": {"name": "00035-JEAN V", "lon": -1.565543986075099, "lat": 47.212168974412094, "status": "OPEN", "stands": 13, "update": "2016-02-04T18:40:36", "address": "JEAN V - 2 PLACE JEAN V", "bikes": 2}}, {"type": "Feature", "geometry": {"type": "Point", "coordinates": [-1.529959592703474, 47.223508869811994]}, "properties": {"name": "00025-DALBY", "lon": -1.529959592703474, "lat": 47.223508869811994, "status": "OPEN", "stands": 3, "update": "2016-02-04T18:43:57", "address": "DALBY- 61 BD ERNEST DALBY FACE STATION SERVICE", "bikes": 12}}, {"type": "Feature", "geometry": {"type": "Point", "coordinates": [-1.561173077989395, 47.20831728844152]}, "properties": {"name": "00044-PALAIS DE JUSTICE", "lon": -1.561173077989395, "lat": 47.20831728844152, "status": "OPEN", "stands": 22, "update": "2016-02-04T18:45:34", "address": "PALAIS DE JUSTICE - 19 QUAI FRANCOIS MITTERAND", "bikes": 3}}, {"type": "Feature", "geometry": {"type": "Point", "coordinates": [-1.536540663464699, 47.1958989090141]}, "properties": {"name": "00099-ST JACQUES", "lon": -1.536540663464699, "lat": 47.1958989090141, "status": "OPEN", "stands": 10, "update": "2016-02-04T18:44:05", "address": "ST JACQUES - RUE ST JACQUES", "bikes": 4}}, {"type": "Feature", "geometry": {"type": "Point", "coordinates": [-1.551548484803203, 47.204003208491145]}, "properties": {"name": "00080 - VICTOR HUGO", "lon": -1.551548484803203, "lat": 47.204003208491145, "status": "OPEN", "stands": 13, "update": "2016-02-04T18:40:57", "address": "VICTOR HUGO - BD VICTOR HUGO", "bikes": 2}}, {"type": "Feature", "geometry": {"type": "Point", "coordinates": [-1.545905939112105, 47.215591463959825]}, "properties": {"name": "00061-LU - LIEU UNIQUE", "lon": -1.545905939112105, "lat": 47.215591463959825, "status": "OPEN", "stands": 5, "update": "2016-02-04T18:46:50", "address": "LIEU UNIQUE - FACE 23 QUAI FERDINAND FAVRE", "bikes": 10}}, {"type": "Feature", "geometry": {"type": "Point", "coordinates": [-1.556476339327795, 47.22114332912908]}, "properties": {"name": "00021-MARCHE TALENSAC SUD", "lon": -1.556476339327795, "lat": 47.22114332912908, "status": "OPEN", "stands": 9, "update": "2016-02-04T18:44:46", "address": "MARCHE TALENSAC SUD - 6 RUE TALENSAC", "bikes": 7}}, {"type": "Feature", "geometry": {"type": "Point", "coordinates": [-1.558940746690739, 47.22185363818837]}, "properties": {"name": "00071-MARCHE TALENSAC NORD", "lon": -1.558940746690739, "lat": 47.22185363818837, "status": "OPEN", "stands": 9, "update": "2016-02-04T18:47:00", "address": "MARCHE TALENSAC NORD - 18 RUE TALENSAC", "bikes": 5}}, {"type": "Feature", "geometry": {"type": "Point", "coordinates": [-1.569524048742154, 47.208357479819504]}, "properties": {"name": "00041-CHANTIER NAVAL", "lon": -1.569524048742154, "lat": 47.208357479819504, "status": "OPEN", "stands": 13, "update": "2016-02-04T18:43:09", "address": "CHANTIER NAVAL - 87 QUAI DE LA FOSSE", "bikes": 2}}, {"type": "Feature", "geometry": {"type": "Point", "coordinates": [-1.563900673465861, 47.21515818868574]}, "properties": {"name": "00012-PLACE DELORME", "lon": -1.563900673465861, "lat": 47.21515818868574, "status": "OPEN", "stands": 18, "update": "2016-02-04T18:46:18", "address": "PLACE DELORME", "bikes": 2}}, {"type": "Feature", "geometry": {"type": "Point", "coordinates": [-1.550828036456355, 47.18921204751304]}, "properties": {"name": "00098-HUIT MAI", "lon": -1.550828036456355, "lat": 47.18921204751304, "status": "OPEN", "stands": 5, "update": "2016-02-04T18:41:41", "address": "HUIT MAI - AVENUE DE LA LIBERATION - REZE", "bikes": 10}}, {"type": "Feature", "geometry": {"type": "Point", "coordinates": [-1.567004526265165, 47.21682795997449]}, "properties": {"name": "00026-GUIST'HAU SUD", "lon": -1.567004526265165, "lat": 47.21682795997449, "status": "OPEN", "stands": 9, "update": "2016-02-04T18:44:15", "address": "GUIST'HAU SUD - 26 BOULEVARD GUIST'HAU", "bikes": 6}}, {"type": "Feature", "geometry": {"type": "Point", "coordinates": [-1.548750555741977, 47.214327524589145]}, "properties": {"name": "00052-BACO", "lon": -1.548750555741977, "lat": 47.214327524589145, "status": "OPEN", "stands": 4, "update": "2016-02-04T18:45:58", "address": "BACO - FACE AU 8 ALLEE BACO", "bikes": 11}}, {"type": "Feature", "geometry": {"type": "Point", "coordinates": [-1.560675283700123, 47.215578942427136]}, "properties": {"name": "00011-CALVAIRE", "lon": -1.560675283700123, "lat": 47.215578942427136, "status": "OPEN", "stands": 1, "update": "2016-02-04T18:43:56", "address": "CALVAIRE - PL.DES VOLONTAIRES DE LA DEFENSE PASSIVE", "bikes": 14}}, {"type": "Feature", "geometry": {"type": "Point", "coordinates": [-1.544718964531585, 47.219834197318974]}, "properties": {"name": "00063-JARDIN DES PLANTES", "lon": -1.544718964531585, "lat": 47.219834197318974, "status": "OPEN", "stands": 3, "update": "2016-02-04T18:45:18", "address": "JARDIN DES PLANTES - 6 RUE STANILAS BAUDRY", "bikes": 12}}, {"type": "Feature", "geometry": {"type": "Point", "coordinates": [-1.563419484053747, 47.21902754473837]}, "properties": {"name": "00016-PLACE EDOUARD NORMAND", "lon": -1.563419484053747, "lat": 47.21902754473837, "status": "OPEN", "stands": 5, "update": "2016-02-04T18:43:26", "address": "PLACE EDOUARD NORMAND - FACE AU 7 PLACE EDOUARD NORMAND", "bikes": 10}}, {"type": "Feature", "geometry": {"type": "Point", "coordinates": [-1.577175414321782, 47.211501070117826]}, "properties": {"name": "00088-MELLINET", "lon": -1.577175414321782, "lat": 47.211501070117826, "status": "OPEN", "stands": 7, "update": "2016-02-04T18:46:46", "address": "MELLINET - 1 BD ALLARD", "bikes": 8}}, {"type": "Feature", "geometry": {"type": "Point", "coordinates": [-1.542844, 47.215505]}, "properties": {"name": "00070-GARE SUD 2", "lon": -1.542844, "lat": 47.215505, "status": "OPEN", "stands": 0, "update": "2016-02-04T18:38:14", "address": "Quai Malakoff - c\u00f4t\u00e9 canal st F\u00e9lix", "bikes": 30}}, {"type": "Feature", "geometry": {"type": "Point", "coordinates": [-1.5543847138777, 47.216667582015184]}, "properties": {"name": "00004-MOULIN", "lon": -1.5543847138777, "lat": 47.216667582015184, "status": "OPEN", "stands": 11, "update": "2016-02-04T18:39:34", "address": "MOULIN - FACE AU 18 RUE DU MOULIN", "bikes": 2}}, {"type": "Feature", "geometry": {"type": "Point", "coordinates": [-1.549221766809888, 47.235335222208626]}, "properties": {"name": "00096-TORTIERE", "lon": -1.549221766809888, "lat": 47.235335222208626, "status": "OPEN", "stands": 14, "update": "2016-02-04T18:47:04", "address": "TORTIERE - BD EUGENE ORIEUX", "bikes": 1}}, {"type": "Feature", "geometry": {"type": "Point", "coordinates": [-1.547099233718495, 47.221785183522634]}, "properties": {"name": "00064-SAINT CLEMENT", "lon": -1.547099233718495, "lat": 47.221785183522634, "status": "OPEN", "stands": 8, "update": "2016-02-04T18:44:28", "address": "SAINT CLEMENT - FACE AU 37 RUE DU MARECHAL JOFFRE", "bikes": 7}}, {"type": "Feature", "geometry": {"type": "Point", "coordinates": [-1.559017485167438, 47.215814587139455]}, "properties": {"name": "00009-GUEPIN", "lon": -1.559017485167438, "lat": 47.215814587139455, "status": "OPEN", "stands": 8, "update": "2016-02-04T18:42:03", "address": "GUEPIN - 8 RUE DE L'ARCHE SECHE", "bikes": 6}}, {"type": "Feature", "geometry": {"type": "Point", "coordinates": [-1.563140874431397, 47.213522613719896]}, "properties": {"name": "00033-RACINE", "lon": -1.563140874431397, "lat": 47.213522613719896, "status": "OPEN", "stands": 12, "update": "2016-02-04T18:43:30", "address": "RACINE - 4 RUE RACINE", "bikes": 3}}, {"type": "Feature", "geometry": {"type": "Point", "coordinates": [-1.542847782057658, 47.215919436013635]}, "properties": {"name": "00060-GARE SUD", "lon": -1.542847782057658, "lat": 47.215919436013635, "status": "OPEN", "stands": 6, "update": "2016-02-04T18:45:34", "address": "GARE SUD - FACE 12 RUE LOURMEL", "bikes": 34}}, {"type": "Feature", "geometry": {"type": "Point", "coordinates": [-1.553711961402328, 47.22451490719107]}, "properties": {"name": "00024-VERSAILLES", "lon": -1.553711961402328, "lat": 47.22451490719107, "status": "OPEN", "stands": 1, "update": "2016-02-04T18:44:48", "address": "VERSAILLES - FACE AU 25 QUAI DE VERSAILLES", "bikes": 14}}, {"type": "Feature", "geometry": {"type": "Point", "coordinates": [-1.566655339669288, 47.210693859551135]}, "properties": {"name": "00036-ALGER", "lon": -1.566655339669288, "lat": 47.210693859551135, "status": "OPEN", "stands": 9, "update": "2016-02-04T18:45:49", "address": "ALGER - 5 RUE D'ALGER", "bikes": 6}}, {"type": "Feature", "geometry": {"type": "Point", "coordinates": [-1.533118244923623, 47.206757512308414]}, "properties": {"name": "00082-SEBILLEAU", "lon": -1.533118244923623, "lat": 47.206757512308414, "status": "OPEN", "stands": 13, "update": "2016-02-04T18:44:43", "address": "SEBILLEAU - 9 RUE GAETAN RONDEAU", "bikes": 3}}, {"type": "Feature", "geometry": {"type": "Point", "coordinates": [-1.556749263076553, 47.218837230469425]}, "properties": {"name": "00005-BROSSARD", "lon": -1.556749263076553, "lat": 47.218837230469425, "status": "OPEN", "stands": 12, "update": "2016-02-04T18:38:29", "address": "BROSSARD - 25 RUE ARMAND BROSSARD", "bikes": 3}}, {"type": "Feature", "geometry": {"type": "Point", "coordinates": [-1.54156809120326, 47.1965313642396]}, "properties": {"name": "00101 - PIRMIL", "lon": -1.54156809120326, "lat": 47.1965313642396, "status": "OPEN", "stands": 11, "update": "2016-02-04T18:42:36", "address": "PIRMIL - RUE ESNOUL DES CHATELETS", "bikes": 17}}, {"type": "Feature", "geometry": {"type": "Point", "coordinates": [-1.534717540470481, 47.199923092905216]}, "properties": {"name": "00100 - GRENERAIE", "lon": -1.534717540470481, "lat": 47.199923092905216, "status": "OPEN", "stands": 0, "update": "2016-02-04T18:45:17", "address": "GRENERAIE - PARC DE LA GRENERAIE", "bikes": 20}}, {"type": "Feature", "geometry": {"type": "Point", "coordinates": [-1.544952541668585, 47.213180085527846]}, "properties": {"name": "00054- CITE INTERNATIONALE DES CONGRES", "lon": -1.544952541668585, "lat": 47.213180085527846, "status": "OPEN", "stands": 12, "update": "2016-02-04T18:46:11", "address": "CITE INTERNATIONAL DES CONGRES - 2 RUE DE JEMMAPES", "bikes": 18}}, {"type": "Feature", "geometry": {"type": "Point", "coordinates": [-1.567568016663838, 47.21446342738575]}, "properties": {"name": "00028- PLACE DE L'EDIT NANTES", "lon": -1.567568016663838, "lat": 47.21446342738575, "status": "OPEN", "stands": 9, "update": "2016-02-04T18:39:32", "address": "PLACE DE L'EDIT DE NANTES", "bikes": 4}}, {"type": "Feature", "geometry": {"type": "Point", "coordinates": [-1.545212434215091, 47.22406787948748]}, "properties": {"name": "00068-LIVET", "lon": -1.545212434215091, "lat": 47.22406787948748, "status": "OPEN", "stands": 6, "update": "2016-02-04T18:47:13", "address": "LIVET - FACE AU 65 RUE DU FOUR", "bikes": 9}}, {"type": "Feature", "geometry": {"type": "Point", "coordinates": [-1.551666442545979, 47.222587339906696]}, "properties": {"name": "00065-COURS SULLY", "lon": -1.551666442545979, "lat": 47.222587339906696, "status": "OPEN", "stands": 12, "update": "2016-02-04T18:43:38", "address": "COURS SULLY - FACE AU 9 COURS SULLY", "bikes": 3}}, {"type": "Feature", "geometry": {"type": "Point", "coordinates": [-1.559161066618992, 47.216787949913034]}, "properties": {"name": "00013-BRETAGNE SUD", "lon": -1.559161066618992, "lat": 47.216787949913034, "status": "OPEN", "stands": 14, "update": "2016-02-04T18:47:16", "address": "BRETAGNE SUD - 1 RUE PIERRE CHEREAU", "bikes": 6}}, {"type": "Feature", "geometry": {"type": "Point", "coordinates": [-1.556937645378872, 47.21759668240601]}, "properties": {"name": "00006-PLACE DU CIRQUE", "lon": -1.556937645378872, "lat": 47.21759668240601, "status": "OPEN", "stands": 12, "update": "2016-02-04T18:46:44", "address": "PLACE DU CIRQUE - 7 ALLEE DUQUESNE", "bikes": 3}}]}