{"features": [{"properties": {"stands": 10, "address": "PLACE RICORDEAU", "bikes": 30, "lon": -1.553049129320471, "status": "OPEN", "update": "2015-12-21T11:44:36", "name": "00038-PLACE RICORDEAU", "lat": 47.212108463141774}, "type": "Feature", "geometry": {"type": "Point", "coordinates": [-1.553049129320471, 47.212108463141774]}}, {"properties": {"stands": 4, "address": "CHANZY - FACE AU 23 AVENUE DE CHANZY", "bikes": 11, "lon": -1.547999925907375, "status": "OPEN", "update": "2015-12-21T11:37:26", "name": "00066-CHANZY", "lat": 47.22542988533347}, "type": "Feature", "geometry": {"type": "Point", "coordinates": [-1.547999925907375, 47.22542988533347]}}, {"properties": {"stands": 15, "address": "STRASBOURG - PLACE TIRANT LO BLANC", "bikes": 0, "lon": -1.55154060534636, "status": "OPEN", "update": "2015-12-21T11:43:34", "name": "00003-STRASBOURG", "lat": 47.216479771820744}, "type": "Feature", "geometry": {"type": "Point", "coordinates": [-1.55154060534636, 47.216479771820744]}}, {"properties": {"stands": 2, "address": "H\u00d4TEL DE VILLE - FACE AU 29 RUE DE STRASBOURG", "bikes": 18, "lon": -1.553484290392954, "status": "OPEN", "update": "2015-12-21T11:36:06", "name": "00002-H\u00d4TEL DE VILLE", "lat": 47.21857181309145}, "type": "Feature", "geometry": {"type": "Point", "coordinates": [-1.553484290392954, 47.21857181309145]}}, {"properties": {"stands": 18, "address": "MACHINE DE L'\u00ceLE - 3 BD LEON BUREAU", "bikes": 12, "lon": -1.564806790782994, "status": "OPEN", "update": "2015-12-21T11:40:43", "name": "00043 - MACHINE DE L'\u00ceLE", "lat": 47.20691895869599}, "type": "Feature", "geometry": {"type": "Point", "coordinates": [-1.564806790782994, 47.20691895869599]}}, {"properties": {"stands": 5, "address": "REGION - RUE DE LA LOIRE", "bikes": 14, "lon": -1.525933451925082, "status": "OPEN", "update": "2015-12-21T11:40:43", "name": "00084-R\u00c9GION", "lat": 47.21074214218137}, "type": "Feature", "geometry": {"type": "Point", "coordinates": [-1.525933451925082, 47.21074214218137]}}, {"properties": {"stands": 5, "address": "MADELEINE - 2 QUAI MONCOUSU", "bikes": 9, "lon": -1.550411914119152, "status": "OPEN", "update": "2015-12-21T11:45:07", "name": "00040-MADELEINE", "lat": 47.208804642437784}, "type": "Feature", "geometry": {"type": "Point", "coordinates": [-1.550411914119152, 47.208804642437784]}}, {"properties": {"stands": 13, "address": "MOQUECHIEN - 8 RUE MOQUECHIEN", "bikes": 3, "lon": -1.555531041936261, "status": "OPEN", "update": "2015-12-21T11:44:14", "name": "00022-MOQUECHIEN", "lat": 47.220392126691955}, "type": "Feature", "geometry": {"type": "Point", "coordinates": [-1.555531041936261, 47.220392126691955]}}, {"properties": {"stands": 10, "address": "GARE MARITIME - PLACE JACKSONVILLE", "bikes": 15, "lon": -1.572610286970505, "status": "OPEN", "update": "2015-12-21T11:44:59", "name": "00042-GARE MARITIME", "lat": 47.20659772898787}, "type": "Feature", "geometry": {"type": "Point", "coordinates": [-1.572610286970505, 47.20659772898787]}}, {"properties": {"stands": 9, "address": "GARE PONT ROUSSEAU - RUE DE LA GARE - REZE", "bikes": 10, "lon": -1.549291898557657, "status": "OPEN", "update": "2015-12-21T11:40:02", "name": "00102-GARE PT ROUSSEAU", "lat": 47.19280351379784}, "type": "Feature", "geometry": {"type": "Point", "coordinates": [-1.549291898557657, 47.19280351379784]}}, {"properties": {"stands": 11, "address": "VINCENT GACHE - 9 RUE FRANCOIS ALBERT", "bikes": 4, "lon": -1.541777739850638, "status": "OPEN", "update": "2015-12-21T11:38:16", "name": "00056-VINCENT GACHE", "lat": 47.206798618575256}, "type": "Feature", "geometry": {"type": "Point", "coordinates": [-1.541777739850638, 47.206798618575256]}}, {"properties": {"stands": 4, "address": "BARILLERIE - 2 ALLEE PENTHIEVRE", "bikes": 11, "lon": -1.556126125975167, "status": "OPEN", "update": "2015-12-21T11:37:08", "name": "00007- BARILLERIE", "lat": 47.215331358010445}, "type": "Feature", "geometry": {"type": "Point", "coordinates": [-1.556126125975167, 47.215331358010445]}}, {"properties": {"stands": 7, "address": "PRAIRIE AU DUC - 40 BOULEVARD DE LA PRAIRIE AU DUC", "bikes": 6, "lon": -1.55892310936669, "status": "OPEN", "update": "2015-12-21T11:43:53", "name": "00045-PRAIRIE AU DUC", "lat": 47.204783935599195}, "type": "Feature", "geometry": {"type": "Point", "coordinates": [-1.55892310936669, 47.204783935599195]}}, {"properties": {"stands": 18, "address": "ILE DE NANTES PARC DES CHANTIERS A COTE DU CARROUSEL  (Station mobile)", "bikes": 1, "lon": -1.568490581479757, "status": "OPEN", "update": "2015-12-21T11:44:23", "name": "00103 - STATION MOBILE", "lat": 47.206384991216765}, "type": "Feature", "geometry": {"type": "Point", "coordinates": [-1.568490581479757, 47.206384991216765]}}, {"properties": {"stands": 1, "address": "PICASSO - RUE PABLO PICASSO", "bikes": 26, "lon": -1.534184544523239, "status": "OPEN", "update": "2015-12-21T11:38:37", "name": "00010- PICASSO", "lat": 47.216369613307506}, "type": "Feature", "geometry": {"type": "Point", "coordinates": [-1.534184544523239, 47.216369613307506]}}, {"properties": {"stands": 36, "address": "GARE NORD - 1 PLACE CHARLES LE ROUX", "bikes": 4, "lon": -1.542208634875899, "status": "OPEN", "update": "2015-12-21T11:42:16", "name": "00062-GARE NORD", "lat": 47.218132613316826}, "type": "Feature", "geometry": {"type": "Point", "coordinates": [-1.542208634875899, 47.218132613316826]}}, {"properties": {"stands": 4, "address": "PALAIS DES SPORTS - 21 RUE RENE VIVIANI", "bikes": 11, "lon": -1.535981000861306, "status": "OPEN", "update": "2015-12-21T11:39:48", "name": "00058-PALAIS DES SPORTS", "lat": 47.208466072191925}, "type": "Feature", "geometry": {"type": "Point", "coordinates": [-1.535981000861306, 47.208466072191925]}}, {"properties": {"stands": 7, "address": "PETIT PORT - BD DU PETIT PORT", "bikes": 13, "lon": -1.556344610167984, "status": "OPEN", "update": "2015-12-21T11:38:34", "name": "00094-PETIT PORT", "lat": 47.243263914975486}, "type": "Feature", "geometry": {"type": "Point", "coordinates": [-1.556344610167984, 47.243263914975486]}}, {"properties": {"stands": 13, "address": "BOURSE - SQUARE DE LA BOURSE", "bikes": 2, "lon": -1.559086551239872, "status": "OPEN", "update": "2015-12-21T11:45:16", "name": "00031-BOURSE", "lat": 47.212083030753185}, "type": "Feature", "geometry": {"type": "Point", "coordinates": [-1.559086551239872, 47.212083030753185]}}, {"properties": {"stands": 15, "address": "CANCLAUX - 8 PLACE CANCLAUX", "bikes": 0, "lon": -1.574924617192968, "status": "OPEN", "update": "2015-12-21T11:41:25", "name": "00074-CANCLAUX", "lat": 47.21433366088933}, "type": "Feature", "geometry": {"type": "Point", "coordinates": [-1.574924617192968, 47.21433366088933]}}, {"properties": {"stands": 5, "address": "Bellamy-Gu\u00e9 Moreau-138 rue Paul Bellamy", "bikes": 10, "lon": -1.561806393011127, "status": "OPEN", "update": "2015-12-21T11:43:49", "name": "00072-BELLAMY-GU\u00c9 MOREAU", "lat": 47.22862569057461}, "type": "Feature", "geometry": {"type": "Point", "coordinates": [-1.561806393011127, 47.22862569057461]}}, {"properties": {"stands": 8, "address": "SAINT SIMILIEN - 1 PLACE SAINT SIMILIEN", "bikes": 7, "lon": -1.558920890474776, "status": "OPEN", "update": "2015-12-21T11:44:19", "name": "00019-SAINT SIMILIEN", "lat": 47.219854467329974}, "type": "Feature", "geometry": {"type": "Point", "coordinates": [-1.558920890474776, 47.219854467329974]}}, {"properties": {"stands": 5, "address": "AVENUE DE BERLIN DEVANT MAISON DE QUARTIER", "bikes": 14, "lon": -1.529735885980363, "status": "OPEN", "update": "2015-12-21T11:39:08", "name": "00051-TABARLY", "lat": 47.21419463149648}, "type": "Feature", "geometry": {"type": "Point", "coordinates": [-1.529735885980363, 47.21419463149648]}}, {"properties": {"stands": 14, "address": "SAINT AIGNAN - 65 BD ST AIGNAN", "bikes": 0, "lon": -1.578689264310988, "status": "OPEN", "update": "2015-12-21T11:39:13", "name": "00089-SAINT-AIGNAN", "lat": 47.20743863754715}, "type": "Feature", "geometry": {"type": "Point", "coordinates": [-1.578689264310988, 47.20743863754715]}}, {"properties": {"stands": 11, "address": "ECOLE D'ARCHITECTURE - QUAI F MITTERRAND", "bikes": 13, "lon": -1.557532467914316, "status": "OPEN", "update": "2015-12-21T11:36:40", "name": "00077-ECOLE D'ARCHITECTURE", "lat": 47.207605640212115}, "type": "Feature", "geometry": {"type": "Point", "coordinates": [-1.557532467914316, 47.207605640212115]}}, {"properties": {"stands": 9, "address": "ANATOLE FRANCE - 41 RUE ALEXANDRE DUMAS", "bikes": 6, "lon": -1.571373578112414, "status": "OPEN", "update": "2015-12-21T11:45:20", "name": "00087-ANATOLE FRANCE", "lat": 47.223604815399085}, "type": "Feature", "geometry": {"type": "Point", "coordinates": [-1.571373578112414, 47.223604815399085]}}, {"properties": {"stands": 10, "address": "MARTYRS NANTAIS - 1 BD DES MARTYRS NANTAIS", "bikes": 5, "lon": -1.548161311046709, "status": "OPEN", "update": "2015-12-21T11:42:40", "name": "00047- MARTYRS NANTAIS", "lat": 47.20702417983412}, "type": "Feature", "geometry": {"type": "Point", "coordinates": [-1.548161311046709, 47.20702417983412]}}, {"properties": {"stands": 17, "address": "SAINT DONATIEN - PLACE DU 51\u00e9me RIMA", "bikes": 3, "lon": -1.540292594289221, "status": "OPEN", "update": "2015-12-21T11:37:02", "name": "00097-SAINT DONATIEN", "lat": 47.22908808709286}, "type": "Feature", "geometry": {"type": "Point", "coordinates": [-1.540292594289221, 47.22908808709286]}}, {"properties": {"stands": 27, "address": "COMMERCE - FACE PLACE DU COMMERCE", "bikes": 12, "lon": -1.557393235628245, "status": "OPEN", "update": "2015-12-21T11:44:15", "name": "00030-COMMERCE", "lat": 47.21312055103121}, "type": "Feature", "geometry": {"type": "Point", "coordinates": [-1.557393235628245, 47.21312055103121]}}, {"properties": {"stands": 11, "address": "GUIST'HAU NORD - 42 BD GUIST'HAU", "bikes": 4, "lon": -1.569171883302444, "status": "OPEN", "update": "2015-12-21T11:40:31", "name": "00027-GUIST'HAU NORD", "lat": 47.21792981632508}, "type": "Feature", "geometry": {"type": "Point", "coordinates": [-1.569171883302444, 47.21792981632508]}}, {"properties": {"stands": 11, "address": "PLACE ARISTIDE BRIAND", "bikes": 6, "lon": -1.562986793288367, "status": "OPEN", "update": "2015-12-21T11:40:24", "name": "00015-PLACE ARISTIDE BRIAND", "lat": 47.21718482329023}, "type": "Feature", "geometry": {"type": "Point", "coordinates": [-1.562986793288367, 47.21718482329023]}}, {"properties": {"stands": 12, "address": "MILLERAND - 9 BD ALEXANDRE MILLERAND", "bikes": 2, "lon": -1.530180435959972, "status": "OPEN", "update": "2015-12-21T11:42:24", "name": "00083-MILLERAND", "lat": 47.208199645038825}, "type": "Feature", "geometry": {"type": "Point", "coordinates": [-1.530180435959972, 47.208199645038825]}}, {"properties": {"stands": 9, "address": "MEDIATHEQUE - 24 QUAI DE LA FOSSE", "bikes": 11, "lon": -1.561744905652581, "status": "OPEN", "update": "2015-12-21T11:41:53", "name": "00034-MEDIATHEQUE", "lat": 47.210886925815934}, "type": "Feature", "geometry": {"type": "Point", "coordinates": [-1.561744905652581, 47.210886925815934]}}, {"properties": {"stands": 9, "address": "RD PT VANNES - 65 BD LE LASSEUR", "bikes": 7, "lon": -1.572114577993728, "status": "OPEN", "update": "2015-12-21T11:40:49", "name": "00091-RD PT VANNES", "lat": 47.229580605369215}, "type": "Feature", "geometry": {"type": "Point", "coordinates": [-1.572114577993728, 47.229580605369215]}}, {"properties": {"stands": 11, "address": "PLACE DE LA REPUBLIQUE - 3 PLACE DE LA REPUBLIQUE", "bikes": 9, "lon": -1.555183107916184, "status": "OPEN", "update": "2015-12-21T11:44:52", "name": "00046-PLACE REPUBLIQUE", "lat": 47.20532409029517}, "type": "Feature", "geometry": {"type": "Point", "coordinates": [-1.555183107916184, 47.20532409029517]}}, {"properties": {"stands": 14, "address": "BELLAMY - 50 RUE PAUL BELLAMY", "bikes": 1, "lon": -1.557229797031573, "status": "OPEN", "update": "2015-12-21T11:41:15", "name": "00020-BELLAMY", "lat": 47.222902006053054}, "type": "Feature", "geometry": {"type": "Point", "coordinates": [-1.557229797031573, 47.222902006053054]}}, {"properties": {"stands": 13, "address": "MANGIN - DEV 8 PLACE MANGIN", "bikes": 1, "lon": -1.545507251231619, "status": "OPEN", "update": "2015-12-21T11:41:39", "name": "00081 - MANGIN", "lat": 47.20095551723967}, "type": "Feature", "geometry": {"type": "Point", "coordinates": [-1.545507251231619, 47.20095551723967]}}, {"properties": {"stands": 9, "address": "MAGELLAN - 11 RUE DE BELFORT", "bikes": 6, "lon": -1.544298470945214, "status": "OPEN", "update": "2015-12-21T11:43:28", "name": "00055-MAGELLAN", "lat": 47.21078140655944}, "type": "Feature", "geometry": {"type": "Point", "coordinates": [-1.544298470945214, 47.21078140655944]}}, {"properties": {"stands": 6, "address": "DE GAULLE - PONT A. BRIAND / BD DE GAULLE", "bikes": 8, "lon": -1.540514488290191, "status": "OPEN", "update": "2015-12-21T11:44:54", "name": "00078-DE GAULLE", "lat": 47.20844367718286}, "type": "Feature", "geometry": {"type": "Point", "coordinates": [-1.540514488290191, 47.20844367718286]}}, {"properties": {"stands": 13, "address": "PLACE WALDECK ROUSSEAU", "bikes": 6, "lon": -1.552147986072217, "status": "OPEN", "update": "2015-12-21T11:39:08", "name": "00067-PLACE WALDECK ROUSSEAU", "lat": 47.22777476106513}, "type": "Feature", "geometry": {"type": "Point", "coordinates": [-1.552147986072217, 47.22777476106513]}}, {"properties": {"stands": 9, "address": "GAETAN RONDEAU - 20 RUE GAETAN RONDEAU", "bikes": 11, "lon": -1.537581863003988, "status": "OPEN", "update": "2015-12-21T11:39:56", "name": "00057-GAETAN RONDEAU", "lat": 47.205396132179104}, "type": "Feature", "geometry": {"type": "Point", "coordinates": [-1.537581863003988, 47.205396132179104]}}, {"properties": {"stands": 8, "address": "MALAKOFF - 15 QUAI MALAKOFF", "bikes": 7, "lon": -1.536511118183477, "status": "OPEN", "update": "2015-12-21T11:44:02", "name": "00079-MALAKOFF", "lat": 47.213237140630014}, "type": "Feature", "geometry": {"type": "Point", "coordinates": [-1.536511118183477, 47.213237140630014]}}, {"properties": {"stands": 8, "address": "LAMORICIERE - PLACE BEAUMANOIR", "bikes": 10, "lon": -1.571369360221906, "status": "OPEN", "update": "2015-12-21T11:36:53", "name": "00075-LAMORICIERE", "lat": 47.21230895884701}, "type": "Feature", "geometry": {"type": "Point", "coordinates": [-1.571369360221906, 47.21230895884701]}}, {"properties": {"stands": 9, "address": "PLACE VIARME - 23 PLACE VIARME", "bikes": 5, "lon": -1.563308366869757, "status": "OPEN", "update": "2015-12-21T11:37:34", "name": "00018-PLACE VIARME", "lat": 47.22142933898549}, "type": "Feature", "geometry": {"type": "Point", "coordinates": [-1.563308366869757, 47.22142933898549]}}, {"properties": {"stands": 11, "address": "MICHELET - BD MICHELET", "bikes": 14, "lon": -1.556421138973112, "status": "OPEN", "update": "2015-12-21T11:40:54", "name": "00095-MICHELET", "lat": 47.234687038295554}, "type": "Feature", "geometry": {"type": "Point", "coordinates": [-1.556421138973112, 47.234687038295554]}}, {"properties": {"stands": 10, "address": "BEL AIR - 102 RUE PAUL BELLAMY", "bikes": 4, "lon": -1.560022819676629, "status": "OPEN", "update": "2015-12-21T11:38:58", "name": "00085-BEL AIR", "lat": 47.226394430986105}, "type": "Feature", "geometry": {"type": "Point", "coordinates": [-1.560022819676629, 47.226394430986105]}}, {"properties": {"stands": 9, "address": "RD PT RENNES - ANGLE BD LE LASSEUR & RUE PAUL BELLAMY", "bikes": 11, "lon": -1.56605906933562, "status": "OPEN", "update": "2015-12-21T11:39:33", "name": "00092-DT PT RENNES", "lat": 47.23302818477594}, "type": "Feature", "geometry": {"type": "Point", "coordinates": [-1.56605906933562, 47.23302818477594]}}, {"properties": {"stands": 9, "address": "STADE SAUPIN - 35 QUAI MALAKOFF", "bikes": 6, "lon": -1.539712888264826, "status": "OPEN", "update": "2015-12-21T11:35:17", "name": "00059-STADE SAUPIN", "lat": 47.21391161818379}, "type": "Feature", "geometry": {"type": "Point", "coordinates": [-1.539712888264826, 47.21391161818379]}}, {"properties": {"stands": 12, "address": "OLIVETTES - 10 RUE DES OLIVETTES", "bikes": 3, "lon": -1.549886024937758, "status": "OPEN", "update": "2015-12-21T11:35:33", "name": "00053-OLIVETTES", "lat": 47.211736393222054}, "type": "Feature", "geometry": {"type": "Point", "coordinates": [-1.549886024937758, 47.211736393222054]}}, {"properties": {"stands": 11, "address": "PLACE RENE BOUHIER - 8 PLACE RENE BOUHIER", "bikes": 4, "lon": -1.570515336280715, "status": "OPEN", "update": "2015-12-21T11:45:10", "name": "00076-PLACE REN\u00c9 BOUHIER", "lat": 47.209429092524424}, "type": "Feature", "geometry": {"type": "Point", "coordinates": [-1.570515336280715, 47.209429092524424]}}, {"properties": {"stands": 9, "address": "BOUCHERIE - FACE AU 4 RUE DE LA BOUCHERIE", "bikes": 10, "lon": -1.557111680197571, "status": "OPEN", "update": "2015-12-21T11:43:38", "name": "00008-BOUCHERIE", "lat": 47.21620089258823}, "type": "Feature", "geometry": {"type": "Point", "coordinates": [-1.557111680197571, 47.21620089258823]}}, {"properties": {"stands": 3, "address": "SARRADIN - FACE AU 4 PLACE SARRADIN", "bikes": 10, "lon": -1.570438598073934, "status": "OPEN", "update": "2015-12-21T11:40:56", "name": "00073-SARRADIN", "lat": 47.220882433018865}, "type": "Feature", "geometry": {"type": "Point", "coordinates": [-1.570438598073934, 47.220882433018865]}}, {"properties": {"stands": 0, "address": "DUCHESSE ANNE - 2 PLACE DE LA DUCHESSE ANNE", "bikes": 15, "lon": -1.547058938534335, "status": "OPEN", "update": "2015-12-21T11:37:10", "name": "00049-DUCHESSE ANNE", "lat": 47.21651740326776}, "type": "Feature", "geometry": {"type": "Point", "coordinates": [-1.547058938534335, 47.21651740326776]}}, {"properties": {"stands": 10, "address": "FACULTES - ANGLE ROUTE DE LA JONELIERE & BD G. MOLLET", "bikes": 30, "lon": -1.555309011107301, "status": "OPEN", "update": "2015-12-21T11:43:44", "name": "00093-FACULTES", "lat": 47.246298068423485}, "type": "Feature", "geometry": {"type": "Point", "coordinates": [-1.555309011107301, 47.246298068423485]}}, {"properties": {"stands": 10, "address": "VERDUN - 15 RUE DE VERDUN", "bikes": 3, "lon": -1.551849784370311, "status": "OPEN", "update": "2015-12-21T11:42:12", "name": "00048-VERDUN", "lat": 47.217505374678645}, "type": "Feature", "geometry": {"type": "Point", "coordinates": [-1.551849784370311, 47.217505374678645]}}, {"properties": {"stands": 22, "address": "PREFECTURE - 5 QUAI CEINERAY", "bikes": 3, "lon": -1.55408380740881, "status": "OPEN", "update": "2015-12-21T11:44:42", "name": "00001-PREFECTURE", "lat": 47.220255183724454}, "type": "Feature", "geometry": {"type": "Point", "coordinates": [-1.55408380740881, 47.220255183724454]}}, {"properties": {"stands": 11, "address": "BUAT - 118 RUE DE COULMIERS", "bikes": 0, "lon": -1.542404741250403, "status": "OPEN", "update": "2015-12-21T11:35:34", "name": "00023-BUAT", "lat": 47.227145468224634}, "type": "Feature", "geometry": {"type": "Point", "coordinates": [-1.542404741250403, 47.227145468224634]}}, {"properties": {"stands": 9, "address": "PROCE - ANGLE BD G. SERPETTE & BD A. PAGEOT", "bikes": 6, "lon": -1.576612843727262, "status": "OPEN", "update": "2015-12-21T11:40:13", "name": "00090-PROCE", "lat": 47.22419506173264}, "type": "Feature", "geometry": {"type": "Point", "coordinates": [-1.576612843727262, 47.22419506173264]}}, {"properties": {"stands": 13, "address": "FOCH - PLACE FOCH", "bikes": 2, "lon": -1.5502297, "status": "OPEN", "update": "2015-12-21T11:35:37", "name": "00032-FOCH", "lat": 47.2191122}, "type": "Feature", "geometry": {"type": "Point", "coordinates": [-1.5502297, 47.2191122]}}, {"properties": {"stands": 8, "address": "SAINTE ELISABTEH - 3 PLACE STE ELISABETH", "bikes": 6, "lon": -1.561570147641708, "status": "OPEN", "update": "2015-12-21T11:42:06", "name": "00017-SAINTE ELISABETH", "lat": 47.21921395261352}, "type": "Feature", "geometry": {"type": "Point", "coordinates": [-1.561570147641708, 47.21921395261352]}}, {"properties": {"stands": 2, "address": "DUGUAY TROUIN - 7 ALLEE DUGUAY TROUIN", "bikes": 13, "lon": -1.555269922656021, "status": "OPEN", "update": "2015-12-21T11:38:39", "name": "00029-DUGUAY TROUIN", "lat": 47.213450231365094}, "type": "Feature", "geometry": {"type": "Point", "coordinates": [-1.555269922656021, 47.213450231365094]}}, {"properties": {"stands": 12, "address": "CHATEAU - 2 RUE DES ETATS", "bikes": 4, "lon": -1.550226242563373, "status": "OPEN", "update": "2015-12-21T11:36:49", "name": "00050-CHATEAU", "lat": 47.21514969516256}, "type": "Feature", "geometry": {"type": "Point", "coordinates": [-1.550226242563373, 47.21514969516256]}}, {"properties": {"stands": 9, "address": "FEYDEAU - 1 ALLEE ILE GLORIETTE", "bikes": 12, "lon": -1.5568245371939, "status": "OPEN", "update": "2015-12-21T11:37:36", "name": "00037-FEYDEAU", "lat": 47.211465063355035}, "type": "Feature", "geometry": {"type": "Point", "coordinates": [-1.5568245371939, 47.211465063355035]}}, {"properties": {"stands": 7, "address": "HAUT PAVES - ANGLE RUE DE BERRY/RUE DES HAUTS PAVES", "bikes": 7, "lon": -1.567501842502272, "status": "OPEN", "update": "2015-12-21T11:38:59", "name": "00086-HAUTS PAV\u00c9S", "lat": 47.22547062698044}, "type": "Feature", "geometry": {"type": "Point", "coordinates": [-1.567501842502272, 47.22547062698044]}}, {"properties": {"stands": 12, "address": "QUAI MONCOUSU - 11 QUAI MONCOUSU", "bikes": 7, "lon": -1.555233144631466, "status": "OPEN", "update": "2015-12-21T11:41:56", "name": "00039-QUAI MONCOUSU", "lat": 47.209406573873714}, "type": "Feature", "geometry": {"type": "Point", "coordinates": [-1.555233144631466, 47.209406573873714]}}, {"properties": {"stands": 7, "address": "JEAN V - 2 PLACE JEAN V", "bikes": 8, "lon": -1.565543986075099, "status": "OPEN", "update": "2015-12-21T11:35:46", "name": "00035-JEAN V", "lat": 47.212168974412094}, "type": "Feature", "geometry": {"type": "Point", "coordinates": [-1.565543986075099, 47.212168974412094]}}, {"properties": {"stands": 14, "address": "DALBY- 61 BD ERNEST DALBY FACE STATION SERVICE", "bikes": 1, "lon": -1.529959592703474, "status": "OPEN", "update": "2015-12-21T11:38:29", "name": "00025-DALBY", "lat": 47.223508869811994}, "type": "Feature", "geometry": {"type": "Point", "coordinates": [-1.529959592703474, 47.223508869811994]}}, {"properties": {"stands": 1, "address": "PALAIS DE JUSTICE - 19 QUAI FRANCOIS MITTERAND", "bikes": 24, "lon": -1.561173077989395, "status": "OPEN", "update": "2015-12-21T11:39:22", "name": "00044-PALAIS DE JUSTICE", "lat": 47.20831728844152}, "type": "Feature", "geometry": {"type": "Point", "coordinates": [-1.561173077989395, 47.20831728844152]}}, {"properties": {"stands": 5, "address": "ST JACQUES - RUE ST JACQUES", "bikes": 9, "lon": -1.536540663464699, "status": "OPEN", "update": "2015-12-21T11:42:38", "name": "00099-ST JACQUES", "lat": 47.1958989090141}, "type": "Feature", "geometry": {"type": "Point", "coordinates": [-1.536540663464699, 47.1958989090141]}}, {"properties": {"stands": 5, "address": "VICTOR HUGO - BD VICTOR HUGO", "bikes": 10, "lon": -1.551548484803203, "status": "OPEN", "update": "2015-12-21T11:42:52", "name": "00080 - VICTOR HUGO", "lat": 47.204003208491145}, "type": "Feature", "geometry": {"type": "Point", "coordinates": [-1.551548484803203, 47.204003208491145]}}, {"properties": {"stands": 8, "address": "LIEU UNIQUE - FACE 23 QUAI FERDINAND FAVRE", "bikes": 7, "lon": -1.545905939112105, "status": "OPEN", "update": "2015-12-21T11:41:15", "name": "00061-LU - LIEU UNIQUE", "lat": 47.215591463959825}, "type": "Feature", "geometry": {"type": "Point", "coordinates": [-1.545905939112105, 47.215591463959825]}}, {"properties": {"stands": 6, "address": "MARCHE TALENSAC SUD - 6 RUE TALENSAC", "bikes": 10, "lon": -1.556476339327795, "status": "OPEN", "update": "2015-12-21T11:38:23", "name": "00021-MARCHE TALENSAC SUD", "lat": 47.22114332912908}, "type": "Feature", "geometry": {"type": "Point", "coordinates": [-1.556476339327795, 47.22114332912908]}}, {"properties": {"stands": 6, "address": "MARCHE TALENSAC NORD - 18 RUE TALENSAC", "bikes": 8, "lon": -1.558940746690739, "status": "OPEN", "update": "2015-12-21T11:35:49", "name": "00071-MARCHE TALENSAC NORD", "lat": 47.22185363818837}, "type": "Feature", "geometry": {"type": "Point", "coordinates": [-1.558940746690739, 47.22185363818837]}}, {"properties": {"stands": 7, "address": "CHANTIER NAVAL - 87 QUAI DE LA FOSSE", "bikes": 8, "lon": -1.569524048742154, "status": "OPEN", "update": "2015-12-21T11:35:51", "name": "00041-CHANTIER NAVAL", "lat": 47.208357479819504}, "type": "Feature", "geometry": {"type": "Point", "coordinates": [-1.569524048742154, 47.208357479819504]}}, {"properties": {"stands": 10, "address": "PLACE DELORME", "bikes": 10, "lon": -1.563900673465861, "status": "OPEN", "update": "2015-12-21T11:36:39", "name": "00012-PLACE DELORME", "lat": 47.21515818868574}, "type": "Feature", "geometry": {"type": "Point", "coordinates": [-1.563900673465861, 47.21515818868574]}}, {"properties": {"stands": 3, "address": "HUIT MAI - AVENUE DE LA LIBERATION - REZE", "bikes": 12, "lon": -1.550828036456355, "status": "OPEN", "update": "2015-12-21T11:39:40", "name": "00098-HUIT MAI", "lat": 47.18921204751304}, "type": "Feature", "geometry": {"type": "Point", "coordinates": [-1.550828036456355, 47.18921204751304]}}, {"properties": {"stands": 11, "address": "GUIST'HAU SUD - 26 BOULEVARD GUIST'HAU", "bikes": 4, "lon": -1.567004526265165, "status": "OPEN", "update": "2015-12-21T11:39:04", "name": "00026-GUIST'HAU SUD", "lat": 47.21682795997449}, "type": "Feature", "geometry": {"type": "Point", "coordinates": [-1.567004526265165, 47.21682795997449]}}, {"properties": {"stands": 7, "address": "BACO - FACE AU 8 ALLEE BACO", "bikes": 8, "lon": -1.548750555741977, "status": "OPEN", "update": "2015-12-21T11:42:25", "name": "00052-BACO", "lat": 47.214327524589145}, "type": "Feature", "geometry": {"type": "Point", "coordinates": [-1.548750555741977, 47.214327524589145]}}, {"properties": {"stands": 13, "address": "CALVAIRE - PL.DES VOLONTAIRES DE LA DEFENSE PASSIVE", "bikes": 2, "lon": -1.560675283700123, "status": "OPEN", "update": "2015-12-21T11:44:26", "name": "00011-CALVAIRE", "lat": 47.215578942427136}, "type": "Feature", "geometry": {"type": "Point", "coordinates": [-1.560675283700123, 47.215578942427136]}}, {"properties": {"stands": 9, "address": "JARDIN DES PLANTES - 6 RUE STANILAS BAUDRY", "bikes": 6, "lon": -1.544718964531585, "status": "OPEN", "update": "2015-12-21T11:42:44", "name": "00063-JARDIN DES PLANTES", "lat": 47.219834197318974}, "type": "Feature", "geometry": {"type": "Point", "coordinates": [-1.544718964531585, 47.219834197318974]}}, {"properties": {"stands": 9, "address": "PLACE EDOUARD NORMAND - FACE AU 7 PLACE EDOUARD NORMAND", "bikes": 6, "lon": -1.563419484053747, "status": "OPEN", "update": "2015-12-21T11:42:38", "name": "00016-PLACE EDOUARD NORMAND", "lat": 47.21902754473837}, "type": "Feature", "geometry": {"type": "Point", "coordinates": [-1.563419484053747, 47.21902754473837]}}, {"properties": {"stands": 13, "address": "MELLINET - 1 BD ALLARD", "bikes": 2, "lon": -1.577175414321782, "status": "OPEN", "update": "2015-12-21T11:37:27", "name": "00088-MELLINET", "lat": 47.211501070117826}, "type": "Feature", "geometry": {"type": "Point", "coordinates": [-1.577175414321782, 47.211501070117826]}}, {"properties": {"stands": 22, "address": "Quai Malakoff - c\u00f4t\u00e9 canal st F\u00e9lix", "bikes": 8, "lon": -1.542844, "status": "OPEN", "update": "2015-12-21T11:36:26", "name": "00070-GARE SUD 2", "lat": 47.215505}, "type": "Feature", "geometry": {"type": "Point", "coordinates": [-1.542844, 47.215505]}}, {"properties": {"stands": 6, "address": "MOULIN - FACE AU 18 RUE DU MOULIN", "bikes": 7, "lon": -1.5543847138777, "status": "OPEN", "update": "2015-12-21T11:42:45", "name": "00004-MOULIN", "lat": 47.216667582015184}, "type": "Feature", "geometry": {"type": "Point", "coordinates": [-1.5543847138777, 47.216667582015184]}}, {"properties": {"stands": 15, "address": "TORTIERE - BD EUGENE ORIEUX", "bikes": 0, "lon": -1.549221766809888, "status": "OPEN", "update": "2015-12-21T11:39:43", "name": "00096-TORTIERE", "lat": 47.235335222208626}, "type": "Feature", "geometry": {"type": "Point", "coordinates": [-1.549221766809888, 47.235335222208626]}}, {"properties": {"stands": 3, "address": "SAINT CLEMENT - FACE AU 37 RUE DU MARECHAL JOFFRE", "bikes": 12, "lon": -1.547099233718495, "status": "OPEN", "update": "2015-12-21T11:43:16", "name": "00064-SAINT CLEMENT", "lat": 47.221785183522634}, "type": "Feature", "geometry": {"type": "Point", "coordinates": [-1.547099233718495, 47.221785183522634]}}, {"properties": {"stands": 11, "address": "GUEPIN - 8 RUE DE L'ARCHE SECHE", "bikes": 3, "lon": -1.559017485167438, "status": "OPEN", "update": "2015-12-21T11:38:43", "name": "00009-GUEPIN", "lat": 47.215814587139455}, "type": "Feature", "geometry": {"type": "Point", "coordinates": [-1.559017485167438, 47.215814587139455]}}, {"properties": {"stands": 7, "address": "RACINE - 4 RUE RACINE", "bikes": 8, "lon": -1.563140874431397, "status": "OPEN", "update": "2015-12-21T11:40:53", "name": "00033-RACINE", "lat": 47.213522613719896}, "type": "Feature", "geometry": {"type": "Point", "coordinates": [-1.563140874431397, 47.213522613719896]}}, {"properties": {"stands": 40, "address": "GARE SUD - FACE 12 RUE LOURMEL", "bikes": 0, "lon": -1.542847782057658, "status": "OPEN", "update": "2015-12-21T11:36:03", "name": "00060-GARE SUD", "lat": 47.215919436013635}, "type": "Feature", "geometry": {"type": "Point", "coordinates": [-1.542847782057658, 47.215919436013635]}}, {"properties": {"stands": 5, "address": "VERSAILLES - FACE AU 25 QUAI DE VERSAILLES", "bikes": 10, "lon": -1.553711961402328, "status": "OPEN", "update": "2015-12-21T11:43:09", "name": "00024-VERSAILLES", "lat": 47.22451490719107}, "type": "Feature", "geometry": {"type": "Point", "coordinates": [-1.553711961402328, 47.22451490719107]}}, {"properties": {"stands": 4, "address": "MANUFACTURE - 11 BIS BD STALINGRAD", "bikes": 11, "lon": -1.535847443276377, "status": "OPEN", "update": "2015-12-21T11:42:19", "name": "00069 - MANUFACTURE", "lat": 47.219216380711345}, "type": "Feature", "geometry": {"type": "Point", "coordinates": [-1.535847443276377, 47.219216380711345]}}, {"properties": {"stands": 8, "address": "ALGER - 5 RUE D'ALGER", "bikes": 7, "lon": -1.566655339669288, "status": "OPEN", "update": "2015-12-21T11:43:21", "name": "00036-ALGER", "lat": 47.210693859551135}, "type": "Feature", "geometry": {"type": "Point", "coordinates": [-1.566655339669288, 47.210693859551135]}}, {"properties": {"stands": 4, "address": "SEBILLEAU - 9 RUE GAETAN RONDEAU", "bikes": 10, "lon": -1.533118244923623, "status": "OPEN", "update": "2015-12-21T11:38:39", "name": "00082-SEBILLEAU", "lat": 47.206757512308414}, "type": "Feature", "geometry": {"type": "Point", "coordinates": [-1.533118244923623, 47.206757512308414]}}, {"properties": {"stands": 9, "address": "BROSSARD - 25 RUE ARMAND BROSSARD", "bikes": 6, "lon": -1.556749263076553, "status": "OPEN", "update": "2015-12-21T11:43:36", "name": "00005-BROSSARD", "lat": 47.218837230469425}, "type": "Feature", "geometry": {"type": "Point", "coordinates": [-1.556749263076553, 47.218837230469425]}}, {"properties": {"stands": 14, "address": "PIRMIL - RUE ESNOUL DES CHATELETS", "bikes": 14, "lon": -1.54156809120326, "status": "OPEN", "update": "2015-12-21T11:45:03", "name": "00101 - PIRMIL", "lat": 47.1965313642396}, "type": "Feature", "geometry": {"type": "Point", "coordinates": [-1.54156809120326, 47.1965313642396]}}, {"properties": {"stands": 5, "address": "GRENERAIE - PARC DE LA GRENERAIE", "bikes": 15, "lon": -1.534717540470481, "status": "OPEN", "update": "2015-12-21T11:38:55", "name": "00100 - GRENERAIE", "lat": 47.199923092905216}, "type": "Feature", "geometry": {"type": "Point", "coordinates": [-1.534717540470481, 47.199923092905216]}}, {"properties": {"stands": 17, "address": "CITE INTERNATIONAL DES CONGRES - 2 RUE DE JEMMAPES", "bikes": 13, "lon": -1.544952541668585, "status": "OPEN", "update": "2015-12-21T11:39:05", "name": "00054- CITE INTERNATIONALE DES CONGRES", "lat": 47.213180085527846}, "type": "Feature", "geometry": {"type": "Point", "coordinates": [-1.544952541668585, 47.213180085527846]}}, {"properties": {"stands": 4, "address": "PLACE DE L'EDIT DE NANTES", "bikes": 9, "lon": -1.567568016663838, "status": "OPEN", "update": "2015-12-21T11:42:58", "name": "00028- PLACE DE L'EDIT NANTES", "lat": 47.21446342738575}, "type": "Feature", "geometry": {"type": "Point", "coordinates": [-1.567568016663838, 47.21446342738575]}}, {"properties": {"stands": 15, "address": "LIVET - FACE AU 65 RUE DU FOUR", "bikes": 0, "lon": -1.545212434215091, "status": "OPEN", "update": "2015-12-21T11:44:57", "name": "00068-LIVET", "lat": 47.22406787948748}, "type": "Feature", "geometry": {"type": "Point", "coordinates": [-1.545212434215091, 47.22406787948748]}}, {"properties": {"stands": 14, "address": "COURS SULLY - FACE AU 9 COURS SULLY", "bikes": 1, "lon": -1.551666442545979, "status": "OPEN", "update": "2015-12-21T11:39:15", "name": "00065-COURS SULLY", "lat": 47.222587339906696}, "type": "Feature", "geometry": {"type": "Point", "coordinates": [-1.551666442545979, 47.222587339906696]}}, {"properties": {"stands": 2, "address": "BRETAGNE SUD - 1 RUE PIERRE CHEREAU", "bikes": 18, "lon": -1.559161066618992, "status": "OPEN", "update": "2015-12-21T11:44:32", "name": "00013-BRETAGNE SUD", "lat": 47.216787949913034}, "type": "Feature", "geometry": {"type": "Point", "coordinates": [-1.559161066618992, 47.216787949913034]}}, {"properties": {"stands": 7, "address": "PLACE DU CIRQUE - 7 ALLEE DUQUESNE", "bikes": 8, "lon": -1.556937645378872, "status": "OPEN", "update": "2015-12-21T11:36:23", "name": "00006-PLACE DU CIRQUE", "lat": 47.21759668240601}, "type": "Feature", "geometry": {"type": "Point", "coordinates": [-1.556937645378872, 47.21759668240601]}}], "type": "FeatureCollection"}