{"features": [{"properties": {"bikes": 10, "lon": -1.635198, "name": "ZAC SAINT SULPICE", "stands": 20, "status": "OPEN", "address": "ZAC SAINT SULPICE", "update": "2016-02-08T20:30:09", "lat": 48.13213}, "geometry": {"type": "Point", "coordinates": [-1.635198, 48.13213]}, "type": "Feature"}, {"properties": {"bikes": 11, "lon": -1.704122, "name": "VILLEJEAN-UNIVERSITE", "stands": 15, "status": "OPEN", "address": "VILLEJEAN-UNIVERSITE", "update": "2016-02-08T20:30:09", "lat": 48.121075}, "geometry": {"type": "Point", "coordinates": [-1.704122, 48.121075]}, "type": "Feature"}, {"properties": {"bikes": 10, "lon": -1.651085, "name": "TURMEL", "stands": 6, "status": "OPEN", "address": "TURMEL", "update": "2016-02-08T20:30:09", "lat": 48.12247}, "geometry": {"type": "Point", "coordinates": [-1.651085, 48.12247]}, "type": "Feature"}, {"properties": {"bikes": 14, "lon": -1.673711, "name": "TNB", "stands": 14, "status": "OPEN", "address": "TNB", "update": "2016-02-08T20:30:09", "lat": 48.107746}, "geometry": {"type": "Point", "coordinates": [-1.673711, 48.107746]}, "type": "Feature"}, {"properties": {"bikes": 6, "lon": -1.663731, "name": "SAINTE THERESE", "stands": 6, "status": "OPEN", "address": "SAINTE THERESE", "update": "2016-02-08T20:30:09", "lat": 48.094986}, "geometry": {"type": "Point", "coordinates": [-1.663731, 48.094986]}, "type": "Feature"}, {"properties": {"bikes": 13, "lon": -1.680984, "name": "SAINTE-ANNE", "stands": 11, "status": "OPEN", "address": "SAINTE-ANNE", "update": "2016-02-08T20:30:09", "lat": 48.1145}, "geometry": {"type": "Point", "coordinates": [-1.680984, 48.1145]}, "type": "Feature"}, {"properties": {"bikes": 14, "lon": -1.674417, "name": "SAINT GEORGES", "stands": 4, "status": "OPEN", "address": "SAINT GEORGES", "update": "2016-02-08T20:30:09", "lat": 48.112385}, "geometry": {"type": "Point", "coordinates": [-1.674417, 48.112385]}, "type": "Feature"}, {"properties": {"bikes": 20, "lon": -1.68677, "name": "ROTONDE", "stands": 0, "status": "OPEN", "address": "ROTONDE", "update": "2016-02-08T20:30:09", "lat": 48.10665}, "geometry": {"type": "Point", "coordinates": [-1.68677, 48.10665]}, "type": "Feature"}, {"properties": {"bikes": 17, "lon": -1.678037, "name": "REPUBLIQUE", "stands": 13, "status": "OPEN", "address": "REPUBLIQUE", "update": "2016-02-08T20:30:09", "lat": 48.110027}, "geometry": {"type": "Point", "coordinates": [-1.678037, 48.110027]}, "type": "Feature"}, {"properties": {"bikes": 14, "lon": -1.67449, "name": "RECTORAT", "stands": 4, "status": "OPEN", "address": "RECTORAT", "update": "2016-02-08T20:30:09", "lat": 48.119377}, "geometry": {"type": "Point", "coordinates": [-1.67449, 48.119377]}, "type": "Feature"}, {"properties": {"bikes": 18, "lon": -1.694032, "name": "PREFECTURE", "stands": 9, "status": "OPEN", "address": "PREFECTURE", "update": "2016-02-08T20:30:09", "lat": 48.128452}, "geometry": {"type": "Point", "coordinates": [-1.694032, 48.128452]}, "type": "Feature"}, {"properties": {"bikes": 10, "lon": -1.692737, "name": "PONTCHAILLOU", "stands": 18, "status": "OPEN", "address": "PONTCHAILLOU", "update": "2016-02-08T20:30:09", "lat": 48.12148}, "geometry": {"type": "Point", "coordinates": [-1.692737, 48.12148]}, "type": "Feature"}, {"properties": {"bikes": 17, "lon": -1.659299, "name": "ROBIDOU", "stands": 3, "status": "OPEN", "address": "ROBIDOU", "update": "2016-02-08T20:30:09", "lat": 48.10998}, "geometry": {"type": "Point", "coordinates": [-1.659299, 48.10998]}, "type": "Feature"}, {"properties": {"bikes": 13, "lon": -1.684015, "name": "PONT DE NANTES", "stands": 7, "status": "OPEN", "address": "PONT DE NANTES", "update": "2016-02-08T20:30:09", "lat": 48.102016}, "geometry": {"type": "Point", "coordinates": [-1.684015, 48.102016]}, "type": "Feature"}, {"properties": {"bikes": 15, "lon": -1.664332, "name": "PONT DE CHATEAUDUN", "stands": 5, "status": "OPEN", "address": "PONT DE CHATEAUDUN", "update": "2016-02-08T20:30:09", "lat": 48.11026}, "geometry": {"type": "Point", "coordinates": [-1.664332, 48.11026]}, "type": "Feature"}, {"properties": {"bikes": 6, "lon": -1.681374, "name": "PLELO COLOMBIER", "stands": 12, "status": "OPEN", "address": "PLELO COLOMBIER", "update": "2016-02-08T20:30:09", "lat": 48.105896}, "geometry": {"type": "Point", "coordinates": [-1.681374, 48.105896]}, "type": "Feature"}, {"properties": {"bikes": 7, "lon": -1.677073, "name": "PLACE HOCHE", "stands": 17, "status": "OPEN", "address": "PLACE HOCHE", "update": "2016-02-08T20:30:09", "lat": 48.115074}, "geometry": {"type": "Point", "coordinates": [-1.677073, 48.115074]}, "type": "Feature"}, {"properties": {"bikes": 9, "lon": -1.684019, "name": "PLACE DE BRETAGNE", "stands": 11, "status": "OPEN", "address": "PLACE DE BRETAGNE", "update": "2016-02-08T20:30:09", "lat": 48.10962}, "geometry": {"type": "Point", "coordinates": [-1.684019, 48.10962]}, "type": "Feature"}, {"properties": {"bikes": 6, "lon": -1.651576, "name": "PISCINE GAYEULLES", "stands": 20, "status": "OPEN", "address": "PISCINE GAYEULLES", "update": "2016-02-08T20:30:09", "lat": 48.13461}, "geometry": {"type": "Point", "coordinates": [-1.651576, 48.13461]}, "type": "Feature"}, {"properties": {"bikes": 5, "lon": -1.690242, "name": "PISCINE BREQUIGNY", "stands": 19, "status": "OPEN", "address": "PISCINE BREQUIGNY", "update": "2016-02-08T20:30:09", "lat": 48.089622}, "geometry": {"type": "Point", "coordinates": [-1.690242, 48.089622]}, "type": "Feature"}, {"properties": {"bikes": 3, "lon": -1.662322, "name": "PIERRE MARTIN", "stands": 17, "status": "OPEN", "address": "PIERRE MARTIN", "update": "2016-02-08T20:30:09", "lat": 48.1035}, "geometry": {"type": "Point", "coordinates": [-1.662322, 48.1035]}, "type": "Feature"}, {"properties": {"bikes": 14, "lon": -1.670039, "name": "PAUL BERT", "stands": 2, "status": "OPEN", "address": "PAUL BERT", "update": "2016-02-08T20:30:09", "lat": 48.110115}, "geometry": {"type": "Point", "coordinates": [-1.670039, 48.110115]}, "type": "Feature"}, {"properties": {"bikes": 13, "lon": -1.660547, "name": "PAINLEVE", "stands": 4, "status": "OPEN", "address": "PAINLEVE", "update": "2016-02-08T20:30:09", "lat": 48.122993}, "geometry": {"type": "Point", "coordinates": [-1.660547, 48.122993]}, "type": "Feature"}, {"properties": {"bikes": 10, "lon": -1.683106, "name": "OFFICE DE TOURISME", "stands": 0, "status": "OPEN", "address": "OFFICE DE TOURISME", "update": "2016-02-08T20:30:09", "lat": 48.110294}, "geometry": {"type": "Point", "coordinates": [-1.683106, 48.110294]}, "type": "Feature"}, {"properties": {"bikes": 6, "lon": -1.661858, "name": "OBERTHUR", "stands": 14, "status": "OPEN", "address": "OBERTHUR", "update": "2016-02-08T20:30:09", "lat": 48.11355}, "geometry": {"type": "Point", "coordinates": [-1.661858, 48.11355]}, "type": "Feature"}, {"properties": {"bikes": 2, "lon": -1.674081, "name": "MUSEE BEAUX ARTS", "stands": 14, "status": "OPEN", "address": "MUSEE BEAUX ARTS", "update": "2016-02-08T20:30:09", "lat": 48.1096}, "geometry": {"type": "Point", "coordinates": [-1.674081, 48.1096]}, "type": "Feature"}, {"properties": {"bikes": 7, "lon": -1.643861, "name": "PLAINE DE BAUD", "stands": 17, "status": "OPEN", "address": "PLAINE DE BAUD", "update": "2016-02-08T20:30:09", "lat": 48.112488}, "geometry": {"type": "Point", "coordinates": [-1.643861, 48.112488]}, "type": "Feature"}, {"properties": {"bikes": 8, "lon": -1.66667, "name": "MONTS D'ARREE", "stands": 6, "status": "OPEN", "address": "MONTS D'ARREE", "update": "2016-02-08T20:30:09", "lat": 48.1367}, "geometry": {"type": "Point", "coordinates": [-1.66667, 48.1367]}, "type": "Feature"}, {"properties": {"bikes": 8, "lon": -1.658258, "name": "METZ SEVIGNE", "stands": 8, "status": "OPEN", "address": "METZ SEVIGNE", "update": "2016-02-08T20:30:09", "lat": 48.115993}, "geometry": {"type": "Point", "coordinates": [-1.658258, 48.115993]}, "type": "Feature"}, {"properties": {"bikes": 8, "lon": -1.688143, "name": "MERMOZ", "stands": 4, "status": "OPEN", "address": "MERMOZ", "update": "2016-02-08T20:30:09", "lat": 48.097927}, "geometry": {"type": "Point", "coordinates": [-1.688143, 48.097927]}, "type": "Feature"}, {"properties": {"bikes": 17, "lon": -1.702077, "name": "MARBEUF", "stands": 3, "status": "OPEN", "address": "MARBEUF", "update": "2016-02-08T20:30:09", "lat": 48.111748}, "geometry": {"type": "Point", "coordinates": [-1.702077, 48.111748]}, "type": "Feature"}, {"properties": {"bikes": 7, "lon": -1.698107, "name": "VOLTAIRE", "stands": 1, "status": "OPEN", "address": "VOLTAIRE", "update": "2016-02-08T20:30:09", "lat": 48.10524}, "geometry": {"type": "Point", "coordinates": [-1.698107, 48.10524]}, "type": "Feature"}, {"properties": {"bikes": 9, "lon": -1.678757, "name": "MAIRIE", "stands": 15, "status": "OPEN", "address": "MAIRIE", "update": "2016-02-08T20:30:09", "lat": 48.111626}, "geometry": {"type": "Point", "coordinates": [-1.678757, 48.111626]}, "type": "Feature"}, {"properties": {"bikes": 22, "lon": -1.678163, "name": "LIBERTE", "stands": 2, "status": "OPEN", "address": "LIBERTE", "update": "2016-02-08T20:30:09", "lat": 48.107513}, "geometry": {"type": "Point", "coordinates": [-1.678163, 48.107513]}, "type": "Feature"}, {"properties": {"bikes": 16, "lon": -1.685037, "name": "LES LICES", "stands": 4, "status": "OPEN", "address": "LES LICES", "update": "2016-02-08T20:30:09", "lat": 48.112766}, "geometry": {"type": "Point", "coordinates": [-1.685037, 48.112766]}, "type": "Feature"}, {"properties": {"bikes": 12, "lon": -1.680085, "name": "LES HALLES", "stands": 3, "status": "OPEN", "address": "LES HALLES", "update": "2016-02-08T20:30:09", "lat": 48.107624}, "geometry": {"type": "Point", "coordinates": [-1.680085, 48.107624]}, "type": "Feature"}, {"properties": {"bikes": 9, "lon": -1.665817, "name": "LAENNEC", "stands": 7, "status": "OPEN", "address": "LAENNEC", "update": "2016-02-08T20:30:09", "lat": 48.106846}, "geometry": {"type": "Point", "coordinates": [-1.665817, 48.106846]}, "type": "Feature"}, {"properties": {"bikes": 6, "lon": -1.690944, "name": "LA TOUCHE", "stands": 10, "status": "OPEN", "address": "LA TOUCHE", "update": "2016-02-08T20:30:09", "lat": 48.116608}, "geometry": {"type": "Point", "coordinates": [-1.690944, 48.116608]}, "type": "Feature"}, {"properties": {"bikes": 6, "lon": -1.710315, "name": "LA HARPE", "stands": 18, "status": "OPEN", "address": "LA HARPE", "update": "2016-02-08T20:30:09", "lat": 48.125618}, "geometry": {"type": "Point", "coordinates": [-1.710315, 48.125618]}, "type": "Feature"}, {"properties": {"bikes": 9, "lon": -1.671152, "name": "JULES FERRY", "stands": 7, "status": "OPEN", "address": "JULES FERRY", "update": "2016-02-08T20:30:09", "lat": 48.12137}, "geometry": {"type": "Point", "coordinates": [-1.671152, 48.12137]}, "type": "Feature"}, {"properties": {"bikes": 9, "lon": -1.709933, "name": "J.F. KENNEDY", "stands": 15, "status": "OPEN", "address": "J.F. KENNEDY", "update": "2016-02-08T20:30:09", "lat": 48.121468}, "geometry": {"type": "Point", "coordinates": [-1.709933, 48.121468]}, "type": "Feature"}, {"properties": {"bikes": 7, "lon": -1.674306, "name": "JACQUES CARTIER", "stands": 17, "status": "OPEN", "address": "JACQUES CARTIER", "update": "2016-02-08T20:30:09", "lat": 48.09753}, "geometry": {"type": "Point", "coordinates": [-1.674306, 48.09753]}, "type": "Feature"}, {"properties": {"bikes": 7, "lon": -1.667568, "name": "ITALIE", "stands": 9, "status": "OPEN", "address": "ITALIE", "update": "2016-02-08T20:30:09", "lat": 48.08674}, "geometry": {"type": "Point", "coordinates": [-1.667568, 48.08674]}, "type": "Feature"}, {"properties": {"bikes": 6, "lon": -1.663173, "name": "HOUX CITE U", "stands": 8, "status": "OPEN", "address": "HOUX CITE U", "update": "2016-02-08T20:30:09", "lat": 48.130524}, "geometry": {"type": "Point", "coordinates": [-1.663173, 48.130524]}, "type": "Feature"}, {"properties": {"bikes": 13, "lon": -1.677849, "name": "HOTEL DIEU", "stands": 11, "status": "OPEN", "address": "HOTEL DIEU", "update": "2016-02-08T20:30:09", "lat": 48.117596}, "geometry": {"type": "Point", "coordinates": [-1.677849, 48.117596]}, "type": "Feature"}, {"properties": {"bikes": 13, "lon": -1.688502, "name": "HORIZONS", "stands": 1, "status": "OPEN", "address": "HORIZONS", "update": "2016-02-08T20:30:09", "lat": 48.112064}, "geometry": {"type": "Point", "coordinates": [-1.688502, 48.112064]}, "type": "Feature"}, {"properties": {"bikes": 10, "lon": -1.67485, "name": "HENRI FREVILLE", "stands": 14, "status": "OPEN", "address": "HENRI FREVILLE", "update": "2016-02-08T20:30:09", "lat": 48.087337}, "geometry": {"type": "Point", "coordinates": [-1.67485, 48.087337]}, "type": "Feature"}, {"properties": {"bikes": 0, "lon": -1.665101, "name": "GROS CHENE", "stands": 18, "status": "OPEN", "address": "GROS CHENE", "update": "2016-02-08T20:30:09", "lat": 48.126797}, "geometry": {"type": "Point", "coordinates": [-1.665101, 48.126797]}, "type": "Feature"}, {"properties": {"bikes": 11, "lon": -1.709492, "name": "GENIAUX", "stands": 4, "status": "OPEN", "address": "GENIAUX", "update": "2016-02-08T20:30:09", "lat": 48.10893}, "geometry": {"type": "Point", "coordinates": [-1.709492, 48.10893]}, "type": "Feature"}, {"properties": {"bikes": 6, "lon": -1.673133, "name": "GARES (SUD)", "stands": 14, "status": "OPEN", "address": "GARES (SUD)", "update": "2016-02-08T20:30:09", "lat": 48.10225}, "geometry": {"type": "Point", "coordinates": [-1.673133, 48.10225]}, "type": "Feature"}, {"properties": {"bikes": 2, "lon": -1.671268, "name": "GARE SOLFERINO", "stands": 33, "status": "OPEN", "address": "GARE SOLFERINO", "update": "2016-02-08T20:30:09", "lat": 48.104156}, "geometry": {"type": "Point", "coordinates": [-1.671268, 48.104156]}, "type": "Feature"}, {"properties": {"bikes": 6, "lon": -1.670736, "name": "FAC DE DROIT", "stands": 20, "status": "OPEN", "address": "FAC DE DROIT", "update": "2016-02-08T20:30:09", "lat": 48.11817}, "geometry": {"type": "Point", "coordinates": [-1.670736, 48.11817]}, "type": "Feature"}, {"properties": {"bikes": 0, "lon": -1.666227, "name": "GUEHENNO-FOUGERES", "stands": 16, "status": "OPEN", "address": "GUEHENNO-FOUGERES", "update": "2016-02-08T20:30:09", "lat": 48.11984}, "geometry": {"type": "Point", "coordinates": [-1.666227, 48.11984]}, "type": "Feature"}, {"properties": {"bikes": 16, "lon": -1.682697, "name": "DINAN", "stands": 0, "status": "OPEN", "address": "DINAN", "update": "2016-02-08T20:30:09", "lat": 48.117214}, "geometry": {"type": "Point", "coordinates": [-1.682697, 48.117214]}, "type": "Feature"}, {"properties": {"bikes": 23, "lon": -1.707086, "name": "DE LESSEPS", "stands": 0, "status": "OPEN", "address": "DE LESSEPS", "update": "2016-02-08T20:30:09", "lat": 48.100956}, "geometry": {"type": "Point", "coordinates": [-1.707086, 48.100956]}, "type": "Feature"}, {"properties": {"bikes": 11, "lon": -1.67868, "name": "DALLE DU COLOMBIER", "stands": 8, "status": "OPEN", "address": "DALLE DU COLOMBIER", "update": "2016-02-08T20:30:09", "lat": 48.10512}, "geometry": {"type": "Point", "coordinates": [-1.67868, 48.10512]}, "type": "Feature"}, {"properties": {"bikes": 12, "lon": -1.698129, "name": "CUCILLE", "stands": 13, "status": "OPEN", "address": "CUCILLE", "update": "2016-02-08T20:30:09", "lat": 48.128788}, "geometry": {"type": "Point", "coordinates": [-1.698129, 48.128788]}, "type": "Feature"}, {"properties": {"bikes": 6, "lon": -1.712716, "name": "CLEUNAY", "stands": 20, "status": "OPEN", "address": "CLEUNAY", "update": "2016-02-08T20:30:09", "lat": 48.104206}, "geometry": {"type": "Point", "coordinates": [-1.712716, 48.104206]}, "type": "Feature"}, {"properties": {"bikes": 5, "lon": -1.674116, "name": "CLEMENCEAU", "stands": 16, "status": "OPEN", "address": "CLEMENCEAU", "update": "2016-02-08T20:30:09", "lat": 48.093292}, "geometry": {"type": "Point", "coordinates": [-1.674116, 48.093292]}, "type": "Feature"}, {"properties": {"bikes": 18, "lon": -1.68411, "name": "CITE JUDICIAIRE", "stands": 6, "status": "OPEN", "address": "CITE JUDICIAIRE", "update": "2016-02-08T20:30:09", "lat": 48.10477}, "geometry": {"type": "Point", "coordinates": [-1.68411, 48.10477]}, "type": "Feature"}, {"properties": {"bikes": 12, "lon": -1.65012, "name": "CIMETIERE EST", "stands": 6, "status": "OPEN", "address": "CIMETIERE EST", "update": "2016-02-08T20:30:09", "lat": 48.104355}, "geometry": {"type": "Point", "coordinates": [-1.65012, 48.104355]}, "type": "Feature"}, {"properties": {"bikes": 21, "lon": -1.693404, "name": "CHEQUES POSTAUX", "stands": 0, "status": "OPEN", "address": "CHEQUES POSTAUX", "update": "2016-02-08T20:30:09", "lat": 48.10887}, "geometry": {"type": "Point", "coordinates": [-1.693404, 48.10887]}, "type": "Feature"}, {"properties": {"bikes": 12, "lon": -1.677119, "name": "CHARLES DE GAULLE", "stands": 12, "status": "OPEN", "address": "CHARLES DE GAULLE", "update": "2016-02-08T20:30:09", "lat": 48.10511}, "geometry": {"type": "Point", "coordinates": [-1.677119, 48.10511]}, "type": "Feature"}, {"properties": {"bikes": 4, "lon": -1.682285, "name": "CHAMPS MANCEAUX", "stands": 14, "status": "OPEN", "address": "CHAMPS MANCEAUX", "update": "2016-02-08T20:30:09", "lat": 48.091114}, "geometry": {"type": "Point", "coordinates": [-1.682285, 48.091114]}, "type": "Feature"}, {"properties": {"bikes": 11, "lon": -1.674328, "name": "CHAMPS LIBRES", "stands": 13, "status": "OPEN", "address": "CHAMPS LIBRES", "update": "2016-02-08T20:30:09", "lat": 48.105537}, "geometry": {"type": "Point", "coordinates": [-1.674328, 48.105537]}, "type": "Feature"}, {"properties": {"bikes": 23, "lon": -1.680062, "name": "CHAMP JACQUET", "stands": 1, "status": "OPEN", "address": "CHAMP JACQUET", "update": "2016-02-08T20:30:09", "lat": 48.112762}, "geometry": {"type": "Point", "coordinates": [-1.680062, 48.112762]}, "type": "Feature"}, {"properties": {"bikes": 15, "lon": -1.693274, "name": "BREST VERDUN", "stands": 1, "status": "OPEN", "address": "BREST VERDUN", "update": "2016-02-08T20:30:09", "lat": 48.113014}, "geometry": {"type": "Point", "coordinates": [-1.693274, 48.113014]}, "type": "Feature"}, {"properties": {"bikes": 10, "lon": -1.635134, "name": "BOUZAT", "stands": 8, "status": "OPEN", "address": "BOUZAT", "update": "2016-02-08T20:30:09", "lat": 48.12873}, "geometry": {"type": "Point", "coordinates": [-1.635134, 48.12873]}, "type": "Feature"}, {"properties": {"bikes": 8, "lon": -1.667321, "name": "BINQUENAIS", "stands": 8, "status": "OPEN", "address": "BINQUENAIS", "update": "2016-02-08T20:30:09", "lat": 48.091595}, "geometry": {"type": "Point", "coordinates": [-1.667321, 48.091595]}, "type": "Feature"}, {"properties": {"bikes": 0, "lon": -1.705097, "name": "BERGER", "stands": 14, "status": "OPEN", "address": "BERGER", "update": "2016-02-08T20:30:09", "lat": 48.116314}, "geometry": {"type": "Point", "coordinates": [-1.705097, 48.116314]}, "type": "Feature"}, {"properties": {"bikes": 0, "lon": -1.638368, "name": "BEAULIEU RESTAU U", "stands": 0, "status": "CLOSED", "address": "BEAULIEU RESTAU U", "update": "2016-02-08T20:30:09", "lat": 48.122047}, "geometry": {"type": "Point", "coordinates": [-1.638368, 48.122047]}, "type": "Feature"}, {"properties": {"bikes": 9, "lon": -1.633875, "name": "BEAULIEU CHIMIE", "stands": 21, "status": "OPEN", "address": "BEAULIEU CHIMIE", "update": "2016-02-08T20:30:09", "lat": 48.11646}, "geometry": {"type": "Point", "coordinates": [-1.633875, 48.11646]}, "type": "Feature"}, {"properties": {"bikes": 14, "lon": -1.642935, "name": "BEAULIEU DIAPASON", "stands": 16, "status": "OPEN", "address": "BEAULIEU DIAPASON", "update": "2016-02-08T20:30:09", "lat": 48.118015}, "geometry": {"type": "Point", "coordinates": [-1.642935, 48.118015]}, "type": "Feature"}, {"properties": {"bikes": 18, "lon": -1.681876, "name": "AUBERGE DE JEUNESSE", "stands": 0, "status": "OPEN", "address": "AUBERGE DE JEUNESSE", "update": "2016-02-08T20:30:09", "lat": 48.120876}, "geometry": {"type": "Point", "coordinates": [-1.681876, 48.120876]}, "type": "Feature"}, {"properties": {"bikes": 6, "lon": -1.713729, "name": "ATALANTE CHAMPEAUX", "stands": 24, "status": "OPEN", "address": "ATALANTE CHAMPEAUX", "update": "2016-02-08T20:30:09", "lat": 48.116123}, "geometry": {"type": "Point", "coordinates": [-1.713729, 48.116123]}, "type": "Feature"}, {"properties": {"bikes": 12, "lon": -1.686465, "name": "ANATOLE FRANCE", "stands": 2, "status": "OPEN", "address": "ANATOLE FRANCE", "update": "2016-02-08T20:30:09", "lat": 48.118}, "geometry": {"type": "Point", "coordinates": [-1.686465, 48.118]}, "type": "Feature"}, {"properties": {"bikes": 10, "lon": -1.677634, "name": "ALMA", "stands": 10, "status": "OPEN", "address": "ALMA", "update": "2016-02-08T20:30:09", "lat": 48.082397}, "geometry": {"type": "Point", "coordinates": [-1.677634, 48.082397]}, "type": "Feature"}, {"properties": {"bikes": 0, "lon": -1.640468, "name": "RONCERAY", "stands": 0, "status": "OPEN", "address": "RONCERAY", "update": "2016-02-08T20:30:09", "lat": 48.092785}, "geometry": {"type": "Point", "coordinates": [-1.640468, 48.092785]}, "type": "Feature"}, {"properties": {"bikes": 20, "lon": -1.644126, "name": "LA POTERIE", "stands": 8, "status": "OPEN", "address": "LA POTERIE", "update": "2016-02-08T20:30:09", "lat": 48.087276}, "geometry": {"type": "Point", "coordinates": [-1.644126, 48.087276]}, "type": "Feature"}, {"properties": {"bikes": 2, "lon": -1.691598, "name": "PONTCHAILLOU (TER)", "stands": 22, "status": "OPEN", "address": "PONTCHAILLOU (TER)", "update": "2016-02-08T20:30:09", "lat": 48.119186}, "geometry": {"type": "Point", "coordinates": [-1.691598, 48.119186]}, "type": "Feature"}, {"properties": {"bikes": 0, "lon": -1.674006, "name": "GARE BEAUMONT", "stands": 24, "status": "OPEN", "address": "GARE BEAUMONT", "update": "2016-02-08T20:30:09", "lat": 48.103832}, "geometry": {"type": "Point", "coordinates": [-1.674006, 48.103832]}, "type": "Feature"}, {"properties": {"bikes": 6, "lon": -1.694523, "name": "LA COURROUZE", "stands": 14, "status": "OPEN", "address": "LA COURROUZE", "update": "2016-02-08T20:30:09", "lat": 48.098909}, "geometry": {"type": "Point", "coordinates": [-1.694523, 48.098909]}, "type": "Feature"}, {"properties": {"bikes": 0, "lon": -1.675788, "name": "ARMORIQUE", "stands": 0, "status": "CLOSED", "address": "ARMORIQUE", "update": "2016-02-08T13:40:00", "lat": 48.13}, "geometry": {"type": "Point", "coordinates": [-1.675788, 48.13]}, "type": "Feature"}], "type": "FeatureCollection"}