{"features": [{"properties": {"stands": 11, "address": "ZAC SAINT SULPICE", "bikes": 19, "lon": -1.635198, "status": "OPEN", "update": "2015-12-21T11:45:07", "name": "ZAC SAINT SULPICE", "lat": 48.13213}, "type": "Feature", "geometry": {"type": "Point", "coordinates": [-1.635198, 48.13213]}}, {"properties": {"stands": 25, "address": "VILLEJEAN-UNIVERSITE", "bikes": 0, "lon": -1.704122, "status": "OPEN", "update": "2015-12-21T11:45:07", "name": "VILLEJEAN-UNIVERSITE", "lat": 48.121075}, "type": "Feature", "geometry": {"type": "Point", "coordinates": [-1.704122, 48.121075]}}, {"properties": {"stands": 1, "address": "TURMEL", "bikes": 15, "lon": -1.651085, "status": "OPEN", "update": "2015-12-21T11:45:07", "name": "TURMEL", "lat": 48.12247}, "type": "Feature", "geometry": {"type": "Point", "coordinates": [-1.651085, 48.12247]}}, {"properties": {"stands": 12, "address": "TNB", "bikes": 16, "lon": -1.673711, "status": "OPEN", "update": "2015-12-21T11:45:07", "name": "TNB", "lat": 48.107746}, "type": "Feature", "geometry": {"type": "Point", "coordinates": [-1.673711, 48.107746]}}, {"properties": {"stands": 8, "address": "SAINTE THERESE", "bikes": 4, "lon": -1.663731, "status": "OPEN", "update": "2015-12-21T11:45:07", "name": "SAINTE THERESE", "lat": 48.094986}, "type": "Feature", "geometry": {"type": "Point", "coordinates": [-1.663731, 48.094986]}}, {"properties": {"stands": 8, "address": "SAINTE-ANNE", "bikes": 16, "lon": -1.680984, "status": "OPEN", "update": "2015-12-21T11:45:07", "name": "SAINTE-ANNE", "lat": 48.1145}, "type": "Feature", "geometry": {"type": "Point", "coordinates": [-1.680984, 48.1145]}}, {"properties": {"stands": 11, "address": "SAINT GEORGES", "bikes": 7, "lon": -1.674417, "status": "OPEN", "update": "2015-12-21T11:45:07", "name": "SAINT GEORGES", "lat": 48.112385}, "type": "Feature", "geometry": {"type": "Point", "coordinates": [-1.674417, 48.112385]}}, {"properties": {"stands": 11, "address": "ROTONDE", "bikes": 9, "lon": -1.68677, "status": "OPEN", "update": "2015-12-21T11:45:07", "name": "ROTONDE", "lat": 48.10665}, "type": "Feature", "geometry": {"type": "Point", "coordinates": [-1.68677, 48.10665]}}, {"properties": {"stands": 2, "address": "REPUBLIQUE", "bikes": 28, "lon": -1.678037, "status": "OPEN", "update": "2015-12-21T11:45:07", "name": "REPUBLIQUE", "lat": 48.110027}, "type": "Feature", "geometry": {"type": "Point", "coordinates": [-1.678037, 48.110027]}}, {"properties": {"stands": 4, "address": "RECTORAT", "bikes": 14, "lon": -1.67449, "status": "OPEN", "update": "2015-12-21T11:45:07", "name": "RECTORAT", "lat": 48.119377}, "type": "Feature", "geometry": {"type": "Point", "coordinates": [-1.67449, 48.119377]}}, {"properties": {"stands": 9, "address": "PREFECTURE", "bikes": 18, "lon": -1.694032, "status": "OPEN", "update": "2015-12-21T11:45:07", "name": "PREFECTURE", "lat": 48.128452}, "type": "Feature", "geometry": {"type": "Point", "coordinates": [-1.694032, 48.128452]}}, {"properties": {"stands": 14, "address": "PONTCHAILLOU", "bikes": 14, "lon": -1.692737, "status": "OPEN", "update": "2015-12-21T11:45:07", "name": "PONTCHAILLOU", "lat": 48.12148}, "type": "Feature", "geometry": {"type": "Point", "coordinates": [-1.692737, 48.12148]}}, {"properties": {"stands": 13, "address": "ROBIDOU", "bikes": 7, "lon": -1.659299, "status": "OPEN", "update": "2015-12-21T11:45:07", "name": "ROBIDOU", "lat": 48.10998}, "type": "Feature", "geometry": {"type": "Point", "coordinates": [-1.659299, 48.10998]}}, {"properties": {"stands": 14, "address": "PONT DE NANTES", "bikes": 6, "lon": -1.684015, "status": "OPEN", "update": "2015-12-21T11:45:07", "name": "PONT DE NANTES", "lat": 48.102016}, "type": "Feature", "geometry": {"type": "Point", "coordinates": [-1.684015, 48.102016]}}, {"properties": {"stands": 1, "address": "PONT DE CHATEAUDUN", "bikes": 19, "lon": -1.664332, "status": "OPEN", "update": "2015-12-21T11:45:07", "name": "PONT DE CHATEAUDUN", "lat": 48.11026}, "type": "Feature", "geometry": {"type": "Point", "coordinates": [-1.664332, 48.11026]}}, {"properties": {"stands": 7, "address": "PLELO COLOMBIER", "bikes": 11, "lon": -1.681374, "status": "OPEN", "update": "2015-12-21T11:45:07", "name": "PLELO COLOMBIER", "lat": 48.105896}, "type": "Feature", "geometry": {"type": "Point", "coordinates": [-1.681374, 48.105896]}}, {"properties": {"stands": 1, "address": "PLACE HOCHE", "bikes": 23, "lon": -1.677073, "status": "OPEN", "update": "2015-12-21T11:45:07", "name": "PLACE HOCHE", "lat": 48.115074}, "type": "Feature", "geometry": {"type": "Point", "coordinates": [-1.677073, 48.115074]}}, {"properties": {"stands": 1, "address": "PLACE DE BRETAGNE", "bikes": 19, "lon": -1.684019, "status": "OPEN", "update": "2015-12-21T11:45:07", "name": "PLACE DE BRETAGNE", "lat": 48.10962}, "type": "Feature", "geometry": {"type": "Point", "coordinates": [-1.684019, 48.10962]}}, {"properties": {"stands": 18, "address": "PISCINE GAYEULLES", "bikes": 8, "lon": -1.651576, "status": "OPEN", "update": "2015-12-21T11:45:07", "name": "PISCINE GAYEULLES", "lat": 48.13461}, "type": "Feature", "geometry": {"type": "Point", "coordinates": [-1.651576, 48.13461]}}, {"properties": {"stands": 16, "address": "PISCINE BREQUIGNY", "bikes": 8, "lon": -1.690242, "status": "OPEN", "update": "2015-12-21T11:45:07", "name": "PISCINE BREQUIGNY", "lat": 48.089622}, "type": "Feature", "geometry": {"type": "Point", "coordinates": [-1.690242, 48.089622]}}, {"properties": {"stands": 20, "address": "PIERRE MARTIN", "bikes": 0, "lon": -1.662322, "status": "OPEN", "update": "2015-12-21T11:45:07", "name": "PIERRE MARTIN", "lat": 48.1035}, "type": "Feature", "geometry": {"type": "Point", "coordinates": [-1.662322, 48.1035]}}, {"properties": {"stands": 16, "address": "PAUL BERT", "bikes": 0, "lon": -1.670039, "status": "OPEN", "update": "2015-12-21T11:45:07", "name": "PAUL BERT", "lat": 48.110115}, "type": "Feature", "geometry": {"type": "Point", "coordinates": [-1.670039, 48.110115]}}, {"properties": {"stands": 12, "address": "PAINLEVE", "bikes": 6, "lon": -1.660547, "status": "OPEN", "update": "2015-12-21T11:45:07", "name": "PAINLEVE", "lat": 48.122993}, "type": "Feature", "geometry": {"type": "Point", "coordinates": [-1.660547, 48.122993]}}, {"properties": {"stands": 2, "address": "OFFICE DE TOURISME", "bikes": 8, "lon": -1.683106, "status": "OPEN", "update": "2015-12-21T11:45:07", "name": "OFFICE DE TOURISME", "lat": 48.110294}, "type": "Feature", "geometry": {"type": "Point", "coordinates": [-1.683106, 48.110294]}}, {"properties": {"stands": 15, "address": "OBERTHUR", "bikes": 5, "lon": -1.661858, "status": "OPEN", "update": "2015-12-21T11:45:07", "name": "OBERTHUR", "lat": 48.11355}, "type": "Feature", "geometry": {"type": "Point", "coordinates": [-1.661858, 48.11355]}}, {"properties": {"stands": 0, "address": "MUSEE BEAUX ARTS", "bikes": 16, "lon": -1.674081, "status": "OPEN", "update": "2015-12-21T11:45:07", "name": "MUSEE BEAUX ARTS", "lat": 48.1096}, "type": "Feature", "geometry": {"type": "Point", "coordinates": [-1.674081, 48.1096]}}, {"properties": {"stands": 10, "address": "PLAINE DE BAUD", "bikes": 14, "lon": -1.643861, "status": "OPEN", "update": "2015-12-21T11:45:07", "name": "PLAINE DE BAUD", "lat": 48.112488}, "type": "Feature", "geometry": {"type": "Point", "coordinates": [-1.643861, 48.112488]}}, {"properties": {"stands": 7, "address": "MONTS D'ARREE", "bikes": 6, "lon": -1.66667, "status": "OPEN", "update": "2015-12-21T11:45:07", "name": "MONTS D'ARREE", "lat": 48.1367}, "type": "Feature", "geometry": {"type": "Point", "coordinates": [-1.66667, 48.1367]}}, {"properties": {"stands": 3, "address": "METZ SEVIGNE", "bikes": 13, "lon": -1.658258, "status": "OPEN", "update": "2015-12-21T11:46:02", "name": "METZ SEVIGNE", "lat": 48.115993}, "type": "Feature", "geometry": {"type": "Point", "coordinates": [-1.658258, 48.115993]}}, {"properties": {"stands": 7, "address": "MERMOZ", "bikes": 5, "lon": -1.688143, "status": "OPEN", "update": "2015-12-21T11:45:07", "name": "MERMOZ", "lat": 48.097927}, "type": "Feature", "geometry": {"type": "Point", "coordinates": [-1.688143, 48.097927]}}, {"properties": {"stands": 10, "address": "MARBEUF", "bikes": 9, "lon": -1.702077, "status": "OPEN", "update": "2015-12-21T11:45:07", "name": "MARBEUF", "lat": 48.111748}, "type": "Feature", "geometry": {"type": "Point", "coordinates": [-1.702077, 48.111748]}}, {"properties": {"stands": 8, "address": "VOLTAIRE", "bikes": 7, "lon": -1.698107, "status": "OPEN", "update": "2015-12-21T11:45:07", "name": "VOLTAIRE", "lat": 48.10524}, "type": "Feature", "geometry": {"type": "Point", "coordinates": [-1.698107, 48.10524]}}, {"properties": {"stands": 18, "address": "MAIRIE", "bikes": 5, "lon": -1.678757, "status": "OPEN", "update": "2015-12-21T11:45:07", "name": "MAIRIE", "lat": 48.111626}, "type": "Feature", "geometry": {"type": "Point", "coordinates": [-1.678757, 48.111626]}}, {"properties": {"stands": 17, "address": "LIBERTE", "bikes": 7, "lon": -1.678163, "status": "OPEN", "update": "2015-12-21T11:45:07", "name": "LIBERTE", "lat": 48.107513}, "type": "Feature", "geometry": {"type": "Point", "coordinates": [-1.678163, 48.107513]}}, {"properties": {"stands": 15, "address": "LES LICES", "bikes": 5, "lon": -1.685037, "status": "OPEN", "update": "2015-12-21T11:45:07", "name": "LES LICES", "lat": 48.112766}, "type": "Feature", "geometry": {"type": "Point", "coordinates": [-1.685037, 48.112766]}}, {"properties": {"stands": 7, "address": "LES HALLES", "bikes": 8, "lon": -1.680085, "status": "OPEN", "update": "2015-12-21T11:45:07", "name": "LES HALLES", "lat": 48.107624}, "type": "Feature", "geometry": {"type": "Point", "coordinates": [-1.680085, 48.107624]}}, {"properties": {"stands": 10, "address": "LAENNEC", "bikes": 6, "lon": -1.665817, "status": "OPEN", "update": "2015-12-21T11:46:02", "name": "LAENNEC", "lat": 48.106846}, "type": "Feature", "geometry": {"type": "Point", "coordinates": [-1.665817, 48.106846]}}, {"properties": {"stands": 11, "address": "LA TOUCHE", "bikes": 5, "lon": -1.690944, "status": "OPEN", "update": "2015-12-21T11:45:07", "name": "LA TOUCHE", "lat": 48.116608}, "type": "Feature", "geometry": {"type": "Point", "coordinates": [-1.690944, 48.116608]}}, {"properties": {"stands": 21, "address": "LA HARPE", "bikes": 4, "lon": -1.710315, "status": "OPEN", "update": "2015-12-21T11:45:07", "name": "LA HARPE", "lat": 48.125618}, "type": "Feature", "geometry": {"type": "Point", "coordinates": [-1.710315, 48.125618]}}, {"properties": {"stands": 12, "address": "JULES FERRY", "bikes": 4, "lon": -1.671152, "status": "OPEN", "update": "2015-12-21T11:45:07", "name": "JULES FERRY", "lat": 48.12137}, "type": "Feature", "geometry": {"type": "Point", "coordinates": [-1.671152, 48.12137]}}, {"properties": {"stands": 13, "address": "J.F. KENNEDY", "bikes": 11, "lon": -1.709933, "status": "OPEN", "update": "2015-12-21T11:45:07", "name": "J.F. KENNEDY", "lat": 48.121468}, "type": "Feature", "geometry": {"type": "Point", "coordinates": [-1.709933, 48.121468]}}, {"properties": {"stands": 20, "address": "JACQUES CARTIER", "bikes": 4, "lon": -1.674306, "status": "OPEN", "update": "2015-12-21T11:45:07", "name": "JACQUES CARTIER", "lat": 48.09753}, "type": "Feature", "geometry": {"type": "Point", "coordinates": [-1.674306, 48.09753]}}, {"properties": {"stands": 9, "address": "ITALIE", "bikes": 7, "lon": -1.667568, "status": "OPEN", "update": "2015-12-21T11:45:07", "name": "ITALIE", "lat": 48.08674}, "type": "Feature", "geometry": {"type": "Point", "coordinates": [-1.667568, 48.08674]}}, {"properties": {"stands": 2, "address": "HOUX CITE U", "bikes": 12, "lon": -1.663173, "status": "OPEN", "update": "2015-12-21T11:45:07", "name": "HOUX CITE U", "lat": 48.130524}, "type": "Feature", "geometry": {"type": "Point", "coordinates": [-1.663173, 48.130524]}}, {"properties": {"stands": 15, "address": "HOTEL DIEU", "bikes": 9, "lon": -1.677849, "status": "OPEN", "update": "2015-12-21T11:45:07", "name": "HOTEL DIEU", "lat": 48.117596}, "type": "Feature", "geometry": {"type": "Point", "coordinates": [-1.677849, 48.117596]}}, {"properties": {"stands": 14, "address": "HORIZONS", "bikes": 0, "lon": -1.688502, "status": "OPEN", "update": "2015-12-21T11:45:07", "name": "HORIZONS", "lat": 48.112064}, "type": "Feature", "geometry": {"type": "Point", "coordinates": [-1.688502, 48.112064]}}, {"properties": {"stands": 15, "address": "HENRI FREVILLE", "bikes": 9, "lon": -1.67485, "status": "OPEN", "update": "2015-12-21T11:45:07", "name": "HENRI FREVILLE", "lat": 48.087337}, "type": "Feature", "geometry": {"type": "Point", "coordinates": [-1.67485, 48.087337]}}, {"properties": {"stands": 15, "address": "GROS CHENE", "bikes": 3, "lon": -1.665101, "status": "OPEN", "update": "2015-12-21T11:45:07", "name": "GROS CHENE", "lat": 48.126797}, "type": "Feature", "geometry": {"type": "Point", "coordinates": [-1.665101, 48.126797]}}, {"properties": {"stands": 7, "address": "GENIAUX", "bikes": 8, "lon": -1.709492, "status": "OPEN", "update": "2015-12-21T11:45:07", "name": "GENIAUX", "lat": 48.10893}, "type": "Feature", "geometry": {"type": "Point", "coordinates": [-1.709492, 48.10893]}}, {"properties": {"stands": 12, "address": "GARES (SUD)", "bikes": 8, "lon": -1.673133, "status": "OPEN", "update": "2015-12-21T11:45:07", "name": "GARES (SUD)", "lat": 48.10225}, "type": "Feature", "geometry": {"type": "Point", "coordinates": [-1.673133, 48.10225]}}, {"properties": {"stands": 20, "address": "GARE SOLFERINO", "bikes": 15, "lon": -1.671268, "status": "OPEN", "update": "2015-12-21T11:45:07", "name": "GARE SOLFERINO", "lat": 48.104156}, "type": "Feature", "geometry": {"type": "Point", "coordinates": [-1.671268, 48.104156]}}, {"properties": {"stands": 6, "address": "FAC DE DROIT", "bikes": 20, "lon": -1.670736, "status": "OPEN", "update": "2015-12-21T11:45:07", "name": "FAC DE DROIT", "lat": 48.11817}, "type": "Feature", "geometry": {"type": "Point", "coordinates": [-1.670736, 48.11817]}}, {"properties": {"stands": 5, "address": "GUEHENNO-FOUGERES", "bikes": 11, "lon": -1.666227, "status": "OPEN", "update": "2015-12-21T11:45:07", "name": "GUEHENNO-FOUGERES", "lat": 48.11984}, "type": "Feature", "geometry": {"type": "Point", "coordinates": [-1.666227, 48.11984]}}, {"properties": {"stands": 14, "address": "DINAN", "bikes": 2, "lon": -1.682697, "status": "OPEN", "update": "2015-12-21T11:45:07", "name": "DINAN", "lat": 48.117214}, "type": "Feature", "geometry": {"type": "Point", "coordinates": [-1.682697, 48.117214]}}, {"properties": {"stands": 9, "address": "DE LESSEPS", "bikes": 13, "lon": -1.707086, "status": "OPEN", "update": "2015-12-21T11:45:07", "name": "DE LESSEPS", "lat": 48.100956}, "type": "Feature", "geometry": {"type": "Point", "coordinates": [-1.707086, 48.100956]}}, {"properties": {"stands": 9, "address": "DALLE DU COLOMBIER", "bikes": 10, "lon": -1.67868, "status": "OPEN", "update": "2015-12-21T11:45:07", "name": "DALLE DU COLOMBIER", "lat": 48.10512}, "type": "Feature", "geometry": {"type": "Point", "coordinates": [-1.67868, 48.10512]}}, {"properties": {"stands": 23, "address": "CUCILLE", "bikes": 2, "lon": -1.698129, "status": "OPEN", "update": "2015-12-21T11:45:07", "name": "CUCILLE", "lat": 48.128788}, "type": "Feature", "geometry": {"type": "Point", "coordinates": [-1.698129, 48.128788]}}, {"properties": {"stands": 8, "address": "CLEUNAY", "bikes": 18, "lon": -1.712716, "status": "OPEN", "update": "2015-12-21T11:45:07", "name": "CLEUNAY", "lat": 48.104206}, "type": "Feature", "geometry": {"type": "Point", "coordinates": [-1.712716, 48.104206]}}, {"properties": {"stands": 12, "address": "CLEMENCEAU", "bikes": 10, "lon": -1.674116, "status": "OPEN", "update": "2015-12-21T11:45:07", "name": "CLEMENCEAU", "lat": 48.093292}, "type": "Feature", "geometry": {"type": "Point", "coordinates": [-1.674116, 48.093292]}}, {"properties": {"stands": 8, "address": "CITE JUDICIAIRE", "bikes": 16, "lon": -1.68411, "status": "OPEN", "update": "2015-12-21T11:45:07", "name": "CITE JUDICIAIRE", "lat": 48.10477}, "type": "Feature", "geometry": {"type": "Point", "coordinates": [-1.68411, 48.10477]}}, {"properties": {"stands": 7, "address": "CIMETIERE EST", "bikes": 11, "lon": -1.65012, "status": "OPEN", "update": "2015-12-21T11:45:07", "name": "CIMETIERE EST", "lat": 48.104355}, "type": "Feature", "geometry": {"type": "Point", "coordinates": [-1.65012, 48.104355]}}, {"properties": {"stands": 14, "address": "CHEQUES POSTAUX", "bikes": 8, "lon": -1.693404, "status": "OPEN", "update": "2015-12-21T11:45:07", "name": "CHEQUES POSTAUX", "lat": 48.10887}, "type": "Feature", "geometry": {"type": "Point", "coordinates": [-1.693404, 48.10887]}}, {"properties": {"stands": 18, "address": "CHARLES DE GAULLE", "bikes": 6, "lon": -1.677119, "status": "OPEN", "update": "2015-12-21T11:45:07", "name": "CHARLES DE GAULLE", "lat": 48.10511}, "type": "Feature", "geometry": {"type": "Point", "coordinates": [-1.677119, 48.10511]}}, {"properties": {"stands": 12, "address": "CHAMPS MANCEAUX", "bikes": 6, "lon": -1.682285, "status": "OPEN", "update": "2015-12-21T11:45:07", "name": "CHAMPS MANCEAUX", "lat": 48.091114}, "type": "Feature", "geometry": {"type": "Point", "coordinates": [-1.682285, 48.091114]}}, {"properties": {"stands": 9, "address": "CHAMPS LIBRES", "bikes": 14, "lon": -1.674328, "status": "OPEN", "update": "2015-12-21T11:45:07", "name": "CHAMPS LIBRES", "lat": 48.105537}, "type": "Feature", "geometry": {"type": "Point", "coordinates": [-1.674328, 48.105537]}}, {"properties": {"stands": 7, "address": "CHAMP JACQUET", "bikes": 17, "lon": -1.680062, "status": "OPEN", "update": "2015-12-21T11:45:07", "name": "CHAMP JACQUET", "lat": 48.112762}, "type": "Feature", "geometry": {"type": "Point", "coordinates": [-1.680062, 48.112762]}}, {"properties": {"stands": 14, "address": "BREST VERDUN", "bikes": 1, "lon": -1.693274, "status": "OPEN", "update": "2015-12-21T11:45:07", "name": "BREST VERDUN", "lat": 48.113014}, "type": "Feature", "geometry": {"type": "Point", "coordinates": [-1.693274, 48.113014]}}, {"properties": {"stands": 5, "address": "BOUZAT", "bikes": 13, "lon": -1.635134, "status": "OPEN", "update": "2015-12-21T11:45:07", "name": "BOUZAT", "lat": 48.12873}, "type": "Feature", "geometry": {"type": "Point", "coordinates": [-1.635134, 48.12873]}}, {"properties": {"stands": 16, "address": "BINQUENAIS", "bikes": 0, "lon": -1.667321, "status": "OPEN", "update": "2015-12-21T11:45:07", "name": "BINQUENAIS", "lat": 48.091595}, "type": "Feature", "geometry": {"type": "Point", "coordinates": [-1.667321, 48.091595]}}, {"properties": {"stands": 7, "address": "BERGER", "bikes": 6, "lon": -1.705097, "status": "OPEN", "update": "2015-12-21T11:45:07", "name": "BERGER", "lat": 48.116314}, "type": "Feature", "geometry": {"type": "Point", "coordinates": [-1.705097, 48.116314]}}, {"properties": {"stands": 0, "address": "BEAULIEU RESTAU U", "bikes": 0, "lon": -1.638368, "status": "CLOSED", "update": "2015-12-21T11:45:07", "name": "BEAULIEU RESTAU U", "lat": 48.122047}, "type": "Feature", "geometry": {"type": "Point", "coordinates": [-1.638368, 48.122047]}}, {"properties": {"stands": 12, "address": "BEAULIEU CHIMIE", "bikes": 18, "lon": -1.633875, "status": "OPEN", "update": "2015-12-21T11:45:07", "name": "BEAULIEU CHIMIE", "lat": 48.11646}, "type": "Feature", "geometry": {"type": "Point", "coordinates": [-1.633875, 48.11646]}}, {"properties": {"stands": 7, "address": "BEAULIEU BOIS PERRIN", "bikes": 23, "lon": -1.642935, "status": "OPEN", "update": "2015-12-21T11:45:07", "name": "BEAULIEU BOIS PERRIN", "lat": 48.118015}, "type": "Feature", "geometry": {"type": "Point", "coordinates": [-1.642935, 48.118015]}}, {"properties": {"stands": 14, "address": "AUBERGE DE JEUNESSE", "bikes": 4, "lon": -1.681876, "status": "OPEN", "update": "2015-12-21T11:45:07", "name": "AUBERGE DE JEUNESSE", "lat": 48.120876}, "type": "Feature", "geometry": {"type": "Point", "coordinates": [-1.681876, 48.120876]}}, {"properties": {"stands": 19, "address": "ATALANTE CHAMPEAUX", "bikes": 11, "lon": -1.713729, "status": "OPEN", "update": "2015-12-21T11:45:07", "name": "ATALANTE CHAMPEAUX", "lat": 48.116123}, "type": "Feature", "geometry": {"type": "Point", "coordinates": [-1.713729, 48.116123]}}, {"properties": {"stands": 9, "address": "ANATOLE FRANCE", "bikes": 5, "lon": -1.686465, "status": "OPEN", "update": "2015-12-21T11:45:07", "name": "ANATOLE FRANCE", "lat": 48.118}, "type": "Feature", "geometry": {"type": "Point", "coordinates": [-1.686465, 48.118]}}, {"properties": {"stands": 11, "address": "ALMA", "bikes": 9, "lon": -1.677634, "status": "OPEN", "update": "2015-12-21T11:45:07", "name": "ALMA", "lat": 48.082397}, "type": "Feature", "geometry": {"type": "Point", "coordinates": [-1.677634, 48.082397]}}, {"properties": {"stands": 2, "address": "RONCERAY", "bikes": 19, "lon": -1.640468, "status": "OPEN", "update": "2015-12-21T11:45:07", "name": "RONCERAY", "lat": 48.092785}, "type": "Feature", "geometry": {"type": "Point", "coordinates": [-1.640468, 48.092785]}}, {"properties": {"stands": 14, "address": "LA POTERIE", "bikes": 14, "lon": -1.644126, "status": "OPEN", "update": "2015-12-21T11:45:07", "name": "LA POTERIE", "lat": 48.087276}, "type": "Feature", "geometry": {"type": "Point", "coordinates": [-1.644126, 48.087276]}}, {"properties": {"stands": 18, "address": "PONTCHAILLOU (TER)", "bikes": 6, "lon": -1.691598, "status": "OPEN", "update": "2015-12-21T11:45:07", "name": "PONTCHAILLOU (TER)", "lat": 48.119186}, "type": "Feature", "geometry": {"type": "Point", "coordinates": [-1.691598, 48.119186]}}, {"properties": {"stands": 3, "address": "GARE BEAUMONT", "bikes": 21, "lon": -1.674006, "status": "OPEN", "update": "2015-12-21T11:45:07", "name": "GARE BEAUMONT", "lat": 48.103832}, "type": "Feature", "geometry": {"type": "Point", "coordinates": [-1.674006, 48.103832]}}, {"properties": {"stands": 13, "address": "LA COURROUZE", "bikes": 6, "lon": -1.694523, "status": "OPEN", "update": "2015-12-21T11:45:07", "name": "LA COURROUZE", "lat": 48.098909}, "type": "Feature", "geometry": {"type": "Point", "coordinates": [-1.694523, 48.098909]}}], "type": "FeatureCollection"}