{"features": [{"geometry": {"coordinates": [-1.635198, 48.13213], "type": "Point"}, "properties": {"name": "ZAC SAINT SULPICE", "lon": -1.635198, "status": "OPEN", "stands": 21, "bikes": 9, "update": "2016-02-06T13:17:08", "lat": 48.13213, "address": "ZAC SAINT SULPICE"}, "type": "Feature"}, {"geometry": {"coordinates": [-1.704122, 48.121075], "type": "Point"}, "properties": {"name": "VILLEJEAN-UNIVERSITE", "lon": -1.704122, "status": "OPEN", "stands": 23, "bikes": 2, "update": "2016-02-06T13:17:08", "lat": 48.121075, "address": "VILLEJEAN-UNIVERSITE"}, "type": "Feature"}, {"geometry": {"coordinates": [-1.651085, 48.12247], "type": "Point"}, "properties": {"name": "TURMEL", "lon": -1.651085, "status": "OPEN", "stands": 12, "bikes": 3, "update": "2016-02-06T13:17:08", "lat": 48.12247, "address": "TURMEL"}, "type": "Feature"}, {"geometry": {"coordinates": [-1.673711, 48.107746], "type": "Point"}, "properties": {"name": "TNB", "lon": -1.673711, "status": "OPEN", "stands": 11, "bikes": 17, "update": "2016-02-06T13:17:08", "lat": 48.107746, "address": "TNB"}, "type": "Feature"}, {"geometry": {"coordinates": [-1.663731, 48.094986], "type": "Point"}, "properties": {"name": "SAINTE THERESE", "lon": -1.663731, "status": "OPEN", "stands": 3, "bikes": 9, "update": "2016-02-06T13:17:08", "lat": 48.094986, "address": "SAINTE THERESE"}, "type": "Feature"}, {"geometry": {"coordinates": [-1.680984, 48.1145], "type": "Point"}, "properties": {"name": "SAINTE-ANNE", "lon": -1.680984, "status": "OPEN", "stands": 1, "bikes": 23, "update": "2016-02-06T13:17:08", "lat": 48.1145, "address": "SAINTE-ANNE"}, "type": "Feature"}, {"geometry": {"coordinates": [-1.674417, 48.112385], "type": "Point"}, "properties": {"name": "SAINT GEORGES", "lon": -1.674417, "status": "OPEN", "stands": 8, "bikes": 10, "update": "2016-02-06T13:17:08", "lat": 48.112385, "address": "SAINT GEORGES"}, "type": "Feature"}, {"geometry": {"coordinates": [-1.68677, 48.10665], "type": "Point"}, "properties": {"name": "ROTONDE", "lon": -1.68677, "status": "OPEN", "stands": 6, "bikes": 14, "update": "2016-02-06T13:17:08", "lat": 48.10665, "address": "ROTONDE"}, "type": "Feature"}, {"geometry": {"coordinates": [-1.678037, 48.110027], "type": "Point"}, "properties": {"name": "REPUBLIQUE", "lon": -1.678037, "status": "OPEN", "stands": 6, "bikes": 24, "update": "2016-02-06T13:17:08", "lat": 48.110027, "address": "REPUBLIQUE"}, "type": "Feature"}, {"geometry": {"coordinates": [-1.67449, 48.119377], "type": "Point"}, "properties": {"name": "RECTORAT", "lon": -1.67449, "status": "OPEN", "stands": 8, "bikes": 9, "update": "2016-02-06T13:17:08", "lat": 48.119377, "address": "RECTORAT"}, "type": "Feature"}, {"geometry": {"coordinates": [-1.694032, 48.128452], "type": "Point"}, "properties": {"name": "PREFECTURE", "lon": -1.694032, "status": "OPEN", "stands": 21, "bikes": 6, "update": "2016-02-06T13:17:08", "lat": 48.128452, "address": "PREFECTURE"}, "type": "Feature"}, {"geometry": {"coordinates": [-1.692737, 48.12148], "type": "Point"}, "properties": {"name": "PONTCHAILLOU", "lon": -1.692737, "status": "OPEN", "stands": 16, "bikes": 12, "update": "2016-02-06T13:17:08", "lat": 48.12148, "address": "PONTCHAILLOU"}, "type": "Feature"}, {"geometry": {"coordinates": [-1.659299, 48.10998], "type": "Point"}, "properties": {"name": "ROBIDOU", "lon": -1.659299, "status": "OPEN", "stands": 10, "bikes": 10, "update": "2016-02-06T13:17:08", "lat": 48.10998, "address": "ROBIDOU"}, "type": "Feature"}, {"geometry": {"coordinates": [-1.684015, 48.102016], "type": "Point"}, "properties": {"name": "PONT DE NANTES", "lon": -1.684015, "status": "OPEN", "stands": 5, "bikes": 15, "update": "2016-02-06T13:17:08", "lat": 48.102016, "address": "PONT DE NANTES"}, "type": "Feature"}, {"geometry": {"coordinates": [-1.664332, 48.11026], "type": "Point"}, "properties": {"name": "PONT DE CHATEAUDUN", "lon": -1.664332, "status": "OPEN", "stands": 9, "bikes": 11, "update": "2016-02-06T13:17:08", "lat": 48.11026, "address": "PONT DE CHATEAUDUN"}, "type": "Feature"}, {"geometry": {"coordinates": [-1.681374, 48.105896], "type": "Point"}, "properties": {"name": "PLELO COLOMBIER", "lon": -1.681374, "status": "OPEN", "stands": 17, "bikes": 1, "update": "2016-02-06T13:17:08", "lat": 48.105896, "address": "PLELO COLOMBIER"}, "type": "Feature"}, {"geometry": {"coordinates": [-1.677073, 48.115074], "type": "Point"}, "properties": {"name": "PLACE HOCHE", "lon": -1.677073, "status": "OPEN", "stands": 6, "bikes": 18, "update": "2016-02-06T13:17:08", "lat": 48.115074, "address": "PLACE HOCHE"}, "type": "Feature"}, {"geometry": {"coordinates": [-1.684019, 48.10962], "type": "Point"}, "properties": {"name": "PLACE DE BRETAGNE", "lon": -1.684019, "status": "OPEN", "stands": 10, "bikes": 10, "update": "2016-02-06T13:17:08", "lat": 48.10962, "address": "PLACE DE BRETAGNE"}, "type": "Feature"}, {"geometry": {"coordinates": [-1.651576, 48.13461], "type": "Point"}, "properties": {"name": "PISCINE GAYEULLES", "lon": -1.651576, "status": "OPEN", "stands": 24, "bikes": 2, "update": "2016-02-06T13:17:08", "lat": 48.13461, "address": "PISCINE GAYEULLES"}, "type": "Feature"}, {"geometry": {"coordinates": [-1.690242, 48.089622], "type": "Point"}, "properties": {"name": "PISCINE BREQUIGNY", "lon": -1.690242, "status": "OPEN", "stands": 17, "bikes": 7, "update": "2016-02-06T13:17:08", "lat": 48.089622, "address": "PISCINE BREQUIGNY"}, "type": "Feature"}, {"geometry": {"coordinates": [-1.662322, 48.1035], "type": "Point"}, "properties": {"name": "PIERRE MARTIN", "lon": -1.662322, "status": "OPEN", "stands": 5, "bikes": 15, "update": "2016-02-06T13:17:08", "lat": 48.1035, "address": "PIERRE MARTIN"}, "type": "Feature"}, {"geometry": {"coordinates": [-1.670039, 48.110115], "type": "Point"}, "properties": {"name": "PAUL BERT", "lon": -1.670039, "status": "OPEN", "stands": 10, "bikes": 6, "update": "2016-02-06T13:17:08", "lat": 48.110115, "address": "PAUL BERT"}, "type": "Feature"}, {"geometry": {"coordinates": [-1.660547, 48.122993], "type": "Point"}, "properties": {"name": "PAINLEVE", "lon": -1.660547, "status": "OPEN", "stands": 16, "bikes": 2, "update": "2016-02-06T13:17:08", "lat": 48.122993, "address": "PAINLEVE"}, "type": "Feature"}, {"geometry": {"coordinates": [-1.683106, 48.110294], "type": "Point"}, "properties": {"name": "OFFICE DE TOURISME", "lon": -1.683106, "status": "OPEN", "stands": 1, "bikes": 9, "update": "2016-02-06T13:17:08", "lat": 48.110294, "address": "OFFICE DE TOURISME"}, "type": "Feature"}, {"geometry": {"coordinates": [-1.661858, 48.11355], "type": "Point"}, "properties": {"name": "OBERTHUR", "lon": -1.661858, "status": "OPEN", "stands": 14, "bikes": 6, "update": "2016-02-06T13:17:08", "lat": 48.11355, "address": "OBERTHUR"}, "type": "Feature"}, {"geometry": {"coordinates": [-1.674081, 48.1096], "type": "Point"}, "properties": {"name": "MUSEE BEAUX ARTS", "lon": -1.674081, "status": "OPEN", "stands": 8, "bikes": 8, "update": "2016-02-06T13:17:08", "lat": 48.1096, "address": "MUSEE BEAUX ARTS"}, "type": "Feature"}, {"geometry": {"coordinates": [-1.643861, 48.112488], "type": "Point"}, "properties": {"name": "PLAINE DE BAUD", "lon": -1.643861, "status": "OPEN", "stands": 12, "bikes": 12, "update": "2016-02-06T13:17:08", "lat": 48.112488, "address": "PLAINE DE BAUD"}, "type": "Feature"}, {"geometry": {"coordinates": [-1.66667, 48.1367], "type": "Point"}, "properties": {"name": "MONTS D'ARREE", "lon": -1.66667, "status": "OPEN", "stands": 4, "bikes": 10, "update": "2016-02-06T13:17:08", "lat": 48.1367, "address": "MONTS D'ARREE"}, "type": "Feature"}, {"geometry": {"coordinates": [-1.658258, 48.115993], "type": "Point"}, "properties": {"name": "METZ SEVIGNE", "lon": -1.658258, "status": "OPEN", "stands": 13, "bikes": 3, "update": "2016-02-06T13:17:08", "lat": 48.115993, "address": "METZ SEVIGNE"}, "type": "Feature"}, {"geometry": {"coordinates": [-1.688143, 48.097927], "type": "Point"}, "properties": {"name": "MERMOZ", "lon": -1.688143, "status": "OPEN", "stands": 3, "bikes": 9, "update": "2016-02-06T13:17:08", "lat": 48.097927, "address": "MERMOZ"}, "type": "Feature"}, {"geometry": {"coordinates": [-1.702077, 48.111748], "type": "Point"}, "properties": {"name": "MARBEUF", "lon": -1.702077, "status": "OPEN", "stands": 14, "bikes": 6, "update": "2016-02-06T13:17:08", "lat": 48.111748, "address": "MARBEUF"}, "type": "Feature"}, {"geometry": {"coordinates": [-1.698107, 48.10524], "type": "Point"}, "properties": {"name": "VOLTAIRE", "lon": -1.698107, "status": "OPEN", "stands": 10, "bikes": 6, "update": "2016-02-06T13:17:08", "lat": 48.10524, "address": "VOLTAIRE"}, "type": "Feature"}, {"geometry": {"coordinates": [-1.678757, 48.111626], "type": "Point"}, "properties": {"name": "MAIRIE", "lon": -1.678757, "status": "OPEN", "stands": 5, "bikes": 19, "update": "2016-02-06T13:17:08", "lat": 48.111626, "address": "MAIRIE"}, "type": "Feature"}, {"geometry": {"coordinates": [-1.678163, 48.107513], "type": "Point"}, "properties": {"name": "LIBERTE", "lon": -1.678163, "status": "OPEN", "stands": 12, "bikes": 12, "update": "2016-02-06T13:17:08", "lat": 48.107513, "address": "LIBERTE"}, "type": "Feature"}, {"geometry": {"coordinates": [-1.685037, 48.112766], "type": "Point"}, "properties": {"name": "LES LICES", "lon": -1.685037, "status": "OPEN", "stands": 1, "bikes": 19, "update": "2016-02-06T13:17:08", "lat": 48.112766, "address": "LES LICES"}, "type": "Feature"}, {"geometry": {"coordinates": [-1.680085, 48.107624], "type": "Point"}, "properties": {"name": "LES HALLES", "lon": -1.680085, "status": "OPEN", "stands": 5, "bikes": 10, "update": "2016-02-06T13:17:08", "lat": 48.107624, "address": "LES HALLES"}, "type": "Feature"}, {"geometry": {"coordinates": [-1.665817, 48.106846], "type": "Point"}, "properties": {"name": "LAENNEC", "lon": -1.665817, "status": "OPEN", "stands": 10, "bikes": 6, "update": "2016-02-06T13:17:08", "lat": 48.106846, "address": "LAENNEC"}, "type": "Feature"}, {"geometry": {"coordinates": [-1.690944, 48.116608], "type": "Point"}, "properties": {"name": "LA TOUCHE", "lon": -1.690944, "status": "OPEN", "stands": 7, "bikes": 8, "update": "2016-02-06T13:17:08", "lat": 48.116608, "address": "LA TOUCHE"}, "type": "Feature"}, {"geometry": {"coordinates": [-1.710315, 48.125618], "type": "Point"}, "properties": {"name": "LA HARPE", "lon": -1.710315, "status": "OPEN", "stands": 3, "bikes": 20, "update": "2016-02-06T13:17:08", "lat": 48.125618, "address": "LA HARPE"}, "type": "Feature"}, {"geometry": {"coordinates": [-1.671152, 48.12137], "type": "Point"}, "properties": {"name": "JULES FERRY", "lon": -1.671152, "status": "OPEN", "stands": 1, "bikes": 15, "update": "2016-02-06T13:17:08", "lat": 48.12137, "address": "JULES FERRY"}, "type": "Feature"}, {"geometry": {"coordinates": [-1.709933, 48.121468], "type": "Point"}, "properties": {"name": "J.F. KENNEDY", "lon": -1.709933, "status": "OPEN", "stands": 14, "bikes": 10, "update": "2016-02-06T13:17:08", "lat": 48.121468, "address": "J.F. KENNEDY"}, "type": "Feature"}, {"geometry": {"coordinates": [-1.674306, 48.09753], "type": "Point"}, "properties": {"name": "JACQUES CARTIER", "lon": -1.674306, "status": "OPEN", "stands": 14, "bikes": 10, "update": "2016-02-06T13:17:08", "lat": 48.09753, "address": "JACQUES CARTIER"}, "type": "Feature"}, {"geometry": {"coordinates": [-1.667568, 48.08674], "type": "Point"}, "properties": {"name": "ITALIE", "lon": -1.667568, "status": "OPEN", "stands": 13, "bikes": 3, "update": "2016-02-06T13:17:08", "lat": 48.08674, "address": "ITALIE"}, "type": "Feature"}, {"geometry": {"coordinates": [-1.663173, 48.130524], "type": "Point"}, "properties": {"name": "HOUX CITE U", "lon": -1.663173, "status": "OPEN", "stands": 10, "bikes": 4, "update": "2016-02-06T13:17:08", "lat": 48.130524, "address": "HOUX CITE U"}, "type": "Feature"}, {"geometry": {"coordinates": [-1.677849, 48.117596], "type": "Point"}, "properties": {"name": "HOTEL DIEU", "lon": -1.677849, "status": "OPEN", "stands": 14, "bikes": 10, "update": "2016-02-06T13:17:08", "lat": 48.117596, "address": "HOTEL DIEU"}, "type": "Feature"}, {"geometry": {"coordinates": [-1.688502, 48.112064], "type": "Point"}, "properties": {"name": "HORIZONS", "lon": -1.688502, "status": "OPEN", "stands": 8, "bikes": 6, "update": "2016-02-06T13:17:08", "lat": 48.112064, "address": "HORIZONS"}, "type": "Feature"}, {"geometry": {"coordinates": [-1.67485, 48.087337], "type": "Point"}, "properties": {"name": "HENRI FREVILLE", "lon": -1.67485, "status": "OPEN", "stands": 13, "bikes": 11, "update": "2016-02-06T13:17:08", "lat": 48.087337, "address": "HENRI FREVILLE"}, "type": "Feature"}, {"geometry": {"coordinates": [-1.665101, 48.126797], "type": "Point"}, "properties": {"name": "GROS CHENE", "lon": -1.665101, "status": "OPEN", "stands": 10, "bikes": 8, "update": "2016-02-06T13:17:08", "lat": 48.126797, "address": "GROS CHENE"}, "type": "Feature"}, {"geometry": {"coordinates": [-1.709492, 48.10893], "type": "Point"}, "properties": {"name": "GENIAUX", "lon": -1.709492, "status": "OPEN", "stands": 5, "bikes": 10, "update": "2016-02-06T13:17:08", "lat": 48.10893, "address": "GENIAUX"}, "type": "Feature"}, {"geometry": {"coordinates": [-1.673133, 48.10225], "type": "Point"}, "properties": {"name": "GARES (SUD)", "lon": -1.673133, "status": "OPEN", "stands": 11, "bikes": 9, "update": "2016-02-06T13:17:08", "lat": 48.10225, "address": "GARES (SUD)"}, "type": "Feature"}, {"geometry": {"coordinates": [-1.671268, 48.104156], "type": "Point"}, "properties": {"name": "GARE SOLFERINO", "lon": -1.671268, "status": "OPEN", "stands": 7, "bikes": 28, "update": "2016-02-06T13:17:08", "lat": 48.104156, "address": "GARE SOLFERINO"}, "type": "Feature"}, {"geometry": {"coordinates": [-1.670736, 48.11817], "type": "Point"}, "properties": {"name": "FAC DE DROIT", "lon": -1.670736, "status": "OPEN", "stands": 24, "bikes": 2, "update": "2016-02-06T13:17:08", "lat": 48.11817, "address": "FAC DE DROIT"}, "type": "Feature"}, {"geometry": {"coordinates": [-1.666227, 48.11984], "type": "Point"}, "properties": {"name": "GUEHENNO-FOUGERES", "lon": -1.666227, "status": "OPEN", "stands": 12, "bikes": 4, "update": "2016-02-06T13:17:08", "lat": 48.11984, "address": "GUEHENNO-FOUGERES"}, "type": "Feature"}, {"geometry": {"coordinates": [-1.682697, 48.117214], "type": "Point"}, "properties": {"name": "DINAN", "lon": -1.682697, "status": "OPEN", "stands": 7, "bikes": 9, "update": "2016-02-06T13:17:08", "lat": 48.117214, "address": "DINAN"}, "type": "Feature"}, {"geometry": {"coordinates": [-1.707086, 48.100956], "type": "Point"}, "properties": {"name": "DE LESSEPS", "lon": -1.707086, "status": "OPEN", "stands": 14, "bikes": 8, "update": "2016-02-06T13:17:08", "lat": 48.100956, "address": "DE LESSEPS"}, "type": "Feature"}, {"geometry": {"coordinates": [-1.67868, 48.10512], "type": "Point"}, "properties": {"name": "DALLE DU COLOMBIER", "lon": -1.67868, "status": "OPEN", "stands": 14, "bikes": 5, "update": "2016-02-06T13:17:08", "lat": 48.10512, "address": "DALLE DU COLOMBIER"}, "type": "Feature"}, {"geometry": {"coordinates": [-1.698129, 48.128788], "type": "Point"}, "properties": {"name": "CUCILLE", "lon": -1.698129, "status": "OPEN", "stands": 11, "bikes": 14, "update": "2016-02-06T13:17:08", "lat": 48.128788, "address": "CUCILLE"}, "type": "Feature"}, {"geometry": {"coordinates": [-1.712716, 48.104206], "type": "Point"}, "properties": {"name": "CLEUNAY", "lon": -1.712716, "status": "OPEN", "stands": 2, "bikes": 24, "update": "2016-02-06T13:17:08", "lat": 48.104206, "address": "CLEUNAY"}, "type": "Feature"}, {"geometry": {"coordinates": [-1.674116, 48.093292], "type": "Point"}, "properties": {"name": "CLEMENCEAU", "lon": -1.674116, "status": "OPEN", "stands": 10, "bikes": 12, "update": "2016-02-06T13:17:08", "lat": 48.093292, "address": "CLEMENCEAU"}, "type": "Feature"}, {"geometry": {"coordinates": [-1.68411, 48.10477], "type": "Point"}, "properties": {"name": "CITE JUDICIAIRE", "lon": -1.68411, "status": "OPEN", "stands": 11, "bikes": 13, "update": "2016-02-06T13:17:08", "lat": 48.10477, "address": "CITE JUDICIAIRE"}, "type": "Feature"}, {"geometry": {"coordinates": [-1.65012, 48.104355], "type": "Point"}, "properties": {"name": "CIMETIERE EST", "lon": -1.65012, "status": "OPEN", "stands": 11, "bikes": 7, "update": "2016-02-06T13:17:08", "lat": 48.104355, "address": "CIMETIERE EST"}, "type": "Feature"}, {"geometry": {"coordinates": [-1.693404, 48.10887], "type": "Point"}, "properties": {"name": "CHEQUES POSTAUX", "lon": -1.693404, "status": "OPEN", "stands": 8, "bikes": 14, "update": "2016-02-06T13:17:08", "lat": 48.10887, "address": "CHEQUES POSTAUX"}, "type": "Feature"}, {"geometry": {"coordinates": [-1.677119, 48.10511], "type": "Point"}, "properties": {"name": "CHARLES DE GAULLE", "lon": -1.677119, "status": "OPEN", "stands": 20, "bikes": 4, "update": "2016-02-06T13:17:08", "lat": 48.10511, "address": "CHARLES DE GAULLE"}, "type": "Feature"}, {"geometry": {"coordinates": [-1.682285, 48.091114], "type": "Point"}, "properties": {"name": "CHAMPS MANCEAUX", "lon": -1.682285, "status": "OPEN", "stands": 16, "bikes": 2, "update": "2016-02-06T13:17:08", "lat": 48.091114, "address": "CHAMPS MANCEAUX"}, "type": "Feature"}, {"geometry": {"coordinates": [-1.674328, 48.105537], "type": "Point"}, "properties": {"name": "CHAMPS LIBRES", "lon": -1.674328, "status": "OPEN", "stands": 17, "bikes": 7, "update": "2016-02-06T13:17:08", "lat": 48.105537, "address": "CHAMPS LIBRES"}, "type": "Feature"}, {"geometry": {"coordinates": [-1.680062, 48.112762], "type": "Point"}, "properties": {"name": "CHAMP JACQUET", "lon": -1.680062, "status": "OPEN", "stands": 12, "bikes": 12, "update": "2016-02-06T13:17:08", "lat": 48.112762, "address": "CHAMP JACQUET"}, "type": "Feature"}, {"geometry": {"coordinates": [-1.693274, 48.113014], "type": "Point"}, "properties": {"name": "BREST VERDUN", "lon": -1.693274, "status": "OPEN", "stands": 2, "bikes": 14, "update": "2016-02-06T13:17:08", "lat": 48.113014, "address": "BREST VERDUN"}, "type": "Feature"}, {"geometry": {"coordinates": [-1.635134, 48.12873], "type": "Point"}, "properties": {"name": "BOUZAT", "lon": -1.635134, "status": "OPEN", "stands": 6, "bikes": 11, "update": "2016-02-06T13:17:08", "lat": 48.12873, "address": "BOUZAT"}, "type": "Feature"}, {"geometry": {"coordinates": [-1.667321, 48.091595], "type": "Point"}, "properties": {"name": "BINQUENAIS", "lon": -1.667321, "status": "OPEN", "stands": 5, "bikes": 10, "update": "2016-02-06T13:17:08", "lat": 48.091595, "address": "BINQUENAIS"}, "type": "Feature"}, {"geometry": {"coordinates": [-1.705097, 48.116314], "type": "Point"}, "properties": {"name": "BERGER", "lon": -1.705097, "status": "OPEN", "stands": 4, "bikes": 10, "update": "2016-02-06T13:17:08", "lat": 48.116314, "address": "BERGER"}, "type": "Feature"}, {"geometry": {"coordinates": [-1.638368, 48.122047], "type": "Point"}, "properties": {"name": "BEAULIEU RESTAU U", "lon": -1.638368, "status": "CLOSED", "stands": 0, "bikes": 0, "update": "2016-02-06T13:17:08", "lat": 48.122047, "address": "BEAULIEU RESTAU U"}, "type": "Feature"}, {"geometry": {"coordinates": [-1.633875, 48.11646], "type": "Point"}, "properties": {"name": "BEAULIEU CHIMIE", "lon": -1.633875, "status": "OPEN", "stands": 14, "bikes": 16, "update": "2016-02-06T13:17:08", "lat": 48.11646, "address": "BEAULIEU CHIMIE"}, "type": "Feature"}, {"geometry": {"coordinates": [-1.642935, 48.118015], "type": "Point"}, "properties": {"name": "BEAULIEU DIAPASON", "lon": -1.642935, "status": "OPEN", "stands": 23, "bikes": 7, "update": "2016-02-06T13:17:08", "lat": 48.118015, "address": "BEAULIEU DIAPASON"}, "type": "Feature"}, {"geometry": {"coordinates": [-1.681876, 48.120876], "type": "Point"}, "properties": {"name": "AUBERGE DE JEUNESSE", "lon": -1.681876, "status": "OPEN", "stands": 5, "bikes": 13, "update": "2016-02-06T13:17:08", "lat": 48.120876, "address": "AUBERGE DE JEUNESSE"}, "type": "Feature"}, {"geometry": {"coordinates": [-1.713729, 48.116123], "type": "Point"}, "properties": {"name": "ATALANTE CHAMPEAUX", "lon": -1.713729, "status": "OPEN", "stands": 22, "bikes": 8, "update": "2016-02-06T13:17:08", "lat": 48.116123, "address": "ATALANTE CHAMPEAUX"}, "type": "Feature"}, {"geometry": {"coordinates": [-1.686465, 48.118], "type": "Point"}, "properties": {"name": "ANATOLE FRANCE", "lon": -1.686465, "status": "OPEN", "stands": 8, "bikes": 6, "update": "2016-02-06T13:17:08", "lat": 48.118, "address": "ANATOLE FRANCE"}, "type": "Feature"}, {"geometry": {"coordinates": [-1.677634, 48.082397], "type": "Point"}, "properties": {"name": "ALMA", "lon": -1.677634, "status": "OPEN", "stands": 9, "bikes": 11, "update": "2016-02-06T13:17:08", "lat": 48.082397, "address": "ALMA"}, "type": "Feature"}, {"geometry": {"coordinates": [-1.640468, 48.092785], "type": "Point"}, "properties": {"name": "RONCERAY", "lon": -1.640468, "status": "OPEN", "stands": 0, "bikes": 0, "update": "2016-02-06T13:17:08", "lat": 48.092785, "address": "RONCERAY"}, "type": "Feature"}, {"geometry": {"coordinates": [-1.644126, 48.087276], "type": "Point"}, "properties": {"name": "LA POTERIE", "lon": -1.644126, "status": "OPEN", "stands": 5, "bikes": 23, "update": "2016-02-06T13:17:08", "lat": 48.087276, "address": "LA POTERIE"}, "type": "Feature"}, {"geometry": {"coordinates": [-1.691598, 48.119186], "type": "Point"}, "properties": {"name": "PONTCHAILLOU (TER)", "lon": -1.691598, "status": "OPEN", "stands": 12, "bikes": 12, "update": "2016-02-06T13:17:08", "lat": 48.119186, "address": "PONTCHAILLOU (TER)"}, "type": "Feature"}, {"geometry": {"coordinates": [-1.674006, 48.103832], "type": "Point"}, "properties": {"name": "GARE BEAUMONT", "lon": -1.674006, "status": "OPEN", "stands": 18, "bikes": 6, "update": "2016-02-06T13:17:08", "lat": 48.103832, "address": "GARE BEAUMONT"}, "type": "Feature"}, {"geometry": {"coordinates": [-1.694523, 48.098909], "type": "Point"}, "properties": {"name": "LA COURROUZE", "lon": -1.694523, "status": "OPEN", "stands": 10, "bikes": 10, "update": "2016-02-06T13:17:08", "lat": 48.098909, "address": "LA COURROUZE"}, "type": "Feature"}], "type": "FeatureCollection"}