{"type": "FeatureCollection", "features": [{"type": "Feature", "properties": {"status": "OPEN", "lon": -1.635198, "address": "ZAC SAINT SULPICE", "name": "ZAC SAINT SULPICE", "bikes": 12, "lat": 48.13213, "stands": 18, "update": "2016-02-06T17:55:08"}, "geometry": {"type": "Point", "coordinates": [-1.635198, 48.13213]}}, {"type": "Feature", "properties": {"status": "OPEN", "lon": -1.704122, "address": "VILLEJEAN-UNIVERSITE", "name": "VILLEJEAN-UNIVERSITE", "bikes": 3, "lat": 48.121075, "stands": 22, "update": "2016-02-06T17:55:08"}, "geometry": {"type": "Point", "coordinates": [-1.704122, 48.121075]}}, {"type": "Feature", "properties": {"status": "OPEN", "lon": -1.651085, "address": "TURMEL", "name": "TURMEL", "bikes": 13, "lat": 48.12247, "stands": 3, "update": "2016-02-06T17:55:08"}, "geometry": {"type": "Point", "coordinates": [-1.651085, 48.12247]}}, {"type": "Feature", "properties": {"status": "OPEN", "lon": -1.673711, "address": "TNB", "name": "TNB", "bikes": 24, "lat": 48.107746, "stands": 4, "update": "2016-02-06T17:55:08"}, "geometry": {"type": "Point", "coordinates": [-1.673711, 48.107746]}}, {"type": "Feature", "properties": {"status": "OPEN", "lon": -1.663731, "address": "SAINTE THERESE", "name": "SAINTE THERESE", "bikes": 7, "lat": 48.094986, "stands": 5, "update": "2016-02-06T17:55:08"}, "geometry": {"type": "Point", "coordinates": [-1.663731, 48.094986]}}, {"type": "Feature", "properties": {"status": "OPEN", "lon": -1.680984, "address": "SAINTE-ANNE", "name": "SAINTE-ANNE", "bikes": 4, "lat": 48.1145, "stands": 20, "update": "2016-02-06T17:55:08"}, "geometry": {"type": "Point", "coordinates": [-1.680984, 48.1145]}}, {"type": "Feature", "properties": {"status": "OPEN", "lon": -1.674417, "address": "SAINT GEORGES", "name": "SAINT GEORGES", "bikes": 12, "lat": 48.112385, "stands": 6, "update": "2016-02-06T17:55:08"}, "geometry": {"type": "Point", "coordinates": [-1.674417, 48.112385]}}, {"type": "Feature", "properties": {"status": "OPEN", "lon": -1.68677, "address": "ROTONDE", "name": "ROTONDE", "bikes": 14, "lat": 48.10665, "stands": 6, "update": "2016-02-06T17:55:08"}, "geometry": {"type": "Point", "coordinates": [-1.68677, 48.10665]}}, {"type": "Feature", "properties": {"status": "OPEN", "lon": -1.678037, "address": "REPUBLIQUE", "name": "REPUBLIQUE", "bikes": 26, "lat": 48.110027, "stands": 4, "update": "2016-02-06T17:55:08"}, "geometry": {"type": "Point", "coordinates": [-1.678037, 48.110027]}}, {"type": "Feature", "properties": {"status": "OPEN", "lon": -1.67449, "address": "RECTORAT", "name": "RECTORAT", "bikes": 9, "lat": 48.119377, "stands": 8, "update": "2016-02-06T17:55:08"}, "geometry": {"type": "Point", "coordinates": [-1.67449, 48.119377]}}, {"type": "Feature", "properties": {"status": "OPEN", "lon": -1.694032, "address": "PREFECTURE", "name": "PREFECTURE", "bikes": 8, "lat": 48.128452, "stands": 19, "update": "2016-02-06T17:55:08"}, "geometry": {"type": "Point", "coordinates": [-1.694032, 48.128452]}}, {"type": "Feature", "properties": {"status": "OPEN", "lon": -1.692737, "address": "PONTCHAILLOU", "name": "PONTCHAILLOU", "bikes": 11, "lat": 48.12148, "stands": 17, "update": "2016-02-06T17:55:08"}, "geometry": {"type": "Point", "coordinates": [-1.692737, 48.12148]}}, {"type": "Feature", "properties": {"status": "OPEN", "lon": -1.659299, "address": "ROBIDOU", "name": "ROBIDOU", "bikes": 11, "lat": 48.10998, "stands": 9, "update": "2016-02-06T17:55:08"}, "geometry": {"type": "Point", "coordinates": [-1.659299, 48.10998]}}, {"type": "Feature", "properties": {"status": "OPEN", "lon": -1.684015, "address": "PONT DE NANTES", "name": "PONT DE NANTES", "bikes": 18, "lat": 48.102016, "stands": 2, "update": "2016-02-06T17:55:08"}, "geometry": {"type": "Point", "coordinates": [-1.684015, 48.102016]}}, {"type": "Feature", "properties": {"status": "OPEN", "lon": -1.664332, "address": "PONT DE CHATEAUDUN", "name": "PONT DE CHATEAUDUN", "bikes": 9, "lat": 48.11026, "stands": 11, "update": "2016-02-06T17:55:08"}, "geometry": {"type": "Point", "coordinates": [-1.664332, 48.11026]}}, {"type": "Feature", "properties": {"status": "OPEN", "lon": -1.681374, "address": "PLELO COLOMBIER", "name": "PLELO COLOMBIER", "bikes": 6, "lat": 48.105896, "stands": 12, "update": "2016-02-06T17:55:08"}, "geometry": {"type": "Point", "coordinates": [-1.681374, 48.105896]}}, {"type": "Feature", "properties": {"status": "OPEN", "lon": -1.677073, "address": "PLACE HOCHE", "name": "PLACE HOCHE", "bikes": 5, "lat": 48.115074, "stands": 19, "update": "2016-02-06T17:55:08"}, "geometry": {"type": "Point", "coordinates": [-1.677073, 48.115074]}}, {"type": "Feature", "properties": {"status": "OPEN", "lon": -1.684019, "address": "PLACE DE BRETAGNE", "name": "PLACE DE BRETAGNE", "bikes": 20, "lat": 48.10962, "stands": 0, "update": "2016-02-06T17:55:08"}, "geometry": {"type": "Point", "coordinates": [-1.684019, 48.10962]}}, {"type": "Feature", "properties": {"status": "OPEN", "lon": -1.651576, "address": "PISCINE GAYEULLES", "name": "PISCINE GAYEULLES", "bikes": 3, "lat": 48.13461, "stands": 23, "update": "2016-02-06T17:55:08"}, "geometry": {"type": "Point", "coordinates": [-1.651576, 48.13461]}}, {"type": "Feature", "properties": {"status": "OPEN", "lon": -1.690242, "address": "PISCINE BREQUIGNY", "name": "PISCINE BREQUIGNY", "bikes": 7, "lat": 48.089622, "stands": 17, "update": "2016-02-06T17:55:08"}, "geometry": {"type": "Point", "coordinates": [-1.690242, 48.089622]}}, {"type": "Feature", "properties": {"status": "OPEN", "lon": -1.662322, "address": "PIERRE MARTIN", "name": "PIERRE MARTIN", "bikes": 14, "lat": 48.1035, "stands": 6, "update": "2016-02-06T17:55:08"}, "geometry": {"type": "Point", "coordinates": [-1.662322, 48.1035]}}, {"type": "Feature", "properties": {"status": "OPEN", "lon": -1.670039, "address": "PAUL BERT", "name": "PAUL BERT", "bikes": 4, "lat": 48.110115, "stands": 12, "update": "2016-02-06T17:55:08"}, "geometry": {"type": "Point", "coordinates": [-1.670039, 48.110115]}}, {"type": "Feature", "properties": {"status": "OPEN", "lon": -1.660547, "address": "PAINLEVE", "name": "PAINLEVE", "bikes": 7, "lat": 48.122993, "stands": 9, "update": "2016-02-06T17:55:08"}, "geometry": {"type": "Point", "coordinates": [-1.660547, 48.122993]}}, {"type": "Feature", "properties": {"status": "OPEN", "lon": -1.683106, "address": "OFFICE DE TOURISME", "name": "OFFICE DE TOURISME", "bikes": 10, "lat": 48.110294, "stands": 0, "update": "2016-02-06T17:55:08"}, "geometry": {"type": "Point", "coordinates": [-1.683106, 48.110294]}}, {"type": "Feature", "properties": {"status": "OPEN", "lon": -1.661858, "address": "OBERTHUR", "name": "OBERTHUR", "bikes": 9, "lat": 48.11355, "stands": 11, "update": "2016-02-06T17:55:08"}, "geometry": {"type": "Point", "coordinates": [-1.661858, 48.11355]}}, {"type": "Feature", "properties": {"status": "OPEN", "lon": -1.674081, "address": "MUSEE BEAUX ARTS", "name": "MUSEE BEAUX ARTS", "bikes": 15, "lat": 48.1096, "stands": 1, "update": "2016-02-06T17:55:08"}, "geometry": {"type": "Point", "coordinates": [-1.674081, 48.1096]}}, {"type": "Feature", "properties": {"status": "OPEN", "lon": -1.643861, "address": "PLAINE DE BAUD", "name": "PLAINE DE BAUD", "bikes": 12, "lat": 48.112488, "stands": 12, "update": "2016-02-06T17:55:08"}, "geometry": {"type": "Point", "coordinates": [-1.643861, 48.112488]}}, {"type": "Feature", "properties": {"status": "OPEN", "lon": -1.66667, "address": "MONTS D'ARREE", "name": "MONTS D'ARREE", "bikes": 2, "lat": 48.1367, "stands": 12, "update": "2016-02-06T17:55:08"}, "geometry": {"type": "Point", "coordinates": [-1.66667, 48.1367]}}, {"type": "Feature", "properties": {"status": "OPEN", "lon": -1.658258, "address": "METZ SEVIGNE", "name": "METZ SEVIGNE", "bikes": 8, "lat": 48.115993, "stands": 8, "update": "2016-02-06T17:55:08"}, "geometry": {"type": "Point", "coordinates": [-1.658258, 48.115993]}}, {"type": "Feature", "properties": {"status": "OPEN", "lon": -1.688143, "address": "MERMOZ", "name": "MERMOZ", "bikes": 1, "lat": 48.097927, "stands": 11, "update": "2016-02-06T17:55:08"}, "geometry": {"type": "Point", "coordinates": [-1.688143, 48.097927]}}, {"type": "Feature", "properties": {"status": "OPEN", "lon": -1.702077, "address": "MARBEUF", "name": "MARBEUF", "bikes": 11, "lat": 48.111748, "stands": 9, "update": "2016-02-06T17:55:08"}, "geometry": {"type": "Point", "coordinates": [-1.702077, 48.111748]}}, {"type": "Feature", "properties": {"status": "OPEN", "lon": -1.698107, "address": "VOLTAIRE", "name": "VOLTAIRE", "bikes": 6, "lat": 48.10524, "stands": 10, "update": "2016-02-06T17:55:08"}, "geometry": {"type": "Point", "coordinates": [-1.698107, 48.10524]}}, {"type": "Feature", "properties": {"status": "OPEN", "lon": -1.678757, "address": "MAIRIE", "name": "MAIRIE", "bikes": 21, "lat": 48.111626, "stands": 3, "update": "2016-02-06T17:55:08"}, "geometry": {"type": "Point", "coordinates": [-1.678757, 48.111626]}}, {"type": "Feature", "properties": {"status": "OPEN", "lon": -1.678163, "address": "LIBERTE", "name": "LIBERTE", "bikes": 16, "lat": 48.107513, "stands": 8, "update": "2016-02-06T17:55:08"}, "geometry": {"type": "Point", "coordinates": [-1.678163, 48.107513]}}, {"type": "Feature", "properties": {"status": "OPEN", "lon": -1.685037, "address": "LES LICES", "name": "LES LICES", "bikes": 19, "lat": 48.112766, "stands": 1, "update": "2016-02-06T17:55:08"}, "geometry": {"type": "Point", "coordinates": [-1.685037, 48.112766]}}, {"type": "Feature", "properties": {"status": "OPEN", "lon": -1.680085, "address": "LES HALLES", "name": "LES HALLES", "bikes": 13, "lat": 48.107624, "stands": 2, "update": "2016-02-06T17:55:08"}, "geometry": {"type": "Point", "coordinates": [-1.680085, 48.107624]}}, {"type": "Feature", "properties": {"status": "OPEN", "lon": -1.665817, "address": "LAENNEC", "name": "LAENNEC", "bikes": 7, "lat": 48.106846, "stands": 9, "update": "2016-02-06T17:55:08"}, "geometry": {"type": "Point", "coordinates": [-1.665817, 48.106846]}}, {"type": "Feature", "properties": {"status": "OPEN", "lon": -1.690944, "address": "LA TOUCHE", "name": "LA TOUCHE", "bikes": 12, "lat": 48.116608, "stands": 3, "update": "2016-02-06T17:55:08"}, "geometry": {"type": "Point", "coordinates": [-1.690944, 48.116608]}}, {"type": "Feature", "properties": {"status": "OPEN", "lon": -1.710315, "address": "LA HARPE", "name": "LA HARPE", "bikes": 17, "lat": 48.125618, "stands": 6, "update": "2016-02-06T17:55:08"}, "geometry": {"type": "Point", "coordinates": [-1.710315, 48.125618]}}, {"type": "Feature", "properties": {"status": "OPEN", "lon": -1.671152, "address": "JULES FERRY", "name": "JULES FERRY", "bikes": 14, "lat": 48.12137, "stands": 2, "update": "2016-02-06T17:55:08"}, "geometry": {"type": "Point", "coordinates": [-1.671152, 48.12137]}}, {"type": "Feature", "properties": {"status": "OPEN", "lon": -1.709933, "address": "J.F. KENNEDY", "name": "J.F. KENNEDY", "bikes": 8, "lat": 48.121468, "stands": 16, "update": "2016-02-06T17:55:08"}, "geometry": {"type": "Point", "coordinates": [-1.709933, 48.121468]}}, {"type": "Feature", "properties": {"status": "OPEN", "lon": -1.674306, "address": "JACQUES CARTIER", "name": "JACQUES CARTIER", "bikes": 9, "lat": 48.09753, "stands": 15, "update": "2016-02-06T17:55:08"}, "geometry": {"type": "Point", "coordinates": [-1.674306, 48.09753]}}, {"type": "Feature", "properties": {"status": "OPEN", "lon": -1.667568, "address": "ITALIE", "name": "ITALIE", "bikes": 6, "lat": 48.08674, "stands": 10, "update": "2016-02-06T17:55:08"}, "geometry": {"type": "Point", "coordinates": [-1.667568, 48.08674]}}, {"type": "Feature", "properties": {"status": "OPEN", "lon": -1.663173, "address": "HOUX CITE U", "name": "HOUX CITE U", "bikes": 7, "lat": 48.130524, "stands": 7, "update": "2016-02-06T17:55:08"}, "geometry": {"type": "Point", "coordinates": [-1.663173, 48.130524]}}, {"type": "Feature", "properties": {"status": "OPEN", "lon": -1.677849, "address": "HOTEL DIEU", "name": "HOTEL DIEU", "bikes": 10, "lat": 48.117596, "stands": 14, "update": "2016-02-06T17:55:08"}, "geometry": {"type": "Point", "coordinates": [-1.677849, 48.117596]}}, {"type": "Feature", "properties": {"status": "OPEN", "lon": -1.688502, "address": "HORIZONS", "name": "HORIZONS", "bikes": 6, "lat": 48.112064, "stands": 8, "update": "2016-02-06T17:55:08"}, "geometry": {"type": "Point", "coordinates": [-1.688502, 48.112064]}}, {"type": "Feature", "properties": {"status": "OPEN", "lon": -1.67485, "address": "HENRI FREVILLE", "name": "HENRI FREVILLE", "bikes": 13, "lat": 48.087337, "stands": 11, "update": "2016-02-06T17:55:08"}, "geometry": {"type": "Point", "coordinates": [-1.67485, 48.087337]}}, {"type": "Feature", "properties": {"status": "OPEN", "lon": -1.665101, "address": "GROS CHENE", "name": "GROS CHENE", "bikes": 4, "lat": 48.126797, "stands": 14, "update": "2016-02-06T17:55:08"}, "geometry": {"type": "Point", "coordinates": [-1.665101, 48.126797]}}, {"type": "Feature", "properties": {"status": "OPEN", "lon": -1.709492, "address": "GENIAUX", "name": "GENIAUX", "bikes": 10, "lat": 48.10893, "stands": 5, "update": "2016-02-06T17:55:08"}, "geometry": {"type": "Point", "coordinates": [-1.709492, 48.10893]}}, {"type": "Feature", "properties": {"status": "OPEN", "lon": -1.673133, "address": "GARES (SUD)", "name": "GARES (SUD)", "bikes": 7, "lat": 48.10225, "stands": 13, "update": "2016-02-06T17:55:08"}, "geometry": {"type": "Point", "coordinates": [-1.673133, 48.10225]}}, {"type": "Feature", "properties": {"status": "OPEN", "lon": -1.671268, "address": "GARE SOLFERINO", "name": "GARE SOLFERINO", "bikes": 16, "lat": 48.104156, "stands": 19, "update": "2016-02-06T17:55:08"}, "geometry": {"type": "Point", "coordinates": [-1.671268, 48.104156]}}, {"type": "Feature", "properties": {"status": "OPEN", "lon": -1.670736, "address": "FAC DE DROIT", "name": "FAC DE DROIT", "bikes": 10, "lat": 48.11817, "stands": 16, "update": "2016-02-06T17:55:08"}, "geometry": {"type": "Point", "coordinates": [-1.670736, 48.11817]}}, {"type": "Feature", "properties": {"status": "OPEN", "lon": -1.666227, "address": "GUEHENNO-FOUGERES", "name": "GUEHENNO-FOUGERES", "bikes": 3, "lat": 48.11984, "stands": 13, "update": "2016-02-06T17:55:08"}, "geometry": {"type": "Point", "coordinates": [-1.666227, 48.11984]}}, {"type": "Feature", "properties": {"status": "OPEN", "lon": -1.682697, "address": "DINAN", "name": "DINAN", "bikes": 11, "lat": 48.117214, "stands": 5, "update": "2016-02-06T17:55:08"}, "geometry": {"type": "Point", "coordinates": [-1.682697, 48.117214]}}, {"type": "Feature", "properties": {"status": "OPEN", "lon": -1.707086, "address": "DE LESSEPS", "name": "DE LESSEPS", "bikes": 12, "lat": 48.100956, "stands": 10, "update": "2016-02-06T17:55:08"}, "geometry": {"type": "Point", "coordinates": [-1.707086, 48.100956]}}, {"type": "Feature", "properties": {"status": "OPEN", "lon": -1.67868, "address": "DALLE DU COLOMBIER", "name": "DALLE DU COLOMBIER", "bikes": 4, "lat": 48.10512, "stands": 15, "update": "2016-02-06T17:55:08"}, "geometry": {"type": "Point", "coordinates": [-1.67868, 48.10512]}}, {"type": "Feature", "properties": {"status": "OPEN", "lon": -1.698129, "address": "CUCILLE", "name": "CUCILLE", "bikes": 13, "lat": 48.128788, "stands": 12, "update": "2016-02-06T17:55:08"}, "geometry": {"type": "Point", "coordinates": [-1.698129, 48.128788]}}, {"type": "Feature", "properties": {"status": "OPEN", "lon": -1.712716, "address": "CLEUNAY", "name": "CLEUNAY", "bikes": 9, "lat": 48.104206, "stands": 17, "update": "2016-02-06T17:55:08"}, "geometry": {"type": "Point", "coordinates": [-1.712716, 48.104206]}}, {"type": "Feature", "properties": {"status": "OPEN", "lon": -1.674116, "address": "CLEMENCEAU", "name": "CLEMENCEAU", "bikes": 8, "lat": 48.093292, "stands": 14, "update": "2016-02-06T17:55:08"}, "geometry": {"type": "Point", "coordinates": [-1.674116, 48.093292]}}, {"type": "Feature", "properties": {"status": "OPEN", "lon": -1.68411, "address": "CITE JUDICIAIRE", "name": "CITE JUDICIAIRE", "bikes": 10, "lat": 48.10477, "stands": 14, "update": "2016-02-06T17:55:08"}, "geometry": {"type": "Point", "coordinates": [-1.68411, 48.10477]}}, {"type": "Feature", "properties": {"status": "OPEN", "lon": -1.65012, "address": "CIMETIERE EST", "name": "CIMETIERE EST", "bikes": 4, "lat": 48.104355, "stands": 14, "update": "2016-02-06T17:55:08"}, "geometry": {"type": "Point", "coordinates": [-1.65012, 48.104355]}}, {"type": "Feature", "properties": {"status": "OPEN", "lon": -1.693404, "address": "CHEQUES POSTAUX", "name": "CHEQUES POSTAUX", "bikes": 12, "lat": 48.10887, "stands": 10, "update": "2016-02-06T17:55:08"}, "geometry": {"type": "Point", "coordinates": [-1.693404, 48.10887]}}, {"type": "Feature", "properties": {"status": "OPEN", "lon": -1.677119, "address": "CHARLES DE GAULLE", "name": "CHARLES DE GAULLE", "bikes": 11, "lat": 48.10511, "stands": 13, "update": "2016-02-06T17:55:08"}, "geometry": {"type": "Point", "coordinates": [-1.677119, 48.10511]}}, {"type": "Feature", "properties": {"status": "OPEN", "lon": -1.682285, "address": "CHAMPS MANCEAUX", "name": "CHAMPS MANCEAUX", "bikes": 4, "lat": 48.091114, "stands": 14, "update": "2016-02-06T17:55:08"}, "geometry": {"type": "Point", "coordinates": [-1.682285, 48.091114]}}, {"type": "Feature", "properties": {"status": "OPEN", "lon": -1.674328, "address": "CHAMPS LIBRES", "name": "CHAMPS LIBRES", "bikes": 10, "lat": 48.105537, "stands": 14, "update": "2016-02-06T17:55:08"}, "geometry": {"type": "Point", "coordinates": [-1.674328, 48.105537]}}, {"type": "Feature", "properties": {"status": "OPEN", "lon": -1.680062, "address": "CHAMP JACQUET", "name": "CHAMP JACQUET", "bikes": 12, "lat": 48.112762, "stands": 12, "update": "2016-02-06T17:55:08"}, "geometry": {"type": "Point", "coordinates": [-1.680062, 48.112762]}}, {"type": "Feature", "properties": {"status": "OPEN", "lon": -1.693274, "address": "BREST VERDUN", "name": "BREST VERDUN", "bikes": 11, "lat": 48.113014, "stands": 5, "update": "2016-02-06T17:55:08"}, "geometry": {"type": "Point", "coordinates": [-1.693274, 48.113014]}}, {"type": "Feature", "properties": {"status": "OPEN", "lon": -1.635134, "address": "BOUZAT", "name": "BOUZAT", "bikes": 10, "lat": 48.12873, "stands": 7, "update": "2016-02-06T17:55:08"}, "geometry": {"type": "Point", "coordinates": [-1.635134, 48.12873]}}, {"type": "Feature", "properties": {"status": "OPEN", "lon": -1.667321, "address": "BINQUENAIS", "name": "BINQUENAIS", "bikes": 9, "lat": 48.091595, "stands": 6, "update": "2016-02-06T17:55:08"}, "geometry": {"type": "Point", "coordinates": [-1.667321, 48.091595]}}, {"type": "Feature", "properties": {"status": "OPEN", "lon": -1.705097, "address": "BERGER", "name": "BERGER", "bikes": 6, "lat": 48.116314, "stands": 8, "update": "2016-02-06T17:55:08"}, "geometry": {"type": "Point", "coordinates": [-1.705097, 48.116314]}}, {"type": "Feature", "properties": {"status": "CLOSED", "lon": -1.638368, "address": "BEAULIEU RESTAU U", "name": "BEAULIEU RESTAU U", "bikes": 0, "lat": 48.122047, "stands": 0, "update": "2016-02-06T17:55:08"}, "geometry": {"type": "Point", "coordinates": [-1.638368, 48.122047]}}, {"type": "Feature", "properties": {"status": "OPEN", "lon": -1.633875, "address": "BEAULIEU CHIMIE", "name": "BEAULIEU CHIMIE", "bikes": 14, "lat": 48.11646, "stands": 16, "update": "2016-02-06T17:55:08"}, "geometry": {"type": "Point", "coordinates": [-1.633875, 48.11646]}}, {"type": "Feature", "properties": {"status": "OPEN", "lon": -1.642935, "address": "BEAULIEU DIAPASON", "name": "BEAULIEU DIAPASON", "bikes": 6, "lat": 48.118015, "stands": 24, "update": "2016-02-06T17:55:08"}, "geometry": {"type": "Point", "coordinates": [-1.642935, 48.118015]}}, {"type": "Feature", "properties": {"status": "OPEN", "lon": -1.681876, "address": "AUBERGE DE JEUNESSE", "name": "AUBERGE DE JEUNESSE", "bikes": 18, "lat": 48.120876, "stands": 0, "update": "2016-02-06T17:55:08"}, "geometry": {"type": "Point", "coordinates": [-1.681876, 48.120876]}}, {"type": "Feature", "properties": {"status": "OPEN", "lon": -1.713729, "address": "ATALANTE CHAMPEAUX", "name": "ATALANTE CHAMPEAUX", "bikes": 6, "lat": 48.116123, "stands": 24, "update": "2016-02-06T17:55:08"}, "geometry": {"type": "Point", "coordinates": [-1.713729, 48.116123]}}, {"type": "Feature", "properties": {"status": "OPEN", "lon": -1.686465, "address": "ANATOLE FRANCE", "name": "ANATOLE FRANCE", "bikes": 5, "lat": 48.118, "stands": 9, "update": "2016-02-06T17:55:08"}, "geometry": {"type": "Point", "coordinates": [-1.686465, 48.118]}}, {"type": "Feature", "properties": {"status": "OPEN", "lon": -1.677634, "address": "ALMA", "name": "ALMA", "bikes": 5, "lat": 48.082397, "stands": 15, "update": "2016-02-06T17:55:08"}, "geometry": {"type": "Point", "coordinates": [-1.677634, 48.082397]}}, {"type": "Feature", "properties": {"status": "OPEN", "lon": -1.640468, "address": "RONCERAY", "name": "RONCERAY", "bikes": 0, "lat": 48.092785, "stands": 0, "update": "2016-02-06T17:55:08"}, "geometry": {"type": "Point", "coordinates": [-1.640468, 48.092785]}}, {"type": "Feature", "properties": {"status": "OPEN", "lon": -1.644126, "address": "LA POTERIE", "name": "LA POTERIE", "bikes": 10, "lat": 48.087276, "stands": 18, "update": "2016-02-06T17:55:08"}, "geometry": {"type": "Point", "coordinates": [-1.644126, 48.087276]}}, {"type": "Feature", "properties": {"status": "OPEN", "lon": -1.691598, "address": "PONTCHAILLOU (TER)", "name": "PONTCHAILLOU (TER)", "bikes": 10, "lat": 48.119186, "stands": 14, "update": "2016-02-06T17:55:08"}, "geometry": {"type": "Point", "coordinates": [-1.691598, 48.119186]}}, {"type": "Feature", "properties": {"status": "OPEN", "lon": -1.674006, "address": "GARE BEAUMONT", "name": "GARE BEAUMONT", "bikes": 6, "lat": 48.103832, "stands": 18, "update": "2016-02-06T17:55:08"}, "geometry": {"type": "Point", "coordinates": [-1.674006, 48.103832]}}, {"type": "Feature", "properties": {"status": "OPEN", "lon": -1.694523, "address": "LA COURROUZE", "name": "LA COURROUZE", "bikes": 6, "lat": 48.098909, "stands": 14, "update": "2016-02-06T17:55:08"}, "geometry": {"type": "Point", "coordinates": [-1.694523, 48.098909]}}]}