{"type": "FeatureCollection", "features": [{"type": "Feature", "properties": {"lon": -1.635198, "stands": 15, "update": "2016-02-05T16:25:08", "bikes": 15, "lat": 48.13213, "status": "OPEN", "address": "ZAC SAINT SULPICE", "name": "ZAC SAINT SULPICE"}, "geometry": {"type": "Point", "coordinates": [-1.635198, 48.13213]}}, {"type": "Feature", "properties": {"lon": -1.704122, "stands": 16, "update": "2016-02-05T16:25:08", "bikes": 10, "lat": 48.121075, "status": "OPEN", "address": "VILLEJEAN-UNIVERSITE", "name": "VILLEJEAN-UNIVERSITE"}, "geometry": {"type": "Point", "coordinates": [-1.704122, 48.121075]}}, {"type": "Feature", "properties": {"lon": -1.651085, "stands": 6, "update": "2016-02-05T16:25:08", "bikes": 10, "lat": 48.12247, "status": "OPEN", "address": "TURMEL", "name": "TURMEL"}, "geometry": {"type": "Point", "coordinates": [-1.651085, 48.12247]}}, {"type": "Feature", "properties": {"lon": -1.673711, "stands": 12, "update": "2016-02-05T16:26:01", "bikes": 16, "lat": 48.107746, "status": "OPEN", "address": "TNB", "name": "TNB"}, "geometry": {"type": "Point", "coordinates": [-1.673711, 48.107746]}}, {"type": "Feature", "properties": {"lon": -1.663731, "stands": 6, "update": "2016-02-05T16:25:08", "bikes": 6, "lat": 48.094986, "status": "OPEN", "address": "SAINTE THERESE", "name": "SAINTE THERESE"}, "geometry": {"type": "Point", "coordinates": [-1.663731, 48.094986]}}, {"type": "Feature", "properties": {"lon": -1.680984, "stands": 10, "update": "2016-02-05T16:26:01", "bikes": 14, "lat": 48.1145, "status": "OPEN", "address": "SAINTE-ANNE", "name": "SAINTE-ANNE"}, "geometry": {"type": "Point", "coordinates": [-1.680984, 48.1145]}}, {"type": "Feature", "properties": {"lon": -1.674417, "stands": 13, "update": "2016-02-05T16:25:08", "bikes": 5, "lat": 48.112385, "status": "OPEN", "address": "SAINT GEORGES", "name": "SAINT GEORGES"}, "geometry": {"type": "Point", "coordinates": [-1.674417, 48.112385]}}, {"type": "Feature", "properties": {"lon": -1.68677, "stands": 14, "update": "2016-02-05T16:25:08", "bikes": 6, "lat": 48.10665, "status": "OPEN", "address": "ROTONDE", "name": "ROTONDE"}, "geometry": {"type": "Point", "coordinates": [-1.68677, 48.10665]}}, {"type": "Feature", "properties": {"lon": -1.678037, "stands": 6, "update": "2016-02-05T16:25:08", "bikes": 24, "lat": 48.110027, "status": "OPEN", "address": "REPUBLIQUE", "name": "REPUBLIQUE"}, "geometry": {"type": "Point", "coordinates": [-1.678037, 48.110027]}}, {"type": "Feature", "properties": {"lon": -1.67449, "stands": 8, "update": "2016-02-05T16:25:08", "bikes": 10, "lat": 48.119377, "status": "OPEN", "address": "RECTORAT", "name": "RECTORAT"}, "geometry": {"type": "Point", "coordinates": [-1.67449, 48.119377]}}, {"type": "Feature", "properties": {"lon": -1.694032, "stands": 21, "update": "2016-02-05T16:25:08", "bikes": 6, "lat": 48.128452, "status": "OPEN", "address": "PREFECTURE", "name": "PREFECTURE"}, "geometry": {"type": "Point", "coordinates": [-1.694032, 48.128452]}}, {"type": "Feature", "properties": {"lon": -1.692737, "stands": 17, "update": "2016-02-05T16:25:08", "bikes": 11, "lat": 48.12148, "status": "OPEN", "address": "PONTCHAILLOU", "name": "PONTCHAILLOU"}, "geometry": {"type": "Point", "coordinates": [-1.692737, 48.12148]}}, {"type": "Feature", "properties": {"lon": -1.659299, "stands": 7, "update": "2016-02-05T16:25:08", "bikes": 13, "lat": 48.10998, "status": "OPEN", "address": "ROBIDOU", "name": "ROBIDOU"}, "geometry": {"type": "Point", "coordinates": [-1.659299, 48.10998]}}, {"type": "Feature", "properties": {"lon": -1.684015, "stands": 19, "update": "2016-02-05T16:25:08", "bikes": 1, "lat": 48.102016, "status": "OPEN", "address": "PONT DE NANTES", "name": "PONT DE NANTES"}, "geometry": {"type": "Point", "coordinates": [-1.684015, 48.102016]}}, {"type": "Feature", "properties": {"lon": -1.664332, "stands": 4, "update": "2016-02-05T16:25:08", "bikes": 16, "lat": 48.11026, "status": "OPEN", "address": "PONT DE CHATEAUDUN", "name": "PONT DE CHATEAUDUN"}, "geometry": {"type": "Point", "coordinates": [-1.664332, 48.11026]}}, {"type": "Feature", "properties": {"lon": -1.681374, "stands": 13, "update": "2016-02-05T16:25:08", "bikes": 5, "lat": 48.105896, "status": "OPEN", "address": "PLELO COLOMBIER", "name": "PLELO COLOMBIER"}, "geometry": {"type": "Point", "coordinates": [-1.681374, 48.105896]}}, {"type": "Feature", "properties": {"lon": -1.677073, "stands": 7, "update": "2016-02-05T16:25:08", "bikes": 17, "lat": 48.115074, "status": "OPEN", "address": "PLACE HOCHE", "name": "PLACE HOCHE"}, "geometry": {"type": "Point", "coordinates": [-1.677073, 48.115074]}}, {"type": "Feature", "properties": {"lon": -1.684019, "stands": 11, "update": "2016-02-05T16:25:08", "bikes": 9, "lat": 48.10962, "status": "OPEN", "address": "PLACE DE BRETAGNE", "name": "PLACE DE BRETAGNE"}, "geometry": {"type": "Point", "coordinates": [-1.684019, 48.10962]}}, {"type": "Feature", "properties": {"lon": -1.651576, "stands": 23, "update": "2016-02-05T16:25:08", "bikes": 3, "lat": 48.13461, "status": "OPEN", "address": "PISCINE GAYEULLES", "name": "PISCINE GAYEULLES"}, "geometry": {"type": "Point", "coordinates": [-1.651576, 48.13461]}}, {"type": "Feature", "properties": {"lon": -1.690242, "stands": 21, "update": "2016-02-05T16:25:08", "bikes": 3, "lat": 48.089622, "status": "OPEN", "address": "PISCINE BREQUIGNY", "name": "PISCINE BREQUIGNY"}, "geometry": {"type": "Point", "coordinates": [-1.690242, 48.089622]}}, {"type": "Feature", "properties": {"lon": -1.662322, "stands": 20, "update": "2016-02-05T16:25:08", "bikes": 0, "lat": 48.1035, "status": "OPEN", "address": "PIERRE MARTIN", "name": "PIERRE MARTIN"}, "geometry": {"type": "Point", "coordinates": [-1.662322, 48.1035]}}, {"type": "Feature", "properties": {"lon": -1.670039, "stands": 3, "update": "2016-02-05T16:25:08", "bikes": 13, "lat": 48.110115, "status": "OPEN", "address": "PAUL BERT", "name": "PAUL BERT"}, "geometry": {"type": "Point", "coordinates": [-1.670039, 48.110115]}}, {"type": "Feature", "properties": {"lon": -1.660547, "stands": 1, "update": "2016-02-05T16:25:08", "bikes": 17, "lat": 48.122993, "status": "OPEN", "address": "PAINLEVE", "name": "PAINLEVE"}, "geometry": {"type": "Point", "coordinates": [-1.660547, 48.122993]}}, {"type": "Feature", "properties": {"lon": -1.683106, "stands": 5, "update": "2016-02-05T16:25:08", "bikes": 5, "lat": 48.110294, "status": "OPEN", "address": "OFFICE DE TOURISME", "name": "OFFICE DE TOURISME"}, "geometry": {"type": "Point", "coordinates": [-1.683106, 48.110294]}}, {"type": "Feature", "properties": {"lon": -1.661858, "stands": 8, "update": "2016-02-05T16:25:08", "bikes": 12, "lat": 48.11355, "status": "OPEN", "address": "OBERTHUR", "name": "OBERTHUR"}, "geometry": {"type": "Point", "coordinates": [-1.661858, 48.11355]}}, {"type": "Feature", "properties": {"lon": -1.674081, "stands": 3, "update": "2016-02-05T16:25:08", "bikes": 13, "lat": 48.1096, "status": "OPEN", "address": "MUSEE BEAUX ARTS", "name": "MUSEE BEAUX ARTS"}, "geometry": {"type": "Point", "coordinates": [-1.674081, 48.1096]}}, {"type": "Feature", "properties": {"lon": -1.643861, "stands": 6, "update": "2016-02-05T16:25:08", "bikes": 18, "lat": 48.112488, "status": "OPEN", "address": "PLAINE DE BAUD", "name": "PLAINE DE BAUD"}, "geometry": {"type": "Point", "coordinates": [-1.643861, 48.112488]}}, {"type": "Feature", "properties": {"lon": -1.66667, "stands": 11, "update": "2016-02-05T16:25:08", "bikes": 3, "lat": 48.1367, "status": "OPEN", "address": "MONTS D'ARREE", "name": "MONTS D'ARREE"}, "geometry": {"type": "Point", "coordinates": [-1.66667, 48.1367]}}, {"type": "Feature", "properties": {"lon": -1.658258, "stands": 8, "update": "2016-02-05T16:25:08", "bikes": 8, "lat": 48.115993, "status": "OPEN", "address": "METZ SEVIGNE", "name": "METZ SEVIGNE"}, "geometry": {"type": "Point", "coordinates": [-1.658258, 48.115993]}}, {"type": "Feature", "properties": {"lon": -1.688143, "stands": 4, "update": "2016-02-05T16:25:08", "bikes": 8, "lat": 48.097927, "status": "OPEN", "address": "MERMOZ", "name": "MERMOZ"}, "geometry": {"type": "Point", "coordinates": [-1.688143, 48.097927]}}, {"type": "Feature", "properties": {"lon": -1.702077, "stands": 9, "update": "2016-02-05T16:25:08", "bikes": 11, "lat": 48.111748, "status": "OPEN", "address": "MARBEUF", "name": "MARBEUF"}, "geometry": {"type": "Point", "coordinates": [-1.702077, 48.111748]}}, {"type": "Feature", "properties": {"lon": -1.698107, "stands": 12, "update": "2016-02-05T16:25:08", "bikes": 3, "lat": 48.10524, "status": "OPEN", "address": "VOLTAIRE", "name": "VOLTAIRE"}, "geometry": {"type": "Point", "coordinates": [-1.698107, 48.10524]}}, {"type": "Feature", "properties": {"lon": -1.678757, "stands": 22, "update": "2016-02-05T16:25:08", "bikes": 2, "lat": 48.111626, "status": "OPEN", "address": "MAIRIE", "name": "MAIRIE"}, "geometry": {"type": "Point", "coordinates": [-1.678757, 48.111626]}}, {"type": "Feature", "properties": {"lon": -1.678163, "stands": 18, "update": "2016-02-05T16:25:08", "bikes": 6, "lat": 48.107513, "status": "OPEN", "address": "LIBERTE", "name": "LIBERTE"}, "geometry": {"type": "Point", "coordinates": [-1.678163, 48.107513]}}, {"type": "Feature", "properties": {"lon": -1.685037, "stands": 6, "update": "2016-02-05T16:25:08", "bikes": 14, "lat": 48.112766, "status": "OPEN", "address": "LES LICES", "name": "LES LICES"}, "geometry": {"type": "Point", "coordinates": [-1.685037, 48.112766]}}, {"type": "Feature", "properties": {"lon": -1.680085, "stands": 3, "update": "2016-02-05T16:25:08", "bikes": 12, "lat": 48.107624, "status": "OPEN", "address": "LES HALLES", "name": "LES HALLES"}, "geometry": {"type": "Point", "coordinates": [-1.680085, 48.107624]}}, {"type": "Feature", "properties": {"lon": -1.665817, "stands": 13, "update": "2016-02-05T16:25:08", "bikes": 3, "lat": 48.106846, "status": "OPEN", "address": "LAENNEC", "name": "LAENNEC"}, "geometry": {"type": "Point", "coordinates": [-1.665817, 48.106846]}}, {"type": "Feature", "properties": {"lon": -1.690944, "stands": 11, "update": "2016-02-05T16:25:08", "bikes": 5, "lat": 48.116608, "status": "OPEN", "address": "LA TOUCHE", "name": "LA TOUCHE"}, "geometry": {"type": "Point", "coordinates": [-1.690944, 48.116608]}}, {"type": "Feature", "properties": {"lon": -1.710315, "stands": 1, "update": "2016-02-05T16:25:08", "bikes": 24, "lat": 48.125618, "status": "OPEN", "address": "LA HARPE", "name": "LA HARPE"}, "geometry": {"type": "Point", "coordinates": [-1.710315, 48.125618]}}, {"type": "Feature", "properties": {"lon": -1.671152, "stands": 5, "update": "2016-02-05T16:25:08", "bikes": 11, "lat": 48.12137, "status": "OPEN", "address": "JULES FERRY", "name": "JULES FERRY"}, "geometry": {"type": "Point", "coordinates": [-1.671152, 48.12137]}}, {"type": "Feature", "properties": {"lon": -1.709933, "stands": 10, "update": "2016-02-05T16:25:08", "bikes": 14, "lat": 48.121468, "status": "OPEN", "address": "J.F. KENNEDY", "name": "J.F. KENNEDY"}, "geometry": {"type": "Point", "coordinates": [-1.709933, 48.121468]}}, {"type": "Feature", "properties": {"lon": -1.674306, "stands": 20, "update": "2016-02-05T16:25:08", "bikes": 4, "lat": 48.09753, "status": "OPEN", "address": "JACQUES CARTIER", "name": "JACQUES CARTIER"}, "geometry": {"type": "Point", "coordinates": [-1.674306, 48.09753]}}, {"type": "Feature", "properties": {"lon": -1.667568, "stands": 16, "update": "2016-02-05T16:25:08", "bikes": 0, "lat": 48.08674, "status": "OPEN", "address": "ITALIE", "name": "ITALIE"}, "geometry": {"type": "Point", "coordinates": [-1.667568, 48.08674]}}, {"type": "Feature", "properties": {"lon": -1.663173, "stands": 10, "update": "2016-02-05T16:25:08", "bikes": 4, "lat": 48.130524, "status": "OPEN", "address": "HOUX CITE U", "name": "HOUX CITE U"}, "geometry": {"type": "Point", "coordinates": [-1.663173, 48.130524]}}, {"type": "Feature", "properties": {"lon": -1.677849, "stands": 9, "update": "2016-02-05T16:25:08", "bikes": 15, "lat": 48.117596, "status": "OPEN", "address": "HOTEL DIEU", "name": "HOTEL DIEU"}, "geometry": {"type": "Point", "coordinates": [-1.677849, 48.117596]}}, {"type": "Feature", "properties": {"lon": -1.688502, "stands": 11, "update": "2016-02-05T16:25:08", "bikes": 3, "lat": 48.112064, "status": "OPEN", "address": "HORIZONS", "name": "HORIZONS"}, "geometry": {"type": "Point", "coordinates": [-1.688502, 48.112064]}}, {"type": "Feature", "properties": {"lon": -1.67485, "stands": 15, "update": "2016-02-05T16:25:08", "bikes": 9, "lat": 48.087337, "status": "OPEN", "address": "HENRI FREVILLE", "name": "HENRI FREVILLE"}, "geometry": {"type": "Point", "coordinates": [-1.67485, 48.087337]}}, {"type": "Feature", "properties": {"lon": -1.665101, "stands": 15, "update": "2016-02-05T16:25:08", "bikes": 3, "lat": 48.126797, "status": "OPEN", "address": "GROS CHENE", "name": "GROS CHENE"}, "geometry": {"type": "Point", "coordinates": [-1.665101, 48.126797]}}, {"type": "Feature", "properties": {"lon": -1.709492, "stands": 8, "update": "2016-02-05T16:25:08", "bikes": 7, "lat": 48.10893, "status": "OPEN", "address": "GENIAUX", "name": "GENIAUX"}, "geometry": {"type": "Point", "coordinates": [-1.709492, 48.10893]}}, {"type": "Feature", "properties": {"lon": -1.673133, "stands": 3, "update": "2016-02-05T16:25:08", "bikes": 17, "lat": 48.10225, "status": "OPEN", "address": "GARES (SUD)", "name": "GARES (SUD)"}, "geometry": {"type": "Point", "coordinates": [-1.673133, 48.10225]}}, {"type": "Feature", "properties": {"lon": -1.671268, "stands": 19, "update": "2016-02-05T16:25:08", "bikes": 15, "lat": 48.104156, "status": "OPEN", "address": "GARE SOLFERINO", "name": "GARE SOLFERINO"}, "geometry": {"type": "Point", "coordinates": [-1.671268, 48.104156]}}, {"type": "Feature", "properties": {"lon": -1.670736, "stands": 21, "update": "2016-02-05T16:25:08", "bikes": 5, "lat": 48.11817, "status": "OPEN", "address": "FAC DE DROIT", "name": "FAC DE DROIT"}, "geometry": {"type": "Point", "coordinates": [-1.670736, 48.11817]}}, {"type": "Feature", "properties": {"lon": -1.666227, "stands": 15, "update": "2016-02-05T16:25:08", "bikes": 1, "lat": 48.11984, "status": "OPEN", "address": "GUEHENNO-FOUGERES", "name": "GUEHENNO-FOUGERES"}, "geometry": {"type": "Point", "coordinates": [-1.666227, 48.11984]}}, {"type": "Feature", "properties": {"lon": -1.682697, "stands": 4, "update": "2016-02-05T16:25:08", "bikes": 12, "lat": 48.117214, "status": "OPEN", "address": "DINAN", "name": "DINAN"}, "geometry": {"type": "Point", "coordinates": [-1.682697, 48.117214]}}, {"type": "Feature", "properties": {"lon": -1.707086, "stands": 18, "update": "2016-02-05T16:25:08", "bikes": 4, "lat": 48.100956, "status": "OPEN", "address": "DE LESSEPS", "name": "DE LESSEPS"}, "geometry": {"type": "Point", "coordinates": [-1.707086, 48.100956]}}, {"type": "Feature", "properties": {"lon": -1.67868, "stands": 9, "update": "2016-02-05T16:25:08", "bikes": 10, "lat": 48.10512, "status": "OPEN", "address": "DALLE DU COLOMBIER", "name": "DALLE DU COLOMBIER"}, "geometry": {"type": "Point", "coordinates": [-1.67868, 48.10512]}}, {"type": "Feature", "properties": {"lon": -1.698129, "stands": 8, "update": "2016-02-05T16:25:08", "bikes": 17, "lat": 48.128788, "status": "OPEN", "address": "CUCILLE", "name": "CUCILLE"}, "geometry": {"type": "Point", "coordinates": [-1.698129, 48.128788]}}, {"type": "Feature", "properties": {"lon": -1.712716, "stands": 13, "update": "2016-02-05T16:25:08", "bikes": 13, "lat": 48.104206, "status": "OPEN", "address": "CLEUNAY", "name": "CLEUNAY"}, "geometry": {"type": "Point", "coordinates": [-1.712716, 48.104206]}}, {"type": "Feature", "properties": {"lon": -1.674116, "stands": 12, "update": "2016-02-05T16:25:08", "bikes": 10, "lat": 48.093292, "status": "OPEN", "address": "CLEMENCEAU", "name": "CLEMENCEAU"}, "geometry": {"type": "Point", "coordinates": [-1.674116, 48.093292]}}, {"type": "Feature", "properties": {"lon": -1.68411, "stands": 11, "update": "2016-02-05T16:26:01", "bikes": 12, "lat": 48.10477, "status": "OPEN", "address": "CITE JUDICIAIRE", "name": "CITE JUDICIAIRE"}, "geometry": {"type": "Point", "coordinates": [-1.68411, 48.10477]}}, {"type": "Feature", "properties": {"lon": -1.65012, "stands": 15, "update": "2016-02-05T16:25:08", "bikes": 3, "lat": 48.104355, "status": "OPEN", "address": "CIMETIERE EST", "name": "CIMETIERE EST"}, "geometry": {"type": "Point", "coordinates": [-1.65012, 48.104355]}}, {"type": "Feature", "properties": {"lon": -1.693404, "stands": 17, "update": "2016-02-05T16:25:08", "bikes": 5, "lat": 48.10887, "status": "OPEN", "address": "CHEQUES POSTAUX", "name": "CHEQUES POSTAUX"}, "geometry": {"type": "Point", "coordinates": [-1.693404, 48.10887]}}, {"type": "Feature", "properties": {"lon": -1.677119, "stands": 14, "update": "2016-02-05T16:25:08", "bikes": 10, "lat": 48.10511, "status": "OPEN", "address": "CHARLES DE GAULLE", "name": "CHARLES DE GAULLE"}, "geometry": {"type": "Point", "coordinates": [-1.677119, 48.10511]}}, {"type": "Feature", "properties": {"lon": -1.682285, "stands": 16, "update": "2016-02-05T16:25:08", "bikes": 2, "lat": 48.091114, "status": "OPEN", "address": "CHAMPS MANCEAUX", "name": "CHAMPS MANCEAUX"}, "geometry": {"type": "Point", "coordinates": [-1.682285, 48.091114]}}, {"type": "Feature", "properties": {"lon": -1.674328, "stands": 0, "update": "2016-02-05T16:25:08", "bikes": 24, "lat": 48.105537, "status": "OPEN", "address": "CHAMPS LIBRES", "name": "CHAMPS LIBRES"}, "geometry": {"type": "Point", "coordinates": [-1.674328, 48.105537]}}, {"type": "Feature", "properties": {"lon": -1.680062, "stands": 7, "update": "2016-02-05T16:25:08", "bikes": 17, "lat": 48.112762, "status": "OPEN", "address": "CHAMP JACQUET", "name": "CHAMP JACQUET"}, "geometry": {"type": "Point", "coordinates": [-1.680062, 48.112762]}}, {"type": "Feature", "properties": {"lon": -1.693274, "stands": 7, "update": "2016-02-05T16:25:08", "bikes": 9, "lat": 48.113014, "status": "OPEN", "address": "BREST VERDUN", "name": "BREST VERDUN"}, "geometry": {"type": "Point", "coordinates": [-1.693274, 48.113014]}}, {"type": "Feature", "properties": {"lon": -1.635134, "stands": 8, "update": "2016-02-05T16:25:08", "bikes": 10, "lat": 48.12873, "status": "OPEN", "address": "BOUZAT", "name": "BOUZAT"}, "geometry": {"type": "Point", "coordinates": [-1.635134, 48.12873]}}, {"type": "Feature", "properties": {"lon": -1.667321, "stands": 11, "update": "2016-02-05T16:25:08", "bikes": 5, "lat": 48.091595, "status": "OPEN", "address": "BINQUENAIS", "name": "BINQUENAIS"}, "geometry": {"type": "Point", "coordinates": [-1.667321, 48.091595]}}, {"type": "Feature", "properties": {"lon": -1.705097, "stands": 5, "update": "2016-02-05T16:25:08", "bikes": 9, "lat": 48.116314, "status": "OPEN", "address": "BERGER", "name": "BERGER"}, "geometry": {"type": "Point", "coordinates": [-1.705097, 48.116314]}}, {"type": "Feature", "properties": {"lon": -1.638368, "stands": 0, "update": "2016-02-05T16:25:08", "bikes": 0, "lat": 48.122047, "status": "CLOSED", "address": "BEAULIEU RESTAU U", "name": "BEAULIEU RESTAU U"}, "geometry": {"type": "Point", "coordinates": [-1.638368, 48.122047]}}, {"type": "Feature", "properties": {"lon": -1.633875, "stands": 16, "update": "2016-02-05T16:25:08", "bikes": 14, "lat": 48.11646, "status": "OPEN", "address": "BEAULIEU CHIMIE", "name": "BEAULIEU CHIMIE"}, "geometry": {"type": "Point", "coordinates": [-1.633875, 48.11646]}}, {"type": "Feature", "properties": {"lon": -1.642935, "stands": 13, "update": "2016-02-05T16:25:08", "bikes": 17, "lat": 48.118015, "status": "OPEN", "address": "BEAULIEU DIAPASON", "name": "BEAULIEU DIAPASON"}, "geometry": {"type": "Point", "coordinates": [-1.642935, 48.118015]}}, {"type": "Feature", "properties": {"lon": -1.681876, "stands": 5, "update": "2016-02-05T16:25:08", "bikes": 13, "lat": 48.120876, "status": "OPEN", "address": "AUBERGE DE JEUNESSE", "name": "AUBERGE DE JEUNESSE"}, "geometry": {"type": "Point", "coordinates": [-1.681876, 48.120876]}}, {"type": "Feature", "properties": {"lon": -1.713729, "stands": 16, "update": "2016-02-05T16:25:08", "bikes": 14, "lat": 48.116123, "status": "OPEN", "address": "ATALANTE CHAMPEAUX", "name": "ATALANTE CHAMPEAUX"}, "geometry": {"type": "Point", "coordinates": [-1.713729, 48.116123]}}, {"type": "Feature", "properties": {"lon": -1.686465, "stands": 1, "update": "2016-02-05T16:25:08", "bikes": 13, "lat": 48.118, "status": "OPEN", "address": "ANATOLE FRANCE", "name": "ANATOLE FRANCE"}, "geometry": {"type": "Point", "coordinates": [-1.686465, 48.118]}}, {"type": "Feature", "properties": {"lon": -1.677634, "stands": 10, "update": "2016-02-05T16:25:08", "bikes": 10, "lat": 48.082397, "status": "OPEN", "address": "ALMA", "name": "ALMA"}, "geometry": {"type": "Point", "coordinates": [-1.677634, 48.082397]}}, {"type": "Feature", "properties": {"lon": -1.640468, "stands": 0, "update": "2016-02-05T16:25:08", "bikes": 0, "lat": 48.092785, "status": "OPEN", "address": "RONCERAY", "name": "RONCERAY"}, "geometry": {"type": "Point", "coordinates": [-1.640468, 48.092785]}}, {"type": "Feature", "properties": {"lon": -1.644126, "stands": 17, "update": "2016-02-05T16:25:08", "bikes": 11, "lat": 48.087276, "status": "OPEN", "address": "LA POTERIE", "name": "LA POTERIE"}, "geometry": {"type": "Point", "coordinates": [-1.644126, 48.087276]}}, {"type": "Feature", "properties": {"lon": -1.691598, "stands": 8, "update": "2016-02-05T16:25:08", "bikes": 16, "lat": 48.119186, "status": "OPEN", "address": "PONTCHAILLOU (TER)", "name": "PONTCHAILLOU (TER)"}, "geometry": {"type": "Point", "coordinates": [-1.691598, 48.119186]}}, {"type": "Feature", "properties": {"lon": -1.674006, "stands": 2, "update": "2016-02-05T16:25:08", "bikes": 22, "lat": 48.103832, "status": "OPEN", "address": "GARE BEAUMONT", "name": "GARE BEAUMONT"}, "geometry": {"type": "Point", "coordinates": [-1.674006, 48.103832]}}, {"type": "Feature", "properties": {"lon": -1.694523, "stands": 14, "update": "2016-02-05T16:25:08", "bikes": 6, "lat": 48.098909, "status": "OPEN", "address": "LA COURROUZE", "name": "LA COURROUZE"}, "geometry": {"type": "Point", "coordinates": [-1.694523, 48.098909]}}]}