{"type": "FeatureCollection", "features": [{"type": "Feature", "geometry": {"type": "Point", "coordinates": [-1.635198, 48.13213]}, "properties": {"name": "ZAC SAINT SULPICE", "lon": -1.635198, "lat": 48.13213, "status": "OPEN", "stands": 16, "update": "2016-02-04T18:47:08", "address": "ZAC SAINT SULPICE", "bikes": 14}}, {"type": "Feature", "geometry": {"type": "Point", "coordinates": [-1.704122, 48.121075]}, "properties": {"name": "VILLEJEAN-UNIVERSITE", "lon": -1.704122, "lat": 48.121075, "status": "OPEN", "stands": 8, "update": "2016-02-04T18:47:08", "address": "VILLEJEAN-UNIVERSITE", "bikes": 18}}, {"type": "Feature", "geometry": {"type": "Point", "coordinates": [-1.651085, 48.12247]}, "properties": {"name": "TURMEL", "lon": -1.651085, "lat": 48.12247, "status": "OPEN", "stands": 2, "update": "2016-02-04T18:47:08", "address": "TURMEL", "bikes": 14}}, {"type": "Feature", "geometry": {"type": "Point", "coordinates": [-1.673711, 48.107746]}, "properties": {"name": "TNB", "lon": -1.673711, "lat": 48.107746, "status": "OPEN", "stands": 17, "update": "2016-02-04T18:47:08", "address": "TNB", "bikes": 10}}, {"type": "Feature", "geometry": {"type": "Point", "coordinates": [-1.663731, 48.094986]}, "properties": {"name": "SAINTE THERESE", "lon": -1.663731, "lat": 48.094986, "status": "OPEN", "stands": 11, "update": "2016-02-04T18:47:08", "address": "SAINTE THERESE", "bikes": 1}}, {"type": "Feature", "geometry": {"type": "Point", "coordinates": [-1.680984, 48.1145]}, "properties": {"name": "SAINTE-ANNE", "lon": -1.680984, "lat": 48.1145, "status": "OPEN", "stands": 15, "update": "2016-02-04T18:47:08", "address": "SAINTE-ANNE", "bikes": 8}}, {"type": "Feature", "geometry": {"type": "Point", "coordinates": [-1.674417, 48.112385]}, "properties": {"name": "SAINT GEORGES", "lon": -1.674417, "lat": 48.112385, "status": "OPEN", "stands": 11, "update": "2016-02-04T18:47:08", "address": "SAINT GEORGES", "bikes": 7}}, {"type": "Feature", "geometry": {"type": "Point", "coordinates": [-1.68677, 48.10665]}, "properties": {"name": "ROTONDE", "lon": -1.68677, "lat": 48.10665, "status": "OPEN", "stands": 12, "update": "2016-02-04T18:47:08", "address": "ROTONDE", "bikes": 8}}, {"type": "Feature", "geometry": {"type": "Point", "coordinates": [-1.678037, 48.110027]}, "properties": {"name": "REPUBLIQUE", "lon": -1.678037, "lat": 48.110027, "status": "OPEN", "stands": 7, "update": "2016-02-04T18:47:08", "address": "REPUBLIQUE", "bikes": 23}}, {"type": "Feature", "geometry": {"type": "Point", "coordinates": [-1.67449, 48.119377]}, "properties": {"name": "RECTORAT", "lon": -1.67449, "lat": 48.119377, "status": "OPEN", "stands": 16, "update": "2016-02-04T18:47:08", "address": "RECTORAT", "bikes": 2}}, {"type": "Feature", "geometry": {"type": "Point", "coordinates": [-1.694032, 48.128452]}, "properties": {"name": "PREFECTURE", "lon": -1.694032, "lat": 48.128452, "status": "OPEN", "stands": 26, "update": "2016-02-04T18:47:08", "address": "PREFECTURE", "bikes": 1}}, {"type": "Feature", "geometry": {"type": "Point", "coordinates": [-1.692737, 48.12148]}, "properties": {"name": "PONTCHAILLOU", "lon": -1.692737, "lat": 48.12148, "status": "OPEN", "stands": 16, "update": "2016-02-04T18:47:08", "address": "PONTCHAILLOU", "bikes": 12}}, {"type": "Feature", "geometry": {"type": "Point", "coordinates": [-1.659299, 48.10998]}, "properties": {"name": "ROBIDOU", "lon": -1.659299, "lat": 48.10998, "status": "OPEN", "stands": 7, "update": "2016-02-04T18:47:08", "address": "ROBIDOU", "bikes": 13}}, {"type": "Feature", "geometry": {"type": "Point", "coordinates": [-1.684015, 48.102016]}, "properties": {"name": "PONT DE NANTES", "lon": -1.684015, "lat": 48.102016, "status": "OPEN", "stands": 20, "update": "2016-02-04T18:47:08", "address": "PONT DE NANTES", "bikes": 0}}, {"type": "Feature", "geometry": {"type": "Point", "coordinates": [-1.664332, 48.11026]}, "properties": {"name": "PONT DE CHATEAUDUN", "lon": -1.664332, "lat": 48.11026, "status": "OPEN", "stands": 10, "update": "2016-02-04T18:47:08", "address": "PONT DE CHATEAUDUN", "bikes": 10}}, {"type": "Feature", "geometry": {"type": "Point", "coordinates": [-1.681374, 48.105896]}, "properties": {"name": "PLELO COLOMBIER", "lon": -1.681374, "lat": 48.105896, "status": "OPEN", "stands": 14, "update": "2016-02-04T18:47:08", "address": "PLELO COLOMBIER", "bikes": 4}}, {"type": "Feature", "geometry": {"type": "Point", "coordinates": [-1.677073, 48.115074]}, "properties": {"name": "PLACE HOCHE", "lon": -1.677073, "lat": 48.115074, "status": "OPEN", "stands": 12, "update": "2016-02-04T18:47:08", "address": "PLACE HOCHE", "bikes": 12}}, {"type": "Feature", "geometry": {"type": "Point", "coordinates": [-1.684019, 48.10962]}, "properties": {"name": "PLACE DE BRETAGNE", "lon": -1.684019, "lat": 48.10962, "status": "OPEN", "stands": 2, "update": "2016-02-04T18:47:08", "address": "PLACE DE BRETAGNE", "bikes": 18}}, {"type": "Feature", "geometry": {"type": "Point", "coordinates": [-1.651576, 48.13461]}, "properties": {"name": "PISCINE GAYEULLES", "lon": -1.651576, "lat": 48.13461, "status": "OPEN", "stands": 22, "update": "2016-02-04T18:47:08", "address": "PISCINE GAYEULLES", "bikes": 4}}, {"type": "Feature", "geometry": {"type": "Point", "coordinates": [-1.690242, 48.089622]}, "properties": {"name": "PISCINE BREQUIGNY", "lon": -1.690242, "lat": 48.089622, "status": "OPEN", "stands": 16, "update": "2016-02-04T18:47:08", "address": "PISCINE BREQUIGNY", "bikes": 8}}, {"type": "Feature", "geometry": {"type": "Point", "coordinates": [-1.662322, 48.1035]}, "properties": {"name": "PIERRE MARTIN", "lon": -1.662322, "lat": 48.1035, "status": "OPEN", "stands": 9, "update": "2016-02-04T18:47:08", "address": "PIERRE MARTIN", "bikes": 11}}, {"type": "Feature", "geometry": {"type": "Point", "coordinates": [-1.670039, 48.110115]}, "properties": {"name": "PAUL BERT", "lon": -1.670039, "lat": 48.110115, "status": "OPEN", "stands": 6, "update": "2016-02-04T18:47:08", "address": "PAUL BERT", "bikes": 10}}, {"type": "Feature", "geometry": {"type": "Point", "coordinates": [-1.660547, 48.122993]}, "properties": {"name": "PAINLEVE", "lon": -1.660547, "lat": 48.122993, "status": "OPEN", "stands": 11, "update": "2016-02-04T18:47:08", "address": "PAINLEVE", "bikes": 7}}, {"type": "Feature", "geometry": {"type": "Point", "coordinates": [-1.683106, 48.110294]}, "properties": {"name": "OFFICE DE TOURISME", "lon": -1.683106, "lat": 48.110294, "status": "OPEN", "stands": 6, "update": "2016-02-04T18:47:08", "address": "OFFICE DE TOURISME", "bikes": 4}}, {"type": "Feature", "geometry": {"type": "Point", "coordinates": [-1.661858, 48.11355]}, "properties": {"name": "OBERTHUR", "lon": -1.661858, "lat": 48.11355, "status": "OPEN", "stands": 17, "update": "2016-02-04T18:47:08", "address": "OBERTHUR", "bikes": 3}}, {"type": "Feature", "geometry": {"type": "Point", "coordinates": [-1.674081, 48.1096]}, "properties": {"name": "MUSEE BEAUX ARTS", "lon": -1.674081, "lat": 48.1096, "status": "OPEN", "stands": 2, "update": "2016-02-04T18:47:08", "address": "MUSEE BEAUX ARTS", "bikes": 14}}, {"type": "Feature", "geometry": {"type": "Point", "coordinates": [-1.643861, 48.112488]}, "properties": {"name": "PLAINE DE BAUD", "lon": -1.643861, "lat": 48.112488, "status": "OPEN", "stands": 16, "update": "2016-02-04T18:47:08", "address": "PLAINE DE BAUD", "bikes": 8}}, {"type": "Feature", "geometry": {"type": "Point", "coordinates": [-1.66667, 48.1367]}, "properties": {"name": "MONTS D'ARREE", "lon": -1.66667, "lat": 48.1367, "status": "OPEN", "stands": 5, "update": "2016-02-04T18:47:08", "address": "MONTS D'ARREE", "bikes": 9}}, {"type": "Feature", "geometry": {"type": "Point", "coordinates": [-1.658258, 48.115993]}, "properties": {"name": "METZ SEVIGNE", "lon": -1.658258, "lat": 48.115993, "status": "OPEN", "stands": 1, "update": "2016-02-04T18:47:08", "address": "METZ SEVIGNE", "bikes": 15}}, {"type": "Feature", "geometry": {"type": "Point", "coordinates": [-1.688143, 48.097927]}, "properties": {"name": "MERMOZ", "lon": -1.688143, "lat": 48.097927, "status": "OPEN", "stands": 5, "update": "2016-02-04T18:47:08", "address": "MERMOZ", "bikes": 7}}, {"type": "Feature", "geometry": {"type": "Point", "coordinates": [-1.702077, 48.111748]}, "properties": {"name": "MARBEUF", "lon": -1.702077, "lat": 48.111748, "status": "OPEN", "stands": 20, "update": "2016-02-04T18:47:08", "address": "MARBEUF", "bikes": 0}}, {"type": "Feature", "geometry": {"type": "Point", "coordinates": [-1.698107, 48.10524]}, "properties": {"name": "VOLTAIRE", "lon": -1.698107, "lat": 48.10524, "status": "OPEN", "stands": 2, "update": "2016-02-04T18:47:08", "address": "VOLTAIRE", "bikes": 13}}, {"type": "Feature", "geometry": {"type": "Point", "coordinates": [-1.678757, 48.111626]}, "properties": {"name": "MAIRIE", "lon": -1.678757, "lat": 48.111626, "status": "OPEN", "stands": 7, "update": "2016-02-04T18:47:08", "address": "MAIRIE", "bikes": 17}}, {"type": "Feature", "geometry": {"type": "Point", "coordinates": [-1.678163, 48.107513]}, "properties": {"name": "LIBERTE", "lon": -1.678163, "lat": 48.107513, "status": "OPEN", "stands": 19, "update": "2016-02-04T18:47:08", "address": "LIBERTE", "bikes": 5}}, {"type": "Feature", "geometry": {"type": "Point", "coordinates": [-1.685037, 48.112766]}, "properties": {"name": "LES LICES", "lon": -1.685037, "lat": 48.112766, "status": "OPEN", "stands": 0, "update": "2016-02-04T18:47:08", "address": "LES LICES", "bikes": 19}}, {"type": "Feature", "geometry": {"type": "Point", "coordinates": [-1.680085, 48.107624]}, "properties": {"name": "LES HALLES", "lon": -1.680085, "lat": 48.107624, "status": "OPEN", "stands": 15, "update": "2016-02-04T18:47:08", "address": "LES HALLES", "bikes": 0}}, {"type": "Feature", "geometry": {"type": "Point", "coordinates": [-1.665817, 48.106846]}, "properties": {"name": "LAENNEC", "lon": -1.665817, "lat": 48.106846, "status": "OPEN", "stands": 7, "update": "2016-02-04T18:47:08", "address": "LAENNEC", "bikes": 9}}, {"type": "Feature", "geometry": {"type": "Point", "coordinates": [-1.690944, 48.116608]}, "properties": {"name": "LA TOUCHE", "lon": -1.690944, "lat": 48.116608, "status": "OPEN", "stands": 4, "update": "2016-02-04T18:47:08", "address": "LA TOUCHE", "bikes": 12}}, {"type": "Feature", "geometry": {"type": "Point", "coordinates": [-1.710315, 48.125618]}, "properties": {"name": "LA HARPE", "lon": -1.710315, "lat": 48.125618, "status": "OPEN", "stands": 16, "update": "2016-02-04T18:47:08", "address": "LA HARPE", "bikes": 9}}, {"type": "Feature", "geometry": {"type": "Point", "coordinates": [-1.671152, 48.12137]}, "properties": {"name": "JULES FERRY", "lon": -1.671152, "lat": 48.12137, "status": "OPEN", "stands": 2, "update": "2016-02-04T18:47:08", "address": "JULES FERRY", "bikes": 14}}, {"type": "Feature", "geometry": {"type": "Point", "coordinates": [-1.709933, 48.121468]}, "properties": {"name": "J.F. KENNEDY", "lon": -1.709933, "lat": 48.121468, "status": "OPEN", "stands": 2, "update": "2016-02-04T18:47:08", "address": "J.F. KENNEDY", "bikes": 22}}, {"type": "Feature", "geometry": {"type": "Point", "coordinates": [-1.674306, 48.09753]}, "properties": {"name": "JACQUES CARTIER", "lon": -1.674306, "lat": 48.09753, "status": "OPEN", "stands": 12, "update": "2016-02-04T18:47:08", "address": "JACQUES CARTIER", "bikes": 11}}, {"type": "Feature", "geometry": {"type": "Point", "coordinates": [-1.667568, 48.08674]}, "properties": {"name": "ITALIE", "lon": -1.667568, "lat": 48.08674, "status": "OPEN", "stands": 12, "update": "2016-02-04T18:47:08", "address": "ITALIE", "bikes": 4}}, {"type": "Feature", "geometry": {"type": "Point", "coordinates": [-1.663173, 48.130524]}, "properties": {"name": "HOUX CITE U", "lon": -1.663173, "lat": 48.130524, "status": "OPEN", "stands": 3, "update": "2016-02-04T18:47:08", "address": "HOUX CITE U", "bikes": 11}}, {"type": "Feature", "geometry": {"type": "Point", "coordinates": [-1.677849, 48.117596]}, "properties": {"name": "HOTEL DIEU", "lon": -1.677849, "lat": 48.117596, "status": "OPEN", "stands": 0, "update": "2016-02-04T18:47:08", "address": "HOTEL DIEU", "bikes": 24}}, {"type": "Feature", "geometry": {"type": "Point", "coordinates": [-1.688502, 48.112064]}, "properties": {"name": "HORIZONS", "lon": -1.688502, "lat": 48.112064, "status": "OPEN", "stands": 4, "update": "2016-02-04T18:47:08", "address": "HORIZONS", "bikes": 10}}, {"type": "Feature", "geometry": {"type": "Point", "coordinates": [-1.67485, 48.087337]}, "properties": {"name": "HENRI FREVILLE", "lon": -1.67485, "lat": 48.087337, "status": "OPEN", "stands": 12, "update": "2016-02-04T18:47:08", "address": "HENRI FREVILLE", "bikes": 12}}, {"type": "Feature", "geometry": {"type": "Point", "coordinates": [-1.665101, 48.126797]}, "properties": {"name": "GROS CHENE", "lon": -1.665101, "lat": 48.126797, "status": "OPEN", "stands": 13, "update": "2016-02-04T18:47:08", "address": "GROS CHENE", "bikes": 5}}, {"type": "Feature", "geometry": {"type": "Point", "coordinates": [-1.709492, 48.10893]}, "properties": {"name": "GENIAUX", "lon": -1.709492, "lat": 48.10893, "status": "OPEN", "stands": 9, "update": "2016-02-04T18:47:08", "address": "GENIAUX", "bikes": 6}}, {"type": "Feature", "geometry": {"type": "Point", "coordinates": [-1.673133, 48.10225]}, "properties": {"name": "GARES (SUD)", "lon": -1.673133, "lat": 48.10225, "status": "OPEN", "stands": 6, "update": "2016-02-04T18:47:08", "address": "GARES (SUD)", "bikes": 14}}, {"type": "Feature", "geometry": {"type": "Point", "coordinates": [-1.671268, 48.104156]}, "properties": {"name": "GARE SOLFERINO", "lon": -1.671268, "lat": 48.104156, "status": "OPEN", "stands": 9, "update": "2016-02-04T18:47:08", "address": "GARE SOLFERINO", "bikes": 26}}, {"type": "Feature", "geometry": {"type": "Point", "coordinates": [-1.670736, 48.11817]}, "properties": {"name": "FAC DE DROIT", "lon": -1.670736, "lat": 48.11817, "status": "OPEN", "stands": 20, "update": "2016-02-04T18:47:08", "address": "FAC DE DROIT", "bikes": 6}}, {"type": "Feature", "geometry": {"type": "Point", "coordinates": [-1.666227, 48.11984]}, "properties": {"name": "GUEHENNO-FOUGERES", "lon": -1.666227, "lat": 48.11984, "status": "OPEN", "stands": 12, "update": "2016-02-04T18:47:08", "address": "GUEHENNO-FOUGERES", "bikes": 4}}, {"type": "Feature", "geometry": {"type": "Point", "coordinates": [-1.682697, 48.117214]}, "properties": {"name": "DINAN", "lon": -1.682697, "lat": 48.117214, "status": "OPEN", "stands": 2, "update": "2016-02-04T18:47:08", "address": "DINAN", "bikes": 14}}, {"type": "Feature", "geometry": {"type": "Point", "coordinates": [-1.707086, 48.100956]}, "properties": {"name": "DE LESSEPS", "lon": -1.707086, "lat": 48.100956, "status": "OPEN", "stands": 18, "update": "2016-02-04T18:47:08", "address": "DE LESSEPS", "bikes": 4}}, {"type": "Feature", "geometry": {"type": "Point", "coordinates": [-1.67868, 48.10512]}, "properties": {"name": "DALLE DU COLOMBIER", "lon": -1.67868, "lat": 48.10512, "status": "OPEN", "stands": 11, "update": "2016-02-04T18:47:08", "address": "DALLE DU COLOMBIER", "bikes": 8}}, {"type": "Feature", "geometry": {"type": "Point", "coordinates": [-1.698129, 48.128788]}, "properties": {"name": "CUCILLE", "lon": -1.698129, "lat": 48.128788, "status": "OPEN", "stands": 11, "update": "2016-02-04T18:47:08", "address": "CUCILLE", "bikes": 14}}, {"type": "Feature", "geometry": {"type": "Point", "coordinates": [-1.712716, 48.104206]}, "properties": {"name": "CLEUNAY", "lon": -1.712716, "lat": 48.104206, "status": "OPEN", "stands": 21, "update": "2016-02-04T18:47:08", "address": "CLEUNAY", "bikes": 5}}, {"type": "Feature", "geometry": {"type": "Point", "coordinates": [-1.674116, 48.093292]}, "properties": {"name": "CLEMENCEAU", "lon": -1.674116, "lat": 48.093292, "status": "OPEN", "stands": 20, "update": "2016-02-04T18:47:08", "address": "CLEMENCEAU", "bikes": 2}}, {"type": "Feature", "geometry": {"type": "Point", "coordinates": [-1.68411, 48.10477]}, "properties": {"name": "CITE JUDICIAIRE", "lon": -1.68411, "lat": 48.10477, "status": "OPEN", "stands": 23, "update": "2016-02-04T18:47:08", "address": "CITE JUDICIAIRE", "bikes": 1}}, {"type": "Feature", "geometry": {"type": "Point", "coordinates": [-1.65012, 48.104355]}, "properties": {"name": "CIMETIERE EST", "lon": -1.65012, "lat": 48.104355, "status": "OPEN", "stands": 7, "update": "2016-02-04T18:47:08", "address": "CIMETIERE EST", "bikes": 11}}, {"type": "Feature", "geometry": {"type": "Point", "coordinates": [-1.693404, 48.10887]}, "properties": {"name": "CHEQUES POSTAUX", "lon": -1.693404, "lat": 48.10887, "status": "OPEN", "stands": 19, "update": "2016-02-04T18:47:08", "address": "CHEQUES POSTAUX", "bikes": 3}}, {"type": "Feature", "geometry": {"type": "Point", "coordinates": [-1.677119, 48.10511]}, "properties": {"name": "CHARLES DE GAULLE", "lon": -1.677119, "lat": 48.10511, "status": "OPEN", "stands": 6, "update": "2016-02-04T18:47:08", "address": "CHARLES DE GAULLE", "bikes": 18}}, {"type": "Feature", "geometry": {"type": "Point", "coordinates": [-1.682285, 48.091114]}, "properties": {"name": "CHAMPS MANCEAUX", "lon": -1.682285, "lat": 48.091114, "status": "OPEN", "stands": 9, "update": "2016-02-04T18:47:08", "address": "CHAMPS MANCEAUX", "bikes": 9}}, {"type": "Feature", "geometry": {"type": "Point", "coordinates": [-1.674328, 48.105537]}, "properties": {"name": "CHAMPS LIBRES", "lon": -1.674328, "lat": 48.105537, "status": "OPEN", "stands": 11, "update": "2016-02-04T18:47:08", "address": "CHAMPS LIBRES", "bikes": 13}}, {"type": "Feature", "geometry": {"type": "Point", "coordinates": [-1.680062, 48.112762]}, "properties": {"name": "CHAMP JACQUET", "lon": -1.680062, "lat": 48.112762, "status": "OPEN", "stands": 13, "update": "2016-02-04T18:47:08", "address": "CHAMP JACQUET", "bikes": 11}}, {"type": "Feature", "geometry": {"type": "Point", "coordinates": [-1.693274, 48.113014]}, "properties": {"name": "BREST VERDUN", "lon": -1.693274, "lat": 48.113014, "status": "OPEN", "stands": 5, "update": "2016-02-04T18:47:08", "address": "BREST VERDUN", "bikes": 11}}, {"type": "Feature", "geometry": {"type": "Point", "coordinates": [-1.635134, 48.12873]}, "properties": {"name": "BOUZAT", "lon": -1.635134, "lat": 48.12873, "status": "OPEN", "stands": 9, "update": "2016-02-04T18:47:08", "address": "BOUZAT", "bikes": 9}}, {"type": "Feature", "geometry": {"type": "Point", "coordinates": [-1.667321, 48.091595]}, "properties": {"name": "BINQUENAIS", "lon": -1.667321, "lat": 48.091595, "status": "OPEN", "stands": 13, "update": "2016-02-04T18:47:08", "address": "BINQUENAIS", "bikes": 3}}, {"type": "Feature", "geometry": {"type": "Point", "coordinates": [-1.705097, 48.116314]}, "properties": {"name": "BERGER", "lon": -1.705097, "lat": 48.116314, "status": "OPEN", "stands": 5, "update": "2016-02-04T18:47:08", "address": "BERGER", "bikes": 9}}, {"type": "Feature", "geometry": {"type": "Point", "coordinates": [-1.638368, 48.122047]}, "properties": {"name": "BEAULIEU RESTAU U", "lon": -1.638368, "lat": 48.122047, "status": "CLOSED", "stands": 0, "update": "2016-02-04T18:47:08", "address": "BEAULIEU RESTAU U", "bikes": 0}}, {"type": "Feature", "geometry": {"type": "Point", "coordinates": [-1.633875, 48.11646]}, "properties": {"name": "BEAULIEU CHIMIE", "lon": -1.633875, "lat": 48.11646, "status": "OPEN", "stands": 17, "update": "2016-02-04T18:47:08", "address": "BEAULIEU CHIMIE", "bikes": 13}}, {"type": "Feature", "geometry": {"type": "Point", "coordinates": [-1.642935, 48.118015]}, "properties": {"name": "BEAULIEU DIAPASON", "lon": -1.642935, "lat": 48.118015, "status": "OPEN", "stands": 30, "update": "2016-02-04T18:47:08", "address": "BEAULIEU DIAPASON", "bikes": 0}}, {"type": "Feature", "geometry": {"type": "Point", "coordinates": [-1.681876, 48.120876]}, "properties": {"name": "AUBERGE DE JEUNESSE", "lon": -1.681876, "lat": 48.120876, "status": "OPEN", "stands": 11, "update": "2016-02-04T18:47:08", "address": "AUBERGE DE JEUNESSE", "bikes": 7}}, {"type": "Feature", "geometry": {"type": "Point", "coordinates": [-1.713729, 48.116123]}, "properties": {"name": "ATALANTE CHAMPEAUX", "lon": -1.713729, "lat": 48.116123, "status": "OPEN", "stands": 23, "update": "2016-02-04T18:47:08", "address": "ATALANTE CHAMPEAUX", "bikes": 7}}, {"type": "Feature", "geometry": {"type": "Point", "coordinates": [-1.686465, 48.118]}, "properties": {"name": "ANATOLE FRANCE", "lon": -1.686465, "lat": 48.118, "status": "OPEN", "stands": 10, "update": "2016-02-04T18:47:08", "address": "ANATOLE FRANCE", "bikes": 4}}, {"type": "Feature", "geometry": {"type": "Point", "coordinates": [-1.677634, 48.082397]}, "properties": {"name": "ALMA", "lon": -1.677634, "lat": 48.082397, "status": "OPEN", "stands": 20, "update": "2016-02-04T18:47:08", "address": "ALMA", "bikes": 0}}, {"type": "Feature", "geometry": {"type": "Point", "coordinates": [-1.640468, 48.092785]}, "properties": {"name": "RONCERAY", "lon": -1.640468, "lat": 48.092785, "status": "OPEN", "stands": 0, "update": "2016-02-04T18:47:08", "address": "RONCERAY", "bikes": 0}}, {"type": "Feature", "geometry": {"type": "Point", "coordinates": [-1.644126, 48.087276]}, "properties": {"name": "LA POTERIE", "lon": -1.644126, "lat": 48.087276, "status": "OPEN", "stands": 16, "update": "2016-02-04T18:47:08", "address": "LA POTERIE", "bikes": 12}}, {"type": "Feature", "geometry": {"type": "Point", "coordinates": [-1.691598, 48.119186]}, "properties": {"name": "PONTCHAILLOU (TER)", "lon": -1.691598, "lat": 48.119186, "status": "OPEN", "stands": 10, "update": "2016-02-04T18:47:08", "address": "PONTCHAILLOU (TER)", "bikes": 14}}, {"type": "Feature", "geometry": {"type": "Point", "coordinates": [-1.674006, 48.103832]}, "properties": {"name": "GARE BEAUMONT", "lon": -1.674006, "lat": 48.103832, "status": "OPEN", "stands": 2, "update": "2016-02-04T18:47:08", "address": "GARE BEAUMONT", "bikes": 22}}, {"type": "Feature", "geometry": {"type": "Point", "coordinates": [-1.694523, 48.098909]}, "properties": {"name": "LA COURROUZE", "lon": -1.694523, "lat": 48.098909, "status": "OPEN", "stands": 17, "update": "2016-02-04T18:47:08", "address": "LA COURROUZE", "bikes": 3}}]}