<<<<<<< HEAD
{"type": "FeatureCollection", "features": [{"geometry": {"coordinates": [-1.635198, 48.13213], "type": "Point"}, "type": "Feature", "properties": {"bikes": 10, "update": "2016-02-08T21:17:07", "name": "ZAC SAINT SULPICE", "address": "ZAC SAINT SULPICE", "lon": -1.635198, "status": "OPEN", "stands": 20, "lat": 48.13213}}, {"geometry": {"coordinates": [-1.704122, 48.121075], "type": "Point"}, "type": "Feature", "properties": {"bikes": 10, "update": "2016-02-08T21:17:07", "name": "VILLEJEAN-UNIVERSITE", "address": "VILLEJEAN-UNIVERSITE", "lon": -1.704122, "status": "OPEN", "stands": 16, "lat": 48.121075}}, {"geometry": {"coordinates": [-1.651085, 48.12247], "type": "Point"}, "type": "Feature", "properties": {"bikes": 8, "update": "2016-02-08T21:17:07", "name": "TURMEL", "address": "TURMEL", "lon": -1.651085, "status": "OPEN", "stands": 8, "lat": 48.12247}}, {"geometry": {"coordinates": [-1.673711, 48.107746], "type": "Point"}, "type": "Feature", "properties": {"bikes": 21, "update": "2016-02-08T21:17:07", "name": "TNB", "address": "TNB", "lon": -1.673711, "status": "OPEN", "stands": 7, "lat": 48.107746}}, {"geometry": {"coordinates": [-1.663731, 48.094986], "type": "Point"}, "type": "Feature", "properties": {"bikes": 7, "update": "2016-02-08T21:17:07", "name": "SAINTE THERESE", "address": "SAINTE THERESE", "lon": -1.663731, "status": "OPEN", "stands": 5, "lat": 48.094986}}, {"geometry": {"coordinates": [-1.680984, 48.1145], "type": "Point"}, "type": "Feature", "properties": {"bikes": 12, "update": "2016-02-08T21:17:07", "name": "SAINTE-ANNE", "address": "SAINTE-ANNE", "lon": -1.680984, "status": "OPEN", "stands": 12, "lat": 48.1145}}, {"geometry": {"coordinates": [-1.674417, 48.112385], "type": "Point"}, "type": "Feature", "properties": {"bikes": 14, "update": "2016-02-08T21:17:07", "name": "SAINT GEORGES", "address": "SAINT GEORGES", "lon": -1.674417, "status": "OPEN", "stands": 4, "lat": 48.112385}}, {"geometry": {"coordinates": [-1.68677, 48.10665], "type": "Point"}, "type": "Feature", "properties": {"bikes": 19, "update": "2016-02-08T21:17:07", "name": "ROTONDE", "address": "ROTONDE", "lon": -1.68677, "status": "OPEN", "stands": 1, "lat": 48.10665}}, {"geometry": {"coordinates": [-1.678037, 48.110027], "type": "Point"}, "type": "Feature", "properties": {"bikes": 13, "update": "2016-02-08T21:17:07", "name": "REPUBLIQUE", "address": "REPUBLIQUE", "lon": -1.678037, "status": "OPEN", "stands": 17, "lat": 48.110027}}, {"geometry": {"coordinates": [-1.67449, 48.119377], "type": "Point"}, "type": "Feature", "properties": {"bikes": 15, "update": "2016-02-08T21:17:07", "name": "RECTORAT", "address": "RECTORAT", "lon": -1.67449, "status": "OPEN", "stands": 3, "lat": 48.119377}}, {"geometry": {"coordinates": [-1.694032, 48.128452], "type": "Point"}, "type": "Feature", "properties": {"bikes": 18, "update": "2016-02-08T21:17:07", "name": "PREFECTURE", "address": "PREFECTURE", "lon": -1.694032, "status": "OPEN", "stands": 9, "lat": 48.128452}}, {"geometry": {"coordinates": [-1.692737, 48.12148], "type": "Point"}, "type": "Feature", "properties": {"bikes": 10, "update": "2016-02-08T21:17:07", "name": "PONTCHAILLOU", "address": "PONTCHAILLOU", "lon": -1.692737, "status": "OPEN", "stands": 18, "lat": 48.12148}}, {"geometry": {"coordinates": [-1.659299, 48.10998], "type": "Point"}, "type": "Feature", "properties": {"bikes": 19, "update": "2016-02-08T21:17:07", "name": "ROBIDOU", "address": "ROBIDOU", "lon": -1.659299, "status": "OPEN", "stands": 1, "lat": 48.10998}}, {"geometry": {"coordinates": [-1.684015, 48.102016], "type": "Point"}, "type": "Feature", "properties": {"bikes": 12, "update": "2016-02-08T21:17:07", "name": "PONT DE NANTES", "address": "PONT DE NANTES", "lon": -1.684015, "status": "OPEN", "stands": 8, "lat": 48.102016}}, {"geometry": {"coordinates": [-1.664332, 48.11026], "type": "Point"}, "type": "Feature", "properties": {"bikes": 18, "update": "2016-02-08T21:17:07", "name": "PONT DE CHATEAUDUN", "address": "PONT DE CHATEAUDUN", "lon": -1.664332, "status": "OPEN", "stands": 2, "lat": 48.11026}}, {"geometry": {"coordinates": [-1.681374, 48.105896], "type": "Point"}, "type": "Feature", "properties": {"bikes": 7, "update": "2016-02-08T21:17:07", "name": "PLELO COLOMBIER", "address": "PLELO COLOMBIER", "lon": -1.681374, "status": "OPEN", "stands": 11, "lat": 48.105896}}, {"geometry": {"coordinates": [-1.677073, 48.115074], "type": "Point"}, "type": "Feature", "properties": {"bikes": 8, "update": "2016-02-08T21:17:07", "name": "PLACE HOCHE", "address": "PLACE HOCHE", "lon": -1.677073, "status": "OPEN", "stands": 16, "lat": 48.115074}}, {"geometry": {"coordinates": [-1.684019, 48.10962], "type": "Point"}, "type": "Feature", "properties": {"bikes": 10, "update": "2016-02-08T21:17:07", "name": "PLACE DE BRETAGNE", "address": "PLACE DE BRETAGNE", "lon": -1.684019, "status": "OPEN", "stands": 10, "lat": 48.10962}}, {"geometry": {"coordinates": [-1.651576, 48.13461], "type": "Point"}, "type": "Feature", "properties": {"bikes": 7, "update": "2016-02-08T21:17:07", "name": "PISCINE GAYEULLES", "address": "PISCINE GAYEULLES", "lon": -1.651576, "status": "OPEN", "stands": 19, "lat": 48.13461}}, {"geometry": {"coordinates": [-1.690242, 48.089622], "type": "Point"}, "type": "Feature", "properties": {"bikes": 5, "update": "2016-02-08T21:17:07", "name": "PISCINE BREQUIGNY", "address": "PISCINE BREQUIGNY", "lon": -1.690242, "status": "OPEN", "stands": 19, "lat": 48.089622}}, {"geometry": {"coordinates": [-1.662322, 48.1035], "type": "Point"}, "type": "Feature", "properties": {"bikes": 4, "update": "2016-02-08T21:17:07", "name": "PIERRE MARTIN", "address": "PIERRE MARTIN", "lon": -1.662322, "status": "OPEN", "stands": 16, "lat": 48.1035}}, {"geometry": {"coordinates": [-1.670039, 48.110115], "type": "Point"}, "type": "Feature", "properties": {"bikes": 15, "update": "2016-02-08T21:17:07", "name": "PAUL BERT", "address": "PAUL BERT", "lon": -1.670039, "status": "OPEN", "stands": 1, "lat": 48.110115}}, {"geometry": {"coordinates": [-1.660547, 48.122993], "type": "Point"}, "type": "Feature", "properties": {"bikes": 11, "update": "2016-02-08T21:17:07", "name": "PAINLEVE", "address": "PAINLEVE", "lon": -1.660547, "status": "OPEN", "stands": 6, "lat": 48.122993}}, {"geometry": {"coordinates": [-1.683106, 48.110294], "type": "Point"}, "type": "Feature", "properties": {"bikes": 10, "update": "2016-02-08T21:17:07", "name": "OFFICE DE TOURISME", "address": "OFFICE DE TOURISME", "lon": -1.683106, "status": "OPEN", "stands": 0, "lat": 48.110294}}, {"geometry": {"coordinates": [-1.661858, 48.11355], "type": "Point"}, "type": "Feature", "properties": {"bikes": 6, "update": "2016-02-08T21:17:07", "name": "OBERTHUR", "address": "OBERTHUR", "lon": -1.661858, "status": "OPEN", "stands": 14, "lat": 48.11355}}, {"geometry": {"coordinates": [-1.674081, 48.1096], "type": "Point"}, "type": "Feature", "properties": {"bikes": 2, "update": "2016-02-08T21:17:07", "name": "MUSEE BEAUX ARTS", "address": "MUSEE BEAUX ARTS", "lon": -1.674081, "status": "OPEN", "stands": 14, "lat": 48.1096}}, {"geometry": {"coordinates": [-1.643861, 48.112488], "type": "Point"}, "type": "Feature", "properties": {"bikes": 5, "update": "2016-02-08T21:17:07", "name": "PLAINE DE BAUD", "address": "PLAINE DE BAUD", "lon": -1.643861, "status": "OPEN", "stands": 19, "lat": 48.112488}}, {"geometry": {"coordinates": [-1.66667, 48.1367], "type": "Point"}, "type": "Feature", "properties": {"bikes": 8, "update": "2016-02-08T21:17:07", "name": "MONTS D'ARREE", "address": "MONTS D'ARREE", "lon": -1.66667, "status": "OPEN", "stands": 6, "lat": 48.1367}}, {"geometry": {"coordinates": [-1.658258, 48.115993], "type": "Point"}, "type": "Feature", "properties": {"bikes": 6, "update": "2016-02-08T21:17:07", "name": "METZ SEVIGNE", "address": "METZ SEVIGNE", "lon": -1.658258, "status": "OPEN", "stands": 10, "lat": 48.115993}}, {"geometry": {"coordinates": [-1.688143, 48.097927], "type": "Point"}, "type": "Feature", "properties": {"bikes": 8, "update": "2016-02-08T21:17:07", "name": "MERMOZ", "address": "MERMOZ", "lon": -1.688143, "status": "OPEN", "stands": 4, "lat": 48.097927}}, {"geometry": {"coordinates": [-1.702077, 48.111748], "type": "Point"}, "type": "Feature", "properties": {"bikes": 17, "update": "2016-02-08T21:17:07", "name": "MARBEUF", "address": "MARBEUF", "lon": -1.702077, "status": "OPEN", "stands": 3, "lat": 48.111748}}, {"geometry": {"coordinates": [-1.698107, 48.10524], "type": "Point"}, "type": "Feature", "properties": {"bikes": 6, "update": "2016-02-08T21:17:07", "name": "VOLTAIRE", "address": "VOLTAIRE", "lon": -1.698107, "status": "OPEN", "stands": 2, "lat": 48.10524}}, {"geometry": {"coordinates": [-1.678757, 48.111626], "type": "Point"}, "type": "Feature", "properties": {"bikes": 11, "update": "2016-02-08T21:17:07", "name": "MAIRIE", "address": "MAIRIE", "lon": -1.678757, "status": "OPEN", "stands": 13, "lat": 48.111626}}, {"geometry": {"coordinates": [-1.678163, 48.107513], "type": "Point"}, "type": "Feature", "properties": {"bikes": 22, "update": "2016-02-08T21:17:07", "name": "LIBERTE", "address": "LIBERTE", "lon": -1.678163, "status": "OPEN", "stands": 2, "lat": 48.107513}}, {"geometry": {"coordinates": [-1.685037, 48.112766], "type": "Point"}, "type": "Feature", "properties": {"bikes": 17, "update": "2016-02-08T21:17:07", "name": "LES LICES", "address": "LES LICES", "lon": -1.685037, "status": "OPEN", "stands": 3, "lat": 48.112766}}, {"geometry": {"coordinates": [-1.680085, 48.107624], "type": "Point"}, "type": "Feature", "properties": {"bikes": 11, "update": "2016-02-08T21:17:07", "name": "LES HALLES", "address": "LES HALLES", "lon": -1.680085, "status": "OPEN", "stands": 4, "lat": 48.107624}}, {"geometry": {"coordinates": [-1.665817, 48.106846], "type": "Point"}, "type": "Feature", "properties": {"bikes": 10, "update": "2016-02-08T21:17:07", "name": "LAENNEC", "address": "LAENNEC", "lon": -1.665817, "status": "OPEN", "stands": 6, "lat": 48.106846}}, {"geometry": {"coordinates": [-1.690944, 48.116608], "type": "Point"}, "type": "Feature", "properties": {"bikes": 6, "update": "2016-02-08T21:17:07", "name": "LA TOUCHE", "address": "LA TOUCHE", "lon": -1.690944, "status": "OPEN", "stands": 10, "lat": 48.116608}}, {"geometry": {"coordinates": [-1.710315, 48.125618], "type": "Point"}, "type": "Feature", "properties": {"bikes": 6, "update": "2016-02-08T21:17:07", "name": "LA HARPE", "address": "LA HARPE", "lon": -1.710315, "status": "OPEN", "stands": 18, "lat": 48.125618}}, {"geometry": {"coordinates": [-1.671152, 48.12137], "type": "Point"}, "type": "Feature", "properties": {"bikes": 11, "update": "2016-02-08T21:17:07", "name": "JULES FERRY", "address": "JULES FERRY", "lon": -1.671152, "status": "OPEN", "stands": 5, "lat": 48.12137}}, {"geometry": {"coordinates": [-1.709933, 48.121468], "type": "Point"}, "type": "Feature", "properties": {"bikes": 9, "update": "2016-02-08T21:17:07", "name": "J.F. KENNEDY", "address": "J.F. KENNEDY", "lon": -1.709933, "status": "OPEN", "stands": 15, "lat": 48.121468}}, {"geometry": {"coordinates": [-1.674306, 48.09753], "type": "Point"}, "type": "Feature", "properties": {"bikes": 6, "update": "2016-02-08T21:17:07", "name": "JACQUES CARTIER", "address": "JACQUES CARTIER", "lon": -1.674306, "status": "OPEN", "stands": 18, "lat": 48.09753}}, {"geometry": {"coordinates": [-1.667568, 48.08674], "type": "Point"}, "type": "Feature", "properties": {"bikes": 7, "update": "2016-02-08T21:17:07", "name": "ITALIE", "address": "ITALIE", "lon": -1.667568, "status": "OPEN", "stands": 9, "lat": 48.08674}}, {"geometry": {"coordinates": [-1.663173, 48.130524], "type": "Point"}, "type": "Feature", "properties": {"bikes": 5, "update": "2016-02-08T21:17:07", "name": "HOUX CITE U", "address": "HOUX CITE U", "lon": -1.663173, "status": "OPEN", "stands": 9, "lat": 48.130524}}, {"geometry": {"coordinates": [-1.677849, 48.117596], "type": "Point"}, "type": "Feature", "properties": {"bikes": 14, "update": "2016-02-08T21:17:07", "name": "HOTEL DIEU", "address": "HOTEL DIEU", "lon": -1.677849, "status": "OPEN", "stands": 10, "lat": 48.117596}}, {"geometry": {"coordinates": [-1.688502, 48.112064], "type": "Point"}, "type": "Feature", "properties": {"bikes": 13, "update": "2016-02-08T21:17:07", "name": "HORIZONS", "address": "HORIZONS", "lon": -1.688502, "status": "OPEN", "stands": 1, "lat": 48.112064}}, {"geometry": {"coordinates": [-1.67485, 48.087337], "type": "Point"}, "type": "Feature", "properties": {"bikes": 9, "update": "2016-02-08T21:17:07", "name": "HENRI FREVILLE", "address": "HENRI FREVILLE", "lon": -1.67485, "status": "OPEN", "stands": 15, "lat": 48.087337}}, {"geometry": {"coordinates": [-1.665101, 48.126797], "type": "Point"}, "type": "Feature", "properties": {"bikes": 0, "update": "2016-02-08T21:17:07", "name": "GROS CHENE", "address": "GROS CHENE", "lon": -1.665101, "status": "OPEN", "stands": 18, "lat": 48.126797}}, {"geometry": {"coordinates": [-1.709492, 48.10893], "type": "Point"}, "type": "Feature", "properties": {"bikes": 12, "update": "2016-02-08T21:17:07", "name": "GENIAUX", "address": "GENIAUX", "lon": -1.709492, "status": "OPEN", "stands": 3, "lat": 48.10893}}, {"geometry": {"coordinates": [-1.673133, 48.10225], "type": "Point"}, "type": "Feature", "properties": {"bikes": 5, "update": "2016-02-08T21:17:07", "name": "GARES (SUD)", "address": "GARES (SUD)", "lon": -1.673133, "status": "OPEN", "stands": 15, "lat": 48.10225}}, {"geometry": {"coordinates": [-1.671268, 48.104156], "type": "Point"}, "type": "Feature", "properties": {"bikes": 1, "update": "2016-02-08T21:17:07", "name": "GARE SOLFERINO", "address": "GARE SOLFERINO", "lon": -1.671268, "status": "OPEN", "stands": 34, "lat": 48.104156}}, {"geometry": {"coordinates": [-1.670736, 48.11817], "type": "Point"}, "type": "Feature", "properties": {"bikes": 5, "update": "2016-02-08T21:17:07", "name": "FAC DE DROIT", "address": "FAC DE DROIT", "lon": -1.670736, "status": "OPEN", "stands": 21, "lat": 48.11817}}, {"geometry": {"coordinates": [-1.666227, 48.11984], "type": "Point"}, "type": "Feature", "properties": {"bikes": 0, "update": "2016-02-08T21:17:07", "name": "GUEHENNO-FOUGERES", "address": "GUEHENNO-FOUGERES", "lon": -1.666227, "status": "OPEN", "stands": 16, "lat": 48.11984}}, {"geometry": {"coordinates": [-1.682697, 48.117214], "type": "Point"}, "type": "Feature", "properties": {"bikes": 16, "update": "2016-02-08T21:17:07", "name": "DINAN", "address": "DINAN", "lon": -1.682697, "status": "OPEN", "stands": 0, "lat": 48.117214}}, {"geometry": {"coordinates": [-1.707086, 48.100956], "type": "Point"}, "type": "Feature", "properties": {"bikes": 21, "update": "2016-02-08T21:17:07", "name": "DE LESSEPS", "address": "DE LESSEPS", "lon": -1.707086, "status": "OPEN", "stands": 2, "lat": 48.100956}}, {"geometry": {"coordinates": [-1.67868, 48.10512], "type": "Point"}, "type": "Feature", "properties": {"bikes": 11, "update": "2016-02-08T21:17:07", "name": "DALLE DU COLOMBIER", "address": "DALLE DU COLOMBIER", "lon": -1.67868, "status": "OPEN", "stands": 8, "lat": 48.10512}}, {"geometry": {"coordinates": [-1.698129, 48.128788], "type": "Point"}, "type": "Feature", "properties": {"bikes": 12, "update": "2016-02-08T21:17:07", "name": "CUCILLE", "address": "CUCILLE", "lon": -1.698129, "status": "OPEN", "stands": 13, "lat": 48.128788}}, {"geometry": {"coordinates": [-1.712716, 48.104206], "type": "Point"}, "type": "Feature", "properties": {"bikes": 7, "update": "2016-02-08T21:17:07", "name": "CLEUNAY", "address": "CLEUNAY", "lon": -1.712716, "status": "OPEN", "stands": 19, "lat": 48.104206}}, {"geometry": {"coordinates": [-1.674116, 48.093292], "type": "Point"}, "type": "Feature", "properties": {"bikes": 4, "update": "2016-02-08T21:17:07", "name": "CLEMENCEAU", "address": "CLEMENCEAU", "lon": -1.674116, "status": "OPEN", "stands": 17, "lat": 48.093292}}, {"geometry": {"coordinates": [-1.68411, 48.10477], "type": "Point"}, "type": "Feature", "properties": {"bikes": 15, "update": "2016-02-08T21:17:07", "name": "CITE JUDICIAIRE", "address": "CITE JUDICIAIRE", "lon": -1.68411, "status": "OPEN", "stands": 9, "lat": 48.10477}}, {"geometry": {"coordinates": [-1.65012, 48.104355], "type": "Point"}, "type": "Feature", "properties": {"bikes": 13, "update": "2016-02-08T21:17:07", "name": "CIMETIERE EST", "address": "CIMETIERE EST", "lon": -1.65012, "status": "OPEN", "stands": 5, "lat": 48.104355}}, {"geometry": {"coordinates": [-1.693404, 48.10887], "type": "Point"}, "type": "Feature", "properties": {"bikes": 20, "update": "2016-02-08T21:17:07", "name": "CHEQUES POSTAUX", "address": "CHEQUES POSTAUX", "lon": -1.693404, "status": "OPEN", "stands": 1, "lat": 48.10887}}, {"geometry": {"coordinates": [-1.677119, 48.10511], "type": "Point"}, "type": "Feature", "properties": {"bikes": 15, "update": "2016-02-08T21:17:07", "name": "CHARLES DE GAULLE", "address": "CHARLES DE GAULLE", "lon": -1.677119, "status": "OPEN", "stands": 9, "lat": 48.10511}}, {"geometry": {"coordinates": [-1.682285, 48.091114], "type": "Point"}, "type": "Feature", "properties": {"bikes": 5, "update": "2016-02-08T21:17:07", "name": "CHAMPS MANCEAUX", "address": "CHAMPS MANCEAUX", "lon": -1.682285, "status": "OPEN", "stands": 13, "lat": 48.091114}}, {"geometry": {"coordinates": [-1.674328, 48.105537], "type": "Point"}, "type": "Feature", "properties": {"bikes": 10, "update": "2016-02-08T21:17:07", "name": "CHAMPS LIBRES", "address": "CHAMPS LIBRES", "lon": -1.674328, "status": "OPEN", "stands": 14, "lat": 48.105537}}, {"geometry": {"coordinates": [-1.680062, 48.112762], "type": "Point"}, "type": "Feature", "properties": {"bikes": 23, "update": "2016-02-08T21:17:07", "name": "CHAMP JACQUET", "address": "CHAMP JACQUET", "lon": -1.680062, "status": "OPEN", "stands": 1, "lat": 48.112762}}, {"geometry": {"coordinates": [-1.693274, 48.113014], "type": "Point"}, "type": "Feature", "properties": {"bikes": 16, "update": "2016-02-08T21:17:07", "name": "BREST VERDUN", "address": "BREST VERDUN", "lon": -1.693274, "status": "OPEN", "stands": 0, "lat": 48.113014}}, {"geometry": {"coordinates": [-1.635134, 48.12873], "type": "Point"}, "type": "Feature", "properties": {"bikes": 10, "update": "2016-02-08T21:17:07", "name": "BOUZAT", "address": "BOUZAT", "lon": -1.635134, "status": "OPEN", "stands": 8, "lat": 48.12873}}, {"geometry": {"coordinates": [-1.667321, 48.091595], "type": "Point"}, "type": "Feature", "properties": {"bikes": 8, "update": "2016-02-08T21:17:07", "name": "BINQUENAIS", "address": "BINQUENAIS", "lon": -1.667321, "status": "OPEN", "stands": 8, "lat": 48.091595}}, {"geometry": {"coordinates": [-1.705097, 48.116314], "type": "Point"}, "type": "Feature", "properties": {"bikes": 0, "update": "2016-02-08T21:17:07", "name": "BERGER", "address": "BERGER", "lon": -1.705097, "status": "OPEN", "stands": 14, "lat": 48.116314}}, {"geometry": {"coordinates": [-1.638368, 48.122047], "type": "Point"}, "type": "Feature", "properties": {"bikes": 0, "update": "2016-02-08T21:17:07", "name": "BEAULIEU RESTAU U", "address": "BEAULIEU RESTAU U", "lon": -1.638368, "status": "CLOSED", "stands": 0, "lat": 48.122047}}, {"geometry": {"coordinates": [-1.633875, 48.11646], "type": "Point"}, "type": "Feature", "properties": {"bikes": 7, "update": "2016-02-08T21:17:07", "name": "BEAULIEU CHIMIE", "address": "BEAULIEU CHIMIE", "lon": -1.633875, "status": "OPEN", "stands": 23, "lat": 48.11646}}, {"geometry": {"coordinates": [-1.642935, 48.118015], "type": "Point"}, "type": "Feature", "properties": {"bikes": 12, "update": "2016-02-08T21:17:07", "name": "BEAULIEU DIAPASON", "address": "BEAULIEU DIAPASON", "lon": -1.642935, "status": "OPEN", "stands": 18, "lat": 48.118015}}, {"geometry": {"coordinates": [-1.681876, 48.120876], "type": "Point"}, "type": "Feature", "properties": {"bikes": 18, "update": "2016-02-08T21:17:07", "name": "AUBERGE DE JEUNESSE", "address": "AUBERGE DE JEUNESSE", "lon": -1.681876, "status": "OPEN", "stands": 0, "lat": 48.120876}}, {"geometry": {"coordinates": [-1.713729, 48.116123], "type": "Point"}, "type": "Feature", "properties": {"bikes": 6, "update": "2016-02-08T21:17:07", "name": "ATALANTE CHAMPEAUX", "address": "ATALANTE CHAMPEAUX", "lon": -1.713729, "status": "OPEN", "stands": 24, "lat": 48.116123}}, {"geometry": {"coordinates": [-1.686465, 48.118], "type": "Point"}, "type": "Feature", "properties": {"bikes": 14, "update": "2016-02-08T21:17:07", "name": "ANATOLE FRANCE", "address": "ANATOLE FRANCE", "lon": -1.686465, "status": "OPEN", "stands": 0, "lat": 48.118}}, {"geometry": {"coordinates": [-1.677634, 48.082397], "type": "Point"}, "type": "Feature", "properties": {"bikes": 9, "update": "2016-02-08T21:17:07", "name": "ALMA", "address": "ALMA", "lon": -1.677634, "status": "OPEN", "stands": 11, "lat": 48.082397}}, {"geometry": {"coordinates": [-1.640468, 48.092785], "type": "Point"}, "type": "Feature", "properties": {"bikes": 0, "update": "2016-02-08T21:17:07", "name": "RONCERAY", "address": "RONCERAY", "lon": -1.640468, "status": "OPEN", "stands": 0, "lat": 48.092785}}, {"geometry": {"coordinates": [-1.644126, 48.087276], "type": "Point"}, "type": "Feature", "properties": {"bikes": 22, "update": "2016-02-08T21:17:07", "name": "LA POTERIE", "address": "LA POTERIE", "lon": -1.644126, "status": "OPEN", "stands": 6, "lat": 48.087276}}, {"geometry": {"coordinates": [-1.691598, 48.119186], "type": "Point"}, "type": "Feature", "properties": {"bikes": 2, "update": "2016-02-08T21:17:07", "name": "PONTCHAILLOU (TER)", "address": "PONTCHAILLOU (TER)", "lon": -1.691598, "status": "OPEN", "stands": 22, "lat": 48.119186}}, {"geometry": {"coordinates": [-1.674006, 48.103832], "type": "Point"}, "type": "Feature", "properties": {"bikes": 0, "update": "2016-02-08T21:17:07", "name": "GARE BEAUMONT", "address": "GARE BEAUMONT", "lon": -1.674006, "status": "OPEN", "stands": 24, "lat": 48.103832}}, {"geometry": {"coordinates": [-1.694523, 48.098909], "type": "Point"}, "type": "Feature", "properties": {"bikes": 6, "update": "2016-02-08T21:17:07", "name": "LA COURROUZE", "address": "LA COURROUZE", "lon": -1.694523, "status": "OPEN", "stands": 14, "lat": 48.098909}}, {"geometry": {"coordinates": [-1.675788, 48.13], "type": "Point"}, "type": "Feature", "properties": {"bikes": 0, "update": "2016-02-08T13:40:00", "name": "ARMORIQUE", "address": "ARMORIQUE", "lon": -1.675788, "status": "CLOSED", "stands": 0, "lat": 48.13}}]}
=======
{"type": "FeatureCollection", "features": [{"type": "Feature", "geometry": {"type": "Point", "coordinates": [-1.635198, 48.13213]}, "properties": {"bikes": 10, "stands": 20, "name": "ZAC SAINT SULPICE", "status": "OPEN", "lon": -1.635198, "lat": 48.13213, "update": "2016-02-08T21:09:08", "address": "ZAC SAINT SULPICE"}}, {"type": "Feature", "geometry": {"type": "Point", "coordinates": [-1.704122, 48.121075]}, "properties": {"bikes": 10, "stands": 16, "name": "VILLEJEAN-UNIVERSITE", "status": "OPEN", "lon": -1.704122, "lat": 48.121075, "update": "2016-02-08T21:09:08", "address": "VILLEJEAN-UNIVERSITE"}}, {"type": "Feature", "geometry": {"type": "Point", "coordinates": [-1.651085, 48.12247]}, "properties": {"bikes": 8, "stands": 8, "name": "TURMEL", "status": "OPEN", "lon": -1.651085, "lat": 48.12247, "update": "2016-02-08T21:09:08", "address": "TURMEL"}}, {"type": "Feature", "geometry": {"type": "Point", "coordinates": [-1.673711, 48.107746]}, "properties": {"bikes": 20, "stands": 8, "name": "TNB", "status": "OPEN", "lon": -1.673711, "lat": 48.107746, "update": "2016-02-08T21:09:08", "address": "TNB"}}, {"type": "Feature", "geometry": {"type": "Point", "coordinates": [-1.663731, 48.094986]}, "properties": {"bikes": 7, "stands": 5, "name": "SAINTE THERESE", "status": "OPEN", "lon": -1.663731, "lat": 48.094986, "update": "2016-02-08T21:09:08", "address": "SAINTE THERESE"}}, {"type": "Feature", "geometry": {"type": "Point", "coordinates": [-1.680984, 48.1145]}, "properties": {"bikes": 12, "stands": 12, "name": "SAINTE-ANNE", "status": "OPEN", "lon": -1.680984, "lat": 48.1145, "update": "2016-02-08T21:09:08", "address": "SAINTE-ANNE"}}, {"type": "Feature", "geometry": {"type": "Point", "coordinates": [-1.674417, 48.112385]}, "properties": {"bikes": 14, "stands": 4, "name": "SAINT GEORGES", "status": "OPEN", "lon": -1.674417, "lat": 48.112385, "update": "2016-02-08T21:09:08", "address": "SAINT GEORGES"}}, {"type": "Feature", "geometry": {"type": "Point", "coordinates": [-1.68677, 48.10665]}, "properties": {"bikes": 19, "stands": 1, "name": "ROTONDE", "status": "OPEN", "lon": -1.68677, "lat": 48.10665, "update": "2016-02-08T21:09:08", "address": "ROTONDE"}}, {"type": "Feature", "geometry": {"type": "Point", "coordinates": [-1.678037, 48.110027]}, "properties": {"bikes": 13, "stands": 17, "name": "REPUBLIQUE", "status": "OPEN", "lon": -1.678037, "lat": 48.110027, "update": "2016-02-08T21:09:08", "address": "REPUBLIQUE"}}, {"type": "Feature", "geometry": {"type": "Point", "coordinates": [-1.67449, 48.119377]}, "properties": {"bikes": 15, "stands": 3, "name": "RECTORAT", "status": "OPEN", "lon": -1.67449, "lat": 48.119377, "update": "2016-02-08T21:09:08", "address": "RECTORAT"}}, {"type": "Feature", "geometry": {"type": "Point", "coordinates": [-1.694032, 48.128452]}, "properties": {"bikes": 18, "stands": 9, "name": "PREFECTURE", "status": "OPEN", "lon": -1.694032, "lat": 48.128452, "update": "2016-02-08T21:09:08", "address": "PREFECTURE"}}, {"type": "Feature", "geometry": {"type": "Point", "coordinates": [-1.692737, 48.12148]}, "properties": {"bikes": 10, "stands": 18, "name": "PONTCHAILLOU", "status": "OPEN", "lon": -1.692737, "lat": 48.12148, "update": "2016-02-08T21:09:08", "address": "PONTCHAILLOU"}}, {"type": "Feature", "geometry": {"type": "Point", "coordinates": [-1.659299, 48.10998]}, "properties": {"bikes": 19, "stands": 1, "name": "ROBIDOU", "status": "OPEN", "lon": -1.659299, "lat": 48.10998, "update": "2016-02-08T21:09:08", "address": "ROBIDOU"}}, {"type": "Feature", "geometry": {"type": "Point", "coordinates": [-1.684015, 48.102016]}, "properties": {"bikes": 12, "stands": 8, "name": "PONT DE NANTES", "status": "OPEN", "lon": -1.684015, "lat": 48.102016, "update": "2016-02-08T21:09:08", "address": "PONT DE NANTES"}}, {"type": "Feature", "geometry": {"type": "Point", "coordinates": [-1.664332, 48.11026]}, "properties": {"bikes": 16, "stands": 4, "name": "PONT DE CHATEAUDUN", "status": "OPEN", "lon": -1.664332, "lat": 48.11026, "update": "2016-02-08T21:09:08", "address": "PONT DE CHATEAUDUN"}}, {"type": "Feature", "geometry": {"type": "Point", "coordinates": [-1.681374, 48.105896]}, "properties": {"bikes": 7, "stands": 11, "name": "PLELO COLOMBIER", "status": "OPEN", "lon": -1.681374, "lat": 48.105896, "update": "2016-02-08T21:09:08", "address": "PLELO COLOMBIER"}}, {"type": "Feature", "geometry": {"type": "Point", "coordinates": [-1.677073, 48.115074]}, "properties": {"bikes": 8, "stands": 16, "name": "PLACE HOCHE", "status": "OPEN", "lon": -1.677073, "lat": 48.115074, "update": "2016-02-08T21:09:08", "address": "PLACE HOCHE"}}, {"type": "Feature", "geometry": {"type": "Point", "coordinates": [-1.684019, 48.10962]}, "properties": {"bikes": 11, "stands": 9, "name": "PLACE DE BRETAGNE", "status": "OPEN", "lon": -1.684019, "lat": 48.10962, "update": "2016-02-08T21:09:08", "address": "PLACE DE BRETAGNE"}}, {"type": "Feature", "geometry": {"type": "Point", "coordinates": [-1.651576, 48.13461]}, "properties": {"bikes": 7, "stands": 19, "name": "PISCINE GAYEULLES", "status": "OPEN", "lon": -1.651576, "lat": 48.13461, "update": "2016-02-08T21:09:08", "address": "PISCINE GAYEULLES"}}, {"type": "Feature", "geometry": {"type": "Point", "coordinates": [-1.690242, 48.089622]}, "properties": {"bikes": 5, "stands": 19, "name": "PISCINE BREQUIGNY", "status": "OPEN", "lon": -1.690242, "lat": 48.089622, "update": "2016-02-08T21:09:08", "address": "PISCINE BREQUIGNY"}}, {"type": "Feature", "geometry": {"type": "Point", "coordinates": [-1.662322, 48.1035]}, "properties": {"bikes": 4, "stands": 16, "name": "PIERRE MARTIN", "status": "OPEN", "lon": -1.662322, "lat": 48.1035, "update": "2016-02-08T21:09:08", "address": "PIERRE MARTIN"}}, {"type": "Feature", "geometry": {"type": "Point", "coordinates": [-1.670039, 48.110115]}, "properties": {"bikes": 15, "stands": 1, "name": "PAUL BERT", "status": "OPEN", "lon": -1.670039, "lat": 48.110115, "update": "2016-02-08T21:09:08", "address": "PAUL BERT"}}, {"type": "Feature", "geometry": {"type": "Point", "coordinates": [-1.660547, 48.122993]}, "properties": {"bikes": 10, "stands": 7, "name": "PAINLEVE", "status": "OPEN", "lon": -1.660547, "lat": 48.122993, "update": "2016-02-08T21:09:08", "address": "PAINLEVE"}}, {"type": "Feature", "geometry": {"type": "Point", "coordinates": [-1.683106, 48.110294]}, "properties": {"bikes": 10, "stands": 0, "name": "OFFICE DE TOURISME", "status": "OPEN", "lon": -1.683106, "lat": 48.110294, "update": "2016-02-08T21:09:08", "address": "OFFICE DE TOURISME"}}, {"type": "Feature", "geometry": {"type": "Point", "coordinates": [-1.661858, 48.11355]}, "properties": {"bikes": 6, "stands": 14, "name": "OBERTHUR", "status": "OPEN", "lon": -1.661858, "lat": 48.11355, "update": "2016-02-08T21:09:08", "address": "OBERTHUR"}}, {"type": "Feature", "geometry": {"type": "Point", "coordinates": [-1.674081, 48.1096]}, "properties": {"bikes": 2, "stands": 14, "name": "MUSEE BEAUX ARTS", "status": "OPEN", "lon": -1.674081, "lat": 48.1096, "update": "2016-02-08T21:09:08", "address": "MUSEE BEAUX ARTS"}}, {"type": "Feature", "geometry": {"type": "Point", "coordinates": [-1.643861, 48.112488]}, "properties": {"bikes": 5, "stands": 19, "name": "PLAINE DE BAUD", "status": "OPEN", "lon": -1.643861, "lat": 48.112488, "update": "2016-02-08T21:09:08", "address": "PLAINE DE BAUD"}}, {"type": "Feature", "geometry": {"type": "Point", "coordinates": [-1.66667, 48.1367]}, "properties": {"bikes": 8, "stands": 6, "name": "MONTS D'ARREE", "status": "OPEN", "lon": -1.66667, "lat": 48.1367, "update": "2016-02-08T21:09:08", "address": "MONTS D'ARREE"}}, {"type": "Feature", "geometry": {"type": "Point", "coordinates": [-1.658258, 48.115993]}, "properties": {"bikes": 6, "stands": 10, "name": "METZ SEVIGNE", "status": "OPEN", "lon": -1.658258, "lat": 48.115993, "update": "2016-02-08T21:09:08", "address": "METZ SEVIGNE"}}, {"type": "Feature", "geometry": {"type": "Point", "coordinates": [-1.688143, 48.097927]}, "properties": {"bikes": 8, "stands": 4, "name": "MERMOZ", "status": "OPEN", "lon": -1.688143, "lat": 48.097927, "update": "2016-02-08T21:09:08", "address": "MERMOZ"}}, {"type": "Feature", "geometry": {"type": "Point", "coordinates": [-1.702077, 48.111748]}, "properties": {"bikes": 17, "stands": 3, "name": "MARBEUF", "status": "OPEN", "lon": -1.702077, "lat": 48.111748, "update": "2016-02-08T21:09:08", "address": "MARBEUF"}}, {"type": "Feature", "geometry": {"type": "Point", "coordinates": [-1.698107, 48.10524]}, "properties": {"bikes": 6, "stands": 2, "name": "VOLTAIRE", "status": "OPEN", "lon": -1.698107, "lat": 48.10524, "update": "2016-02-08T21:09:08", "address": "VOLTAIRE"}}, {"type": "Feature", "geometry": {"type": "Point", "coordinates": [-1.678757, 48.111626]}, "properties": {"bikes": 10, "stands": 14, "name": "MAIRIE", "status": "OPEN", "lon": -1.678757, "lat": 48.111626, "update": "2016-02-08T21:09:08", "address": "MAIRIE"}}, {"type": "Feature", "geometry": {"type": "Point", "coordinates": [-1.678163, 48.107513]}, "properties": {"bikes": 22, "stands": 2, "name": "LIBERTE", "status": "OPEN", "lon": -1.678163, "lat": 48.107513, "update": "2016-02-08T21:09:08", "address": "LIBERTE"}}, {"type": "Feature", "geometry": {"type": "Point", "coordinates": [-1.685037, 48.112766]}, "properties": {"bikes": 17, "stands": 3, "name": "LES LICES", "status": "OPEN", "lon": -1.685037, "lat": 48.112766, "update": "2016-02-08T21:09:08", "address": "LES LICES"}}, {"type": "Feature", "geometry": {"type": "Point", "coordinates": [-1.680085, 48.107624]}, "properties": {"bikes": 11, "stands": 4, "name": "LES HALLES", "status": "OPEN", "lon": -1.680085, "lat": 48.107624, "update": "2016-02-08T21:09:08", "address": "LES HALLES"}}, {"type": "Feature", "geometry": {"type": "Point", "coordinates": [-1.665817, 48.106846]}, "properties": {"bikes": 10, "stands": 6, "name": "LAENNEC", "status": "OPEN", "lon": -1.665817, "lat": 48.106846, "update": "2016-02-08T21:09:08", "address": "LAENNEC"}}, {"type": "Feature", "geometry": {"type": "Point", "coordinates": [-1.690944, 48.116608]}, "properties": {"bikes": 6, "stands": 10, "name": "LA TOUCHE", "status": "OPEN", "lon": -1.690944, "lat": 48.116608, "update": "2016-02-08T21:09:08", "address": "LA TOUCHE"}}, {"type": "Feature", "geometry": {"type": "Point", "coordinates": [-1.710315, 48.125618]}, "properties": {"bikes": 6, "stands": 18, "name": "LA HARPE", "status": "OPEN", "lon": -1.710315, "lat": 48.125618, "update": "2016-02-08T21:09:08", "address": "LA HARPE"}}, {"type": "Feature", "geometry": {"type": "Point", "coordinates": [-1.671152, 48.12137]}, "properties": {"bikes": 11, "stands": 5, "name": "JULES FERRY", "status": "OPEN", "lon": -1.671152, "lat": 48.12137, "update": "2016-02-08T21:09:08", "address": "JULES FERRY"}}, {"type": "Feature", "geometry": {"type": "Point", "coordinates": [-1.709933, 48.121468]}, "properties": {"bikes": 9, "stands": 15, "name": "J.F. KENNEDY", "status": "OPEN", "lon": -1.709933, "lat": 48.121468, "update": "2016-02-08T21:09:08", "address": "J.F. KENNEDY"}}, {"type": "Feature", "geometry": {"type": "Point", "coordinates": [-1.674306, 48.09753]}, "properties": {"bikes": 6, "stands": 18, "name": "JACQUES CARTIER", "status": "OPEN", "lon": -1.674306, "lat": 48.09753, "update": "2016-02-08T21:09:08", "address": "JACQUES CARTIER"}}, {"type": "Feature", "geometry": {"type": "Point", "coordinates": [-1.667568, 48.08674]}, "properties": {"bikes": 7, "stands": 9, "name": "ITALIE", "status": "OPEN", "lon": -1.667568, "lat": 48.08674, "update": "2016-02-08T21:09:08", "address": "ITALIE"}}, {"type": "Feature", "geometry": {"type": "Point", "coordinates": [-1.663173, 48.130524]}, "properties": {"bikes": 5, "stands": 9, "name": "HOUX CITE U", "status": "OPEN", "lon": -1.663173, "lat": 48.130524, "update": "2016-02-08T21:09:08", "address": "HOUX CITE U"}}, {"type": "Feature", "geometry": {"type": "Point", "coordinates": [-1.677849, 48.117596]}, "properties": {"bikes": 14, "stands": 10, "name": "HOTEL DIEU", "status": "OPEN", "lon": -1.677849, "lat": 48.117596, "update": "2016-02-08T21:09:08", "address": "HOTEL DIEU"}}, {"type": "Feature", "geometry": {"type": "Point", "coordinates": [-1.688502, 48.112064]}, "properties": {"bikes": 13, "stands": 1, "name": "HORIZONS", "status": "OPEN", "lon": -1.688502, "lat": 48.112064, "update": "2016-02-08T21:09:08", "address": "HORIZONS"}}, {"type": "Feature", "geometry": {"type": "Point", "coordinates": [-1.67485, 48.087337]}, "properties": {"bikes": 9, "stands": 15, "name": "HENRI FREVILLE", "status": "OPEN", "lon": -1.67485, "lat": 48.087337, "update": "2016-02-08T21:09:08", "address": "HENRI FREVILLE"}}, {"type": "Feature", "geometry": {"type": "Point", "coordinates": [-1.665101, 48.126797]}, "properties": {"bikes": 0, "stands": 18, "name": "GROS CHENE", "status": "OPEN", "lon": -1.665101, "lat": 48.126797, "update": "2016-02-08T21:09:08", "address": "GROS CHENE"}}, {"type": "Feature", "geometry": {"type": "Point", "coordinates": [-1.709492, 48.10893]}, "properties": {"bikes": 12, "stands": 3, "name": "GENIAUX", "status": "OPEN", "lon": -1.709492, "lat": 48.10893, "update": "2016-02-08T21:09:08", "address": "GENIAUX"}}, {"type": "Feature", "geometry": {"type": "Point", "coordinates": [-1.673133, 48.10225]}, "properties": {"bikes": 5, "stands": 15, "name": "GARES (SUD)", "status": "OPEN", "lon": -1.673133, "lat": 48.10225, "update": "2016-02-08T21:09:08", "address": "GARES (SUD)"}}, {"type": "Feature", "geometry": {"type": "Point", "coordinates": [-1.671268, 48.104156]}, "properties": {"bikes": 1, "stands": 34, "name": "GARE SOLFERINO", "status": "OPEN", "lon": -1.671268, "lat": 48.104156, "update": "2016-02-08T21:09:08", "address": "GARE SOLFERINO"}}, {"type": "Feature", "geometry": {"type": "Point", "coordinates": [-1.670736, 48.11817]}, "properties": {"bikes": 6, "stands": 20, "name": "FAC DE DROIT", "status": "OPEN", "lon": -1.670736, "lat": 48.11817, "update": "2016-02-08T21:09:08", "address": "FAC DE DROIT"}}, {"type": "Feature", "geometry": {"type": "Point", "coordinates": [-1.666227, 48.11984]}, "properties": {"bikes": 0, "stands": 16, "name": "GUEHENNO-FOUGERES", "status": "OPEN", "lon": -1.666227, "lat": 48.11984, "update": "2016-02-08T21:09:08", "address": "GUEHENNO-FOUGERES"}}, {"type": "Feature", "geometry": {"type": "Point", "coordinates": [-1.682697, 48.117214]}, "properties": {"bikes": 16, "stands": 0, "name": "DINAN", "status": "OPEN", "lon": -1.682697, "lat": 48.117214, "update": "2016-02-08T21:09:08", "address": "DINAN"}}, {"type": "Feature", "geometry": {"type": "Point", "coordinates": [-1.707086, 48.100956]}, "properties": {"bikes": 22, "stands": 1, "name": "DE LESSEPS", "status": "OPEN", "lon": -1.707086, "lat": 48.100956, "update": "2016-02-08T21:09:08", "address": "DE LESSEPS"}}, {"type": "Feature", "geometry": {"type": "Point", "coordinates": [-1.67868, 48.10512]}, "properties": {"bikes": 11, "stands": 8, "name": "DALLE DU COLOMBIER", "status": "OPEN", "lon": -1.67868, "lat": 48.10512, "update": "2016-02-08T21:09:08", "address": "DALLE DU COLOMBIER"}}, {"type": "Feature", "geometry": {"type": "Point", "coordinates": [-1.698129, 48.128788]}, "properties": {"bikes": 12, "stands": 13, "name": "CUCILLE", "status": "OPEN", "lon": -1.698129, "lat": 48.128788, "update": "2016-02-08T21:09:08", "address": "CUCILLE"}}, {"type": "Feature", "geometry": {"type": "Point", "coordinates": [-1.712716, 48.104206]}, "properties": {"bikes": 6, "stands": 20, "name": "CLEUNAY", "status": "OPEN", "lon": -1.712716, "lat": 48.104206, "update": "2016-02-08T21:09:08", "address": "CLEUNAY"}}, {"type": "Feature", "geometry": {"type": "Point", "coordinates": [-1.674116, 48.093292]}, "properties": {"bikes": 4, "stands": 17, "name": "CLEMENCEAU", "status": "OPEN", "lon": -1.674116, "lat": 48.093292, "update": "2016-02-08T21:09:08", "address": "CLEMENCEAU"}}, {"type": "Feature", "geometry": {"type": "Point", "coordinates": [-1.68411, 48.10477]}, "properties": {"bikes": 16, "stands": 8, "name": "CITE JUDICIAIRE", "status": "OPEN", "lon": -1.68411, "lat": 48.10477, "update": "2016-02-08T21:09:08", "address": "CITE JUDICIAIRE"}}, {"type": "Feature", "geometry": {"type": "Point", "coordinates": [-1.65012, 48.104355]}, "properties": {"bikes": 12, "stands": 6, "name": "CIMETIERE EST", "status": "OPEN", "lon": -1.65012, "lat": 48.104355, "update": "2016-02-08T21:09:08", "address": "CIMETIERE EST"}}, {"type": "Feature", "geometry": {"type": "Point", "coordinates": [-1.693404, 48.10887]}, "properties": {"bikes": 20, "stands": 1, "name": "CHEQUES POSTAUX", "status": "OPEN", "lon": -1.693404, "lat": 48.10887, "update": "2016-02-08T21:09:08", "address": "CHEQUES POSTAUX"}}, {"type": "Feature", "geometry": {"type": "Point", "coordinates": [-1.677119, 48.10511]}, "properties": {"bikes": 12, "stands": 12, "name": "CHARLES DE GAULLE", "status": "OPEN", "lon": -1.677119, "lat": 48.10511, "update": "2016-02-08T21:09:08", "address": "CHARLES DE GAULLE"}}, {"type": "Feature", "geometry": {"type": "Point", "coordinates": [-1.682285, 48.091114]}, "properties": {"bikes": 5, "stands": 13, "name": "CHAMPS MANCEAUX", "status": "OPEN", "lon": -1.682285, "lat": 48.091114, "update": "2016-02-08T21:09:08", "address": "CHAMPS MANCEAUX"}}, {"type": "Feature", "geometry": {"type": "Point", "coordinates": [-1.674328, 48.105537]}, "properties": {"bikes": 10, "stands": 14, "name": "CHAMPS LIBRES", "status": "OPEN", "lon": -1.674328, "lat": 48.105537, "update": "2016-02-08T21:09:08", "address": "CHAMPS LIBRES"}}, {"type": "Feature", "geometry": {"type": "Point", "coordinates": [-1.680062, 48.112762]}, "properties": {"bikes": 22, "stands": 2, "name": "CHAMP JACQUET", "status": "OPEN", "lon": -1.680062, "lat": 48.112762, "update": "2016-02-08T21:09:08", "address": "CHAMP JACQUET"}}, {"type": "Feature", "geometry": {"type": "Point", "coordinates": [-1.693274, 48.113014]}, "properties": {"bikes": 16, "stands": 0, "name": "BREST VERDUN", "status": "OPEN", "lon": -1.693274, "lat": 48.113014, "update": "2016-02-08T21:09:08", "address": "BREST VERDUN"}}, {"type": "Feature", "geometry": {"type": "Point", "coordinates": [-1.635134, 48.12873]}, "properties": {"bikes": 10, "stands": 8, "name": "BOUZAT", "status": "OPEN", "lon": -1.635134, "lat": 48.12873, "update": "2016-02-08T21:09:08", "address": "BOUZAT"}}, {"type": "Feature", "geometry": {"type": "Point", "coordinates": [-1.667321, 48.091595]}, "properties": {"bikes": 8, "stands": 8, "name": "BINQUENAIS", "status": "OPEN", "lon": -1.667321, "lat": 48.091595, "update": "2016-02-08T21:09:08", "address": "BINQUENAIS"}}, {"type": "Feature", "geometry": {"type": "Point", "coordinates": [-1.705097, 48.116314]}, "properties": {"bikes": 0, "stands": 14, "name": "BERGER", "status": "OPEN", "lon": -1.705097, "lat": 48.116314, "update": "2016-02-08T21:09:08", "address": "BERGER"}}, {"type": "Feature", "geometry": {"type": "Point", "coordinates": [-1.638368, 48.122047]}, "properties": {"bikes": 0, "stands": 0, "name": "BEAULIEU RESTAU U", "status": "CLOSED", "lon": -1.638368, "lat": 48.122047, "update": "2016-02-08T21:09:08", "address": "BEAULIEU RESTAU U"}}, {"type": "Feature", "geometry": {"type": "Point", "coordinates": [-1.633875, 48.11646]}, "properties": {"bikes": 7, "stands": 23, "name": "BEAULIEU CHIMIE", "status": "OPEN", "lon": -1.633875, "lat": 48.11646, "update": "2016-02-08T21:09:08", "address": "BEAULIEU CHIMIE"}}, {"type": "Feature", "geometry": {"type": "Point", "coordinates": [-1.642935, 48.118015]}, "properties": {"bikes": 12, "stands": 18, "name": "BEAULIEU DIAPASON", "status": "OPEN", "lon": -1.642935, "lat": 48.118015, "update": "2016-02-08T21:09:08", "address": "BEAULIEU DIAPASON"}}, {"type": "Feature", "geometry": {"type": "Point", "coordinates": [-1.681876, 48.120876]}, "properties": {"bikes": 17, "stands": 1, "name": "AUBERGE DE JEUNESSE", "status": "OPEN", "lon": -1.681876, "lat": 48.120876, "update": "2016-02-08T21:09:08", "address": "AUBERGE DE JEUNESSE"}}, {"type": "Feature", "geometry": {"type": "Point", "coordinates": [-1.713729, 48.116123]}, "properties": {"bikes": 6, "stands": 24, "name": "ATALANTE CHAMPEAUX", "status": "OPEN", "lon": -1.713729, "lat": 48.116123, "update": "2016-02-08T21:09:08", "address": "ATALANTE CHAMPEAUX"}}, {"type": "Feature", "geometry": {"type": "Point", "coordinates": [-1.686465, 48.118]}, "properties": {"bikes": 14, "stands": 0, "name": "ANATOLE FRANCE", "status": "OPEN", "lon": -1.686465, "lat": 48.118, "update": "2016-02-08T21:09:08", "address": "ANATOLE FRANCE"}}, {"type": "Feature", "geometry": {"type": "Point", "coordinates": [-1.677634, 48.082397]}, "properties": {"bikes": 10, "stands": 10, "name": "ALMA", "status": "OPEN", "lon": -1.677634, "lat": 48.082397, "update": "2016-02-08T21:09:08", "address": "ALMA"}}, {"type": "Feature", "geometry": {"type": "Point", "coordinates": [-1.640468, 48.092785]}, "properties": {"bikes": 0, "stands": 0, "name": "RONCERAY", "status": "OPEN", "lon": -1.640468, "lat": 48.092785, "update": "2016-02-08T21:09:08", "address": "RONCERAY"}}, {"type": "Feature", "geometry": {"type": "Point", "coordinates": [-1.644126, 48.087276]}, "properties": {"bikes": 22, "stands": 6, "name": "LA POTERIE", "status": "OPEN", "lon": -1.644126, "lat": 48.087276, "update": "2016-02-08T21:09:08", "address": "LA POTERIE"}}, {"type": "Feature", "geometry": {"type": "Point", "coordinates": [-1.691598, 48.119186]}, "properties": {"bikes": 2, "stands": 22, "name": "PONTCHAILLOU (TER)", "status": "OPEN", "lon": -1.691598, "lat": 48.119186, "update": "2016-02-08T21:09:08", "address": "PONTCHAILLOU (TER)"}}, {"type": "Feature", "geometry": {"type": "Point", "coordinates": [-1.674006, 48.103832]}, "properties": {"bikes": 0, "stands": 24, "name": "GARE BEAUMONT", "status": "OPEN", "lon": -1.674006, "lat": 48.103832, "update": "2016-02-08T21:09:08", "address": "GARE BEAUMONT"}}, {"type": "Feature", "geometry": {"type": "Point", "coordinates": [-1.694523, 48.098909]}, "properties": {"bikes": 6, "stands": 14, "name": "LA COURROUZE", "status": "OPEN", "lon": -1.694523, "lat": 48.098909, "update": "2016-02-08T21:09:08", "address": "LA COURROUZE"}}, {"type": "Feature", "geometry": {"type": "Point", "coordinates": [-1.675788, 48.13]}, "properties": {"bikes": 0, "stands": 0, "name": "ARMORIQUE", "status": "CLOSED", "lon": -1.675788, "lat": 48.13, "update": "2016-02-08T13:40:00", "address": "ARMORIQUE"}}]}
>>>>>>> f138dd437432b1a27f4bd27c1682d307e4633e5c
