{"features": [{"geometry": {"coordinates": [-1.635198, 48.13213], "type": "Point"}, "type": "Feature", "properties": {"status": "OPEN", "lon": -1.635198, "stands": 19, "address": "ZAC SAINT SULPICE", "name": "ZAC SAINT SULPICE", "bikes": 11, "update": "2016-02-07T19:57:09", "lat": 48.13213}}, {"geometry": {"coordinates": [-1.704122, 48.121075], "type": "Point"}, "type": "Feature", "properties": {"status": "OPEN", "lon": -1.704122, "stands": 17, "address": "VILLEJEAN-UNIVERSITE", "name": "VILLEJEAN-UNIVERSITE", "bikes": 9, "update": "2016-02-07T19:57:09", "lat": 48.121075}}, {"geometry": {"coordinates": [-1.651085, 48.12247], "type": "Point"}, "type": "Feature", "properties": {"status": "OPEN", "lon": -1.651085, "stands": 8, "address": "TURMEL", "name": "TURMEL", "bikes": 8, "update": "2016-02-07T19:57:09", "lat": 48.12247}}, {"geometry": {"coordinates": [-1.673711, 48.107746], "type": "Point"}, "type": "Feature", "properties": {"status": "OPEN", "lon": -1.673711, "stands": 1, "address": "TNB", "name": "TNB", "bikes": 27, "update": "2016-02-07T19:57:09", "lat": 48.107746}}, {"geometry": {"coordinates": [-1.663731, 48.094986], "type": "Point"}, "type": "Feature", "properties": {"status": "OPEN", "lon": -1.663731, "stands": 7, "address": "SAINTE THERESE", "name": "SAINTE THERESE", "bikes": 5, "update": "2016-02-07T19:57:09", "lat": 48.094986}}, {"geometry": {"coordinates": [-1.680984, 48.1145], "type": "Point"}, "type": "Feature", "properties": {"status": "OPEN", "lon": -1.680984, "stands": 18, "address": "SAINTE-ANNE", "name": "SAINTE-ANNE", "bikes": 6, "update": "2016-02-07T19:57:09", "lat": 48.1145}}, {"geometry": {"coordinates": [-1.674417, 48.112385], "type": "Point"}, "type": "Feature", "properties": {"status": "OPEN", "lon": -1.674417, "stands": 13, "address": "SAINT GEORGES", "name": "SAINT GEORGES", "bikes": 5, "update": "2016-02-07T19:57:09", "lat": 48.112385}}, {"geometry": {"coordinates": [-1.68677, 48.10665], "type": "Point"}, "type": "Feature", "properties": {"status": "OPEN", "lon": -1.68677, "stands": 3, "address": "ROTONDE", "name": "ROTONDE", "bikes": 17, "update": "2016-02-07T19:57:09", "lat": 48.10665}}, {"geometry": {"coordinates": [-1.678037, 48.110027], "type": "Point"}, "type": "Feature", "properties": {"status": "OPEN", "lon": -1.678037, "stands": 25, "address": "REPUBLIQUE", "name": "REPUBLIQUE", "bikes": 5, "update": "2016-02-07T19:57:09", "lat": 48.110027}}, {"geometry": {"coordinates": [-1.67449, 48.119377], "type": "Point"}, "type": "Feature", "properties": {"status": "OPEN", "lon": -1.67449, "stands": 5, "address": "RECTORAT", "name": "RECTORAT", "bikes": 13, "update": "2016-02-07T19:57:09", "lat": 48.119377}}, {"geometry": {"coordinates": [-1.694032, 48.128452], "type": "Point"}, "type": "Feature", "properties": {"status": "OPEN", "lon": -1.694032, "stands": 15, "address": "PREFECTURE", "name": "PREFECTURE", "bikes": 12, "update": "2016-02-07T19:57:09", "lat": 48.128452}}, {"geometry": {"coordinates": [-1.692737, 48.12148], "type": "Point"}, "type": "Feature", "properties": {"status": "OPEN", "lon": -1.692737, "stands": 18, "address": "PONTCHAILLOU", "name": "PONTCHAILLOU", "bikes": 10, "update": "2016-02-07T19:57:09", "lat": 48.12148}}, {"geometry": {"coordinates": [-1.659299, 48.10998], "type": "Point"}, "type": "Feature", "properties": {"status": "OPEN", "lon": -1.659299, "stands": 17, "address": "ROBIDOU", "name": "ROBIDOU", "bikes": 3, "update": "2016-02-07T19:57:09", "lat": 48.10998}}, {"geometry": {"coordinates": [-1.684015, 48.102016], "type": "Point"}, "type": "Feature", "properties": {"status": "OPEN", "lon": -1.684015, "stands": 7, "address": "PONT DE NANTES", "name": "PONT DE NANTES", "bikes": 13, "update": "2016-02-07T19:57:09", "lat": 48.102016}}, {"geometry": {"coordinates": [-1.664332, 48.11026], "type": "Point"}, "type": "Feature", "properties": {"status": "OPEN", "lon": -1.664332, "stands": 4, "address": "PONT DE CHATEAUDUN", "name": "PONT DE CHATEAUDUN", "bikes": 16, "update": "2016-02-07T19:57:09", "lat": 48.11026}}, {"geometry": {"coordinates": [-1.681374, 48.105896], "type": "Point"}, "type": "Feature", "properties": {"status": "OPEN", "lon": -1.681374, "stands": 17, "address": "PLELO COLOMBIER", "name": "PLELO COLOMBIER", "bikes": 1, "update": "2016-02-07T19:57:09", "lat": 48.105896}}, {"geometry": {"coordinates": [-1.677073, 48.115074], "type": "Point"}, "type": "Feature", "properties": {"status": "OPEN", "lon": -1.677073, "stands": 15, "address": "PLACE HOCHE", "name": "PLACE HOCHE", "bikes": 9, "update": "2016-02-07T19:57:09", "lat": 48.115074}}, {"geometry": {"coordinates": [-1.684019, 48.10962], "type": "Point"}, "type": "Feature", "properties": {"status": "OPEN", "lon": -1.684019, "stands": 5, "address": "PLACE DE BRETAGNE", "name": "PLACE DE BRETAGNE", "bikes": 15, "update": "2016-02-07T19:57:09", "lat": 48.10962}}, {"geometry": {"coordinates": [-1.651576, 48.13461], "type": "Point"}, "type": "Feature", "properties": {"status": "OPEN", "lon": -1.651576, "stands": 19, "address": "PISCINE GAYEULLES", "name": "PISCINE GAYEULLES", "bikes": 7, "update": "2016-02-07T19:57:09", "lat": 48.13461}}, {"geometry": {"coordinates": [-1.690242, 48.089622], "type": "Point"}, "type": "Feature", "properties": {"status": "OPEN", "lon": -1.690242, "stands": 18, "address": "PISCINE BREQUIGNY", "name": "PISCINE BREQUIGNY", "bikes": 6, "update": "2016-02-07T19:57:09", "lat": 48.089622}}, {"geometry": {"coordinates": [-1.662322, 48.1035], "type": "Point"}, "type": "Feature", "properties": {"status": "OPEN", "lon": -1.662322, "stands": 9, "address": "PIERRE MARTIN", "name": "PIERRE MARTIN", "bikes": 11, "update": "2016-02-07T19:57:09", "lat": 48.1035}}, {"geometry": {"coordinates": [-1.670039, 48.110115], "type": "Point"}, "type": "Feature", "properties": {"status": "OPEN", "lon": -1.670039, "stands": 1, "address": "PAUL BERT", "name": "PAUL BERT", "bikes": 15, "update": "2016-02-07T19:57:09", "lat": 48.110115}}, {"geometry": {"coordinates": [-1.660547, 48.122993], "type": "Point"}, "type": "Feature", "properties": {"status": "OPEN", "lon": -1.660547, "stands": 13, "address": "PAINLEVE", "name": "PAINLEVE", "bikes": 4, "update": "2016-02-07T19:57:09", "lat": 48.122993}}, {"geometry": {"coordinates": [-1.683106, 48.110294], "type": "Point"}, "type": "Feature", "properties": {"status": "OPEN", "lon": -1.683106, "stands": 5, "address": "OFFICE DE TOURISME", "name": "OFFICE DE TOURISME", "bikes": 5, "update": "2016-02-07T19:57:09", "lat": 48.110294}}, {"geometry": {"coordinates": [-1.661858, 48.11355], "type": "Point"}, "type": "Feature", "properties": {"status": "OPEN", "lon": -1.661858, "stands": 7, "address": "OBERTHUR", "name": "OBERTHUR", "bikes": 13, "update": "2016-02-07T19:57:09", "lat": 48.11355}}, {"geometry": {"coordinates": [-1.674081, 48.1096], "type": "Point"}, "type": "Feature", "properties": {"status": "OPEN", "lon": -1.674081, "stands": 1, "address": "MUSEE BEAUX ARTS", "name": "MUSEE BEAUX ARTS", "bikes": 15, "update": "2016-02-07T19:57:09", "lat": 48.1096}}, {"geometry": {"coordinates": [-1.643861, 48.112488], "type": "Point"}, "type": "Feature", "properties": {"status": "OPEN", "lon": -1.643861, "stands": 8, "address": "PLAINE DE BAUD", "name": "PLAINE DE BAUD", "bikes": 16, "update": "2016-02-07T19:57:09", "lat": 48.112488}}, {"geometry": {"coordinates": [-1.66667, 48.1367], "type": "Point"}, "type": "Feature", "properties": {"status": "OPEN", "lon": -1.66667, "stands": 7, "address": "MONTS D'ARREE", "name": "MONTS D'ARREE", "bikes": 7, "update": "2016-02-07T19:57:09", "lat": 48.1367}}, {"geometry": {"coordinates": [-1.658258, 48.115993], "type": "Point"}, "type": "Feature", "properties": {"status": "OPEN", "lon": -1.658258, "stands": 8, "address": "METZ SEVIGNE", "name": "METZ SEVIGNE", "bikes": 8, "update": "2016-02-07T19:57:09", "lat": 48.115993}}, {"geometry": {"coordinates": [-1.688143, 48.097927], "type": "Point"}, "type": "Feature", "properties": {"status": "OPEN", "lon": -1.688143, "stands": 6, "address": "MERMOZ", "name": "MERMOZ", "bikes": 6, "update": "2016-02-07T19:57:09", "lat": 48.097927}}, {"geometry": {"coordinates": [-1.702077, 48.111748], "type": "Point"}, "type": "Feature", "properties": {"status": "OPEN", "lon": -1.702077, "stands": 18, "address": "MARBEUF", "name": "MARBEUF", "bikes": 2, "update": "2016-02-07T19:57:09", "lat": 48.111748}}, {"geometry": {"coordinates": [-1.698107, 48.10524], "type": "Point"}, "type": "Feature", "properties": {"status": "OPEN", "lon": -1.698107, "stands": 7, "address": "VOLTAIRE", "name": "VOLTAIRE", "bikes": 9, "update": "2016-02-07T19:57:09", "lat": 48.10524}}, {"geometry": {"coordinates": [-1.678757, 48.111626], "type": "Point"}, "type": "Feature", "properties": {"status": "OPEN", "lon": -1.678757, "stands": 13, "address": "MAIRIE", "name": "MAIRIE", "bikes": 11, "update": "2016-02-07T19:57:09", "lat": 48.111626}}, {"geometry": {"coordinates": [-1.678163, 48.107513], "type": "Point"}, "type": "Feature", "properties": {"status": "OPEN", "lon": -1.678163, "stands": 12, "address": "LIBERTE", "name": "LIBERTE", "bikes": 12, "update": "2016-02-07T19:57:09", "lat": 48.107513}}, {"geometry": {"coordinates": [-1.685037, 48.112766], "type": "Point"}, "type": "Feature", "properties": {"status": "OPEN", "lon": -1.685037, "stands": 0, "address": "LES LICES", "name": "LES LICES", "bikes": 20, "update": "2016-02-07T19:57:09", "lat": 48.112766}}, {"geometry": {"coordinates": [-1.680085, 48.107624], "type": "Point"}, "type": "Feature", "properties": {"status": "OPEN", "lon": -1.680085, "stands": 9, "address": "LES HALLES", "name": "LES HALLES", "bikes": 6, "update": "2016-02-07T19:57:09", "lat": 48.107624}}, {"geometry": {"coordinates": [-1.665817, 48.106846], "type": "Point"}, "type": "Feature", "properties": {"status": "OPEN", "lon": -1.665817, "stands": 1, "address": "LAENNEC", "name": "LAENNEC", "bikes": 15, "update": "2016-02-07T19:57:09", "lat": 48.106846}}, {"geometry": {"coordinates": [-1.690944, 48.116608], "type": "Point"}, "type": "Feature", "properties": {"status": "OPEN", "lon": -1.690944, "stands": 9, "address": "LA TOUCHE", "name": "LA TOUCHE", "bikes": 7, "update": "2016-02-07T19:57:09", "lat": 48.116608}}, {"geometry": {"coordinates": [-1.710315, 48.125618], "type": "Point"}, "type": "Feature", "properties": {"status": "OPEN", "lon": -1.710315, "stands": 9, "address": "LA HARPE", "name": "LA HARPE", "bikes": 15, "update": "2016-02-07T19:57:09", "lat": 48.125618}}, {"geometry": {"coordinates": [-1.671152, 48.12137], "type": "Point"}, "type": "Feature", "properties": {"status": "OPEN", "lon": -1.671152, "stands": 5, "address": "JULES FERRY", "name": "JULES FERRY", "bikes": 11, "update": "2016-02-07T19:57:09", "lat": 48.12137}}, {"geometry": {"coordinates": [-1.709933, 48.121468], "type": "Point"}, "type": "Feature", "properties": {"status": "OPEN", "lon": -1.709933, "stands": 15, "address": "J.F. KENNEDY", "name": "J.F. KENNEDY", "bikes": 9, "update": "2016-02-07T19:57:09", "lat": 48.121468}}, {"geometry": {"coordinates": [-1.674306, 48.09753], "type": "Point"}, "type": "Feature", "properties": {"status": "OPEN", "lon": -1.674306, "stands": 22, "address": "JACQUES CARTIER", "name": "JACQUES CARTIER", "bikes": 2, "update": "2016-02-07T19:57:09", "lat": 48.09753}}, {"geometry": {"coordinates": [-1.667568, 48.08674], "type": "Point"}, "type": "Feature", "properties": {"status": "OPEN", "lon": -1.667568, "stands": 7, "address": "ITALIE", "name": "ITALIE", "bikes": 9, "update": "2016-02-07T19:57:09", "lat": 48.08674}}, {"geometry": {"coordinates": [-1.663173, 48.130524], "type": "Point"}, "type": "Feature", "properties": {"status": "OPEN", "lon": -1.663173, "stands": 4, "address": "HOUX CITE U", "name": "HOUX CITE U", "bikes": 10, "update": "2016-02-07T19:57:09", "lat": 48.130524}}, {"geometry": {"coordinates": [-1.677849, 48.117596], "type": "Point"}, "type": "Feature", "properties": {"status": "OPEN", "lon": -1.677849, "stands": 21, "address": "HOTEL DIEU", "name": "HOTEL DIEU", "bikes": 3, "update": "2016-02-07T19:57:09", "lat": 48.117596}}, {"geometry": {"coordinates": [-1.688502, 48.112064], "type": "Point"}, "type": "Feature", "properties": {"status": "OPEN", "lon": -1.688502, "stands": 3, "address": "HORIZONS", "name": "HORIZONS", "bikes": 11, "update": "2016-02-07T19:57:09", "lat": 48.112064}}, {"geometry": {"coordinates": [-1.67485, 48.087337], "type": "Point"}, "type": "Feature", "properties": {"status": "OPEN", "lon": -1.67485, "stands": 14, "address": "HENRI FREVILLE", "name": "HENRI FREVILLE", "bikes": 10, "update": "2016-02-07T19:57:09", "lat": 48.087337}}, {"geometry": {"coordinates": [-1.665101, 48.126797], "type": "Point"}, "type": "Feature", "properties": {"status": "OPEN", "lon": -1.665101, "stands": 8, "address": "GROS CHENE", "name": "GROS CHENE", "bikes": 10, "update": "2016-02-07T19:57:09", "lat": 48.126797}}, {"geometry": {"coordinates": [-1.709492, 48.10893], "type": "Point"}, "type": "Feature", "properties": {"status": "OPEN", "lon": -1.709492, "stands": 7, "address": "GENIAUX", "name": "GENIAUX", "bikes": 8, "update": "2016-02-07T19:57:09", "lat": 48.10893}}, {"geometry": {"coordinates": [-1.673133, 48.10225], "type": "Point"}, "type": "Feature", "properties": {"status": "OPEN", "lon": -1.673133, "stands": 8, "address": "GARES (SUD)", "name": "GARES (SUD)", "bikes": 12, "update": "2016-02-07T19:57:09", "lat": 48.10225}}, {"geometry": {"coordinates": [-1.671268, 48.104156], "type": "Point"}, "type": "Feature", "properties": {"status": "OPEN", "lon": -1.671268, "stands": 18, "address": "GARE SOLFERINO", "name": "GARE SOLFERINO", "bikes": 17, "update": "2016-02-07T19:57:09", "lat": 48.104156}}, {"geometry": {"coordinates": [-1.670736, 48.11817], "type": "Point"}, "type": "Feature", "properties": {"status": "OPEN", "lon": -1.670736, "stands": 24, "address": "FAC DE DROIT", "name": "FAC DE DROIT", "bikes": 2, "update": "2016-02-07T19:57:09", "lat": 48.11817}}, {"geometry": {"coordinates": [-1.666227, 48.11984], "type": "Point"}, "type": "Feature", "properties": {"status": "OPEN", "lon": -1.666227, "stands": 12, "address": "GUEHENNO-FOUGERES", "name": "GUEHENNO-FOUGERES", "bikes": 3, "update": "2016-02-07T19:57:09", "lat": 48.11984}}, {"geometry": {"coordinates": [-1.682697, 48.117214], "type": "Point"}, "type": "Feature", "properties": {"status": "OPEN", "lon": -1.682697, "stands": 1, "address": "DINAN", "name": "DINAN", "bikes": 15, "update": "2016-02-07T19:57:09", "lat": 48.117214}}, {"geometry": {"coordinates": [-1.707086, 48.100956], "type": "Point"}, "type": "Feature", "properties": {"status": "OPEN", "lon": -1.707086, "stands": 3, "address": "DE LESSEPS", "name": "DE LESSEPS", "bikes": 19, "update": "2016-02-07T19:57:09", "lat": 48.100956}}, {"geometry": {"coordinates": [-1.67868, 48.10512], "type": "Point"}, "type": "Feature", "properties": {"status": "OPEN", "lon": -1.67868, "stands": 4, "address": "DALLE DU COLOMBIER", "name": "DALLE DU COLOMBIER", "bikes": 15, "update": "2016-02-07T19:57:09", "lat": 48.10512}}, {"geometry": {"coordinates": [-1.698129, 48.128788], "type": "Point"}, "type": "Feature", "properties": {"status": "CLOSED", "lon": -1.698129, "stands": 0, "address": "CUCILLE", "name": "CUCILLE", "bikes": 0, "update": "2016-02-07T19:57:09", "lat": 48.128788}}, {"geometry": {"coordinates": [-1.712716, 48.104206], "type": "Point"}, "type": "Feature", "properties": {"status": "OPEN", "lon": -1.712716, "stands": 11, "address": "CLEUNAY", "name": "CLEUNAY", "bikes": 15, "update": "2016-02-07T19:57:09", "lat": 48.104206}}, {"geometry": {"coordinates": [-1.674116, 48.093292], "type": "Point"}, "type": "Feature", "properties": {"status": "OPEN", "lon": -1.674116, "stands": 13, "address": "CLEMENCEAU", "name": "CLEMENCEAU", "bikes": 9, "update": "2016-02-07T19:57:09", "lat": 48.093292}}, {"geometry": {"coordinates": [-1.68411, 48.10477], "type": "Point"}, "type": "Feature", "properties": {"status": "OPEN", "lon": -1.68411, "stands": 13, "address": "CITE JUDICIAIRE", "name": "CITE JUDICIAIRE", "bikes": 11, "update": "2016-02-07T19:57:09", "lat": 48.10477}}, {"geometry": {"coordinates": [-1.65012, 48.104355], "type": "Point"}, "type": "Feature", "properties": {"status": "OPEN", "lon": -1.65012, "stands": 11, "address": "CIMETIERE EST", "name": "CIMETIERE EST", "bikes": 7, "update": "2016-02-07T19:57:09", "lat": 48.104355}}, {"geometry": {"coordinates": [-1.693404, 48.10887], "type": "Point"}, "type": "Feature", "properties": {"status": "OPEN", "lon": -1.693404, "stands": 0, "address": "CHEQUES POSTAUX", "name": "CHEQUES POSTAUX", "bikes": 22, "update": "2016-02-07T19:57:09", "lat": 48.10887}}, {"geometry": {"coordinates": [-1.677119, 48.10511], "type": "Point"}, "type": "Feature", "properties": {"status": "OPEN", "lon": -1.677119, "stands": 5, "address": "CHARLES DE GAULLE", "name": "CHARLES DE GAULLE", "bikes": 19, "update": "2016-02-07T19:57:09", "lat": 48.10511}}, {"geometry": {"coordinates": [-1.682285, 48.091114], "type": "Point"}, "type": "Feature", "properties": {"status": "OPEN", "lon": -1.682285, "stands": 15, "address": "CHAMPS MANCEAUX", "name": "CHAMPS MANCEAUX", "bikes": 3, "update": "2016-02-07T19:57:09", "lat": 48.091114}}, {"geometry": {"coordinates": [-1.674328, 48.105537], "type": "Point"}, "type": "Feature", "properties": {"status": "OPEN", "lon": -1.674328, "stands": 13, "address": "CHAMPS LIBRES", "name": "CHAMPS LIBRES", "bikes": 11, "update": "2016-02-07T19:57:09", "lat": 48.105537}}, {"geometry": {"coordinates": [-1.680062, 48.112762], "type": "Point"}, "type": "Feature", "properties": {"status": "OPEN", "lon": -1.680062, "stands": 14, "address": "CHAMP JACQUET", "name": "CHAMP JACQUET", "bikes": 10, "update": "2016-02-07T19:57:09", "lat": 48.112762}}, {"geometry": {"coordinates": [-1.693274, 48.113014], "type": "Point"}, "type": "Feature", "properties": {"status": "OPEN", "lon": -1.693274, "stands": 4, "address": "BREST VERDUN", "name": "BREST VERDUN", "bikes": 11, "update": "2016-02-07T19:57:09", "lat": 48.113014}}, {"geometry": {"coordinates": [-1.635134, 48.12873], "type": "Point"}, "type": "Feature", "properties": {"status": "OPEN", "lon": -1.635134, "stands": 9, "address": "BOUZAT", "name": "BOUZAT", "bikes": 8, "update": "2016-02-07T19:57:09", "lat": 48.12873}}, {"geometry": {"coordinates": [-1.667321, 48.091595], "type": "Point"}, "type": "Feature", "properties": {"status": "OPEN", "lon": -1.667321, "stands": 7, "address": "BINQUENAIS", "name": "BINQUENAIS", "bikes": 8, "update": "2016-02-07T19:57:09", "lat": 48.091595}}, {"geometry": {"coordinates": [-1.705097, 48.116314], "type": "Point"}, "type": "Feature", "properties": {"status": "OPEN", "lon": -1.705097, "stands": 9, "address": "BERGER", "name": "BERGER", "bikes": 5, "update": "2016-02-07T19:57:09", "lat": 48.116314}}, {"geometry": {"coordinates": [-1.638368, 48.122047], "type": "Point"}, "type": "Feature", "properties": {"status": "CLOSED", "lon": -1.638368, "stands": 0, "address": "BEAULIEU RESTAU U", "name": "BEAULIEU RESTAU U", "bikes": 0, "update": "2016-02-07T19:57:09", "lat": 48.122047}}, {"geometry": {"coordinates": [-1.633875, 48.11646], "type": "Point"}, "type": "Feature", "properties": {"status": "OPEN", "lon": -1.633875, "stands": 12, "address": "BEAULIEU CHIMIE", "name": "BEAULIEU CHIMIE", "bikes": 18, "update": "2016-02-07T19:57:09", "lat": 48.11646}}, {"geometry": {"coordinates": [-1.642935, 48.118015], "type": "Point"}, "type": "Feature", "properties": {"status": "OPEN", "lon": -1.642935, "stands": 22, "address": "BEAULIEU DIAPASON", "name": "BEAULIEU DIAPASON", "bikes": 8, "update": "2016-02-07T19:57:09", "lat": 48.118015}}, {"geometry": {"coordinates": [-1.681876, 48.120876], "type": "Point"}, "type": "Feature", "properties": {"status": "OPEN", "lon": -1.681876, "stands": 0, "address": "AUBERGE DE JEUNESSE", "name": "AUBERGE DE JEUNESSE", "bikes": 18, "update": "2016-02-07T19:57:09", "lat": 48.120876}}, {"geometry": {"coordinates": [-1.713729, 48.116123], "type": "Point"}, "type": "Feature", "properties": {"status": "OPEN", "lon": -1.713729, "stands": 22, "address": "ATALANTE CHAMPEAUX", "name": "ATALANTE CHAMPEAUX", "bikes": 8, "update": "2016-02-07T19:57:09", "lat": 48.116123}}, {"geometry": {"coordinates": [-1.686465, 48.118], "type": "Point"}, "type": "Feature", "properties": {"status": "OPEN", "lon": -1.686465, "stands": 7, "address": "ANATOLE FRANCE", "name": "ANATOLE FRANCE", "bikes": 7, "update": "2016-02-07T19:57:09", "lat": 48.118}}, {"geometry": {"coordinates": [-1.677634, 48.082397], "type": "Point"}, "type": "Feature", "properties": {"status": "OPEN", "lon": -1.677634, "stands": 11, "address": "ALMA", "name": "ALMA", "bikes": 9, "update": "2016-02-07T19:57:09", "lat": 48.082397}}, {"geometry": {"coordinates": [-1.640468, 48.092785], "type": "Point"}, "type": "Feature", "properties": {"status": "OPEN", "lon": -1.640468, "stands": 0, "address": "RONCERAY", "name": "RONCERAY", "bikes": 0, "update": "2016-02-07T19:57:09", "lat": 48.092785}}, {"geometry": {"coordinates": [-1.644126, 48.087276], "type": "Point"}, "type": "Feature", "properties": {"status": "OPEN", "lon": -1.644126, "stands": 11, "address": "LA POTERIE", "name": "LA POTERIE", "bikes": 17, "update": "2016-02-07T19:57:09", "lat": 48.087276}}, {"geometry": {"coordinates": [-1.691598, 48.119186], "type": "Point"}, "type": "Feature", "properties": {"status": "OPEN", "lon": -1.691598, "stands": 14, "address": "PONTCHAILLOU (TER)", "name": "PONTCHAILLOU (TER)", "bikes": 10, "update": "2016-02-07T19:57:09", "lat": 48.119186}}, {"geometry": {"coordinates": [-1.674006, 48.103832], "type": "Point"}, "type": "Feature", "properties": {"status": "OPEN", "lon": -1.674006, "stands": 17, "address": "GARE BEAUMONT", "name": "GARE BEAUMONT", "bikes": 7, "update": "2016-02-07T19:57:09", "lat": 48.103832}}, {"geometry": {"coordinates": [-1.694523, 48.098909], "type": "Point"}, "type": "Feature", "properties": {"status": "OPEN", "lon": -1.694523, "stands": 18, "address": "LA COURROUZE", "name": "LA COURROUZE", "bikes": 2, "update": "2016-02-07T19:57:09", "lat": 48.098909}}], "type": "FeatureCollection"}