{"features": [{"properties": {"bikes": 3, "status": "OPEN", "name": "Radisson Blu Hotel Latvija, Elizabetes iela 55", "stands": 11, "lon": 24.1179245710373, "address": "Radisson Blu Hotel Latvija, Elizabetes iela 55", "lat": 56.9546169995469}, "geometry": {"type": "Point", "coordinates": [24.1179245710373, 56.9546169995469]}, "type": "Feature"}, {"properties": {"bikes": 2, "status": "OPEN", "name": "Valnu/ Kalku ielas krustojums", "stands": 8, "lon": 24.1116642951965, "address": "Valnu/ Kalku ielas krustojums", "lat": 56.9503166573584}, "geometry": {"type": "Point", "coordinates": [24.1116642951965, 56.9503166573584]}, "type": "Feature"}, {"properties": {"bikes": 4, "status": "OPEN", "name": "Elizabetes/ Pulkveza Brieza ielas krustojums", "stands": 8, "lon": 24.105688333511353, "address": "Elizabetes/ Pulkveza Brieza ielas krustojums", "lat": 56.958600955466544}, "geometry": {"type": "Point", "coordinates": [24.105688333511353, 56.958600955466544]}, "type": "Feature"}, {"properties": {"bikes": 0, "status": "OPEN", "name": "Galerija Centrs, Audeju 16 (no Valnu ielas)", "stands": 5, "lon": 24.1128659248352, "address": "Galerija Centrs, Audeju 16 (no Valnu ielas)", "lat": 56.9483915815451}, "geometry": {"type": "Point", "coordinates": [24.1128659248352, 56.9483915815451]}, "type": "Feature"}, {"properties": {"bikes": 0, "status": "OPEN", "name": "Radisson Blu Daugava Hotel, Kugu iela 24", "stands": 10, "lon": 24.0937471389771, "address": "Radisson Blu Daugava Hotel, Kugu iela 24", "lat": 56.9439442178479}, "geometry": {"type": "Point", "coordinates": [24.0937471389771, 56.9439442178479]}, "type": "Feature"}, {"properties": {"bikes": 1, "status": "OPEN", "name": "Dailes Teatris, Brivibas iela 75", "stands": 6, "lon": 24.1270065307617, "address": "Dailes Teatris, Brivibas iela 75", "lat": 56.9594667221538}, "geometry": {"type": "Point", "coordinates": [24.1270065307617, 56.9594667221538]}, "type": "Feature"}, {"properties": {"bikes": 6, "status": "OPEN", "name": "Tallinas/ Miera ielas krustojums", "stands": 3, "lon": 24.1334223747253, "address": "Tallinas/ Miera ielas krustojums", "lat": 56.965225313676}, "geometry": {"type": "Point", "coordinates": [24.1334223747253, 56.965225313676]}, "type": "Feature"}, {"properties": {"bikes": 0, "status": "OPEN", "name": "Kongresu nams, Krisjana Valdemara iela 5", "stands": 9, "lon": 24.1083383560181, "address": "Kongresu nams, Krisjana Valdemara iela 5", "lat": 56.9546872050993}, "geometry": {"type": "Point", "coordinates": [24.1083383560181, 56.9546872050993]}, "type": "Feature"}, {"properties": {"bikes": 0, "status": "OPEN", "name": "Agenskalna tirgus, Nometnu 64", "stands": 9, "lon": 24.0714311599731, "address": "Agenskalna tirgus, Nometnu 64", "lat": 56.9352352117036}, "geometry": {"type": "Point", "coordinates": [24.0714311599731, 56.9352352117036]}, "type": "Feature"}, {"properties": {"bikes": 1, "status": "OPEN", "name": "Kalnciema/ Slokas ielas krustojums", "stands": 9, "lon": 24.0738022327423, "address": "Kalnciema/ Slokas ielas krustojums", "lat": 56.9458695233014}, "geometry": {"type": "Point", "coordinates": [24.0738022327423, 56.9458695233014]}, "type": "Feature"}, {"properties": {"bikes": 0, "status": "OPEN", "name": "Teika, Brivibas gatves/ Lielvardes ielas krustojums", "stands": 10, "lon": 24.1857147216797, "address": "Teika, Brivibas gatves/ Lielvardes ielas krustojums", "lat": 56.9786195886038}, "geometry": {"type": "Point", "coordinates": [24.1857147216797, 56.9786195886038]}, "type": "Feature"}, {"properties": {"bikes": 0, "status": "OPEN", "name": "i/c Olimpia, Azenes iela 5", "stands": 9, "lon": 24.0838766098022, "address": "i/c Olimpia, Azenes iela 5", "lat": 56.9495501497201}, "geometry": {"type": "Point", "coordinates": [24.0838766098022, 56.9495501497201]}, "type": "Feature"}, {"properties": {"bikes": 0, "status": "OPEN", "name": "Moller Auto Krasta, Krasta iela 54", "stands": 3, "lon": 24.150867462158203, "address": "Moller Auto Krasta, Krasta iela 54", "lat": 56.93184002133409}, "geometry": {"type": "Point", "coordinates": [24.150867462158203, 56.93184002133409]}, "type": "Feature"}, {"properties": {"bikes": 0, "status": "OPEN", "name": "Pasa\u017eieru osta, Eksporta iela 3a", "stands": 7, "lon": 24.094948768615723, "address": "Pasa\u017eieru osta, Eksporta iela 3a", "lat": 56.9586419043441}, "geometry": {"type": "Point", "coordinates": [24.094948768615723, 56.9586419043441]}, "type": "Feature"}, {"properties": {"bikes": 4, "status": "OPEN", "name": "Lattelecom, Dzirnavu iela 105", "stands": 3, "lon": 24.123852252960205, "address": "Lattelecom, Dzirnavu iela 105", "lat": 56.95115336144497}, "geometry": {"type": "Point", "coordinates": [24.123852252960205, 56.95115336144497]}, "type": "Feature"}, {"properties": {"bikes": 0, "status": "OPEN", "name": "Citadele banka, Republikas laukums 2a", "stands": 7, "lon": 24.10050630569458, "address": "Citadele banka, Republikas laukums 2a", "lat": 56.95376574670144}, "geometry": {"type": "Point", "coordinates": [24.10050630569458, 56.95376574670144]}, "type": "Feature"}, {"properties": {"bikes": 0, "status": "OPEN", "name": "DUNTES biroji biznesam, Duntes iela 6", "stands": 7, "lon": 24.136791229248047, "address": "DUNTES biroji biznesam, Duntes iela 6", "lat": 56.97761394259473}, "geometry": {"type": "Point", "coordinates": [24.136791229248047, 56.97761394259473]}, "type": "Feature"}, {"properties": {"bikes": 2, "status": "OPEN", "name": "Doma laukums", "stands": 5, "lon": 24.104851484298706, "address": "Doma laukums", "lat": 56.94931024714476}, "geometry": {"type": "Point", "coordinates": [24.104851484298706, 56.94931024714476]}, "type": "Feature"}, {"properties": {"bikes": 0, "status": "OPEN", "name": "Origo, Stacijas laukums 2", "stands": 7, "lon": 24.11969482898712, "address": "Origo, Stacijas laukums 2", "lat": 56.947142277033656}, "geometry": {"type": "Point", "coordinates": [24.11969482898712, 56.947142277033656]}, "type": "Feature"}, {"properties": {"bikes": 0, "status": "OPEN", "name": "Latvijas Nacion\u0101l\u0101 Bibliot\u0113ka, M\u016bkusalas 3", "stands": 5, "lon": 24.097824096679688, "address": "Latvijas Nacion\u0101l\u0101 Bibliot\u0113ka, M\u016bkusalas 3", "lat": 56.94108826253097}, "geometry": {"type": "Point", "coordinates": [24.097824096679688, 56.94108826253097]}, "type": "Feature"}, {"properties": {"bikes": 0, "status": "OPEN", "name": "Zood\u0101rzs, Me\u017eaparks, Me\u017ea prospekts", "stands": 11, "lon": 24.15541648864746, "address": "Zood\u0101rzs, Me\u017eaparks, Me\u017ea prospekts", "lat": 57.00475685392781}, "geometry": {"type": "Point", "coordinates": [24.15541648864746, 57.00475685392781]}, "type": "Feature"}, {"properties": {"bikes": 0, "status": "OPEN", "name": "\u0136eizarme\u017es, Ezermalas iela 30", "stands": 5, "lon": 24.17105913162231, "address": "\u0136eizarme\u017es, Ezermalas iela 30", "lat": 57.00213927889762}, "geometry": {"type": "Point", "coordinates": [24.17105913162231, 57.00213927889762]}, "type": "Feature"}, {"properties": {"bikes": 0, "status": "OPEN", "name": "Albert hotel, Dzirnavu/ Za\u013c\u0101s ielas krustojums", "stands": 6, "lon": 24.113810062408447, "address": "Albert hotel, Dzirnavu/ Za\u013c\u0101s ielas krustojums", "lat": 56.958314312063834}, "geometry": {"type": "Point", "coordinates": [24.113810062408447, 56.958314312063834]}, "type": "Feature"}], "type": "FeatureCollection"}