{"type": "FeatureCollection", "features": [{"type": "Feature", "geometry": {"type": "Point", "coordinates": [24.1179245710373, 56.9546169995469]}, "properties": {"bikes": 3, "stands": 11, "name": "Radisson Blu Hotel Latvija, Elizabetes iela 55", "status": "OPEN", "lon": 24.1179245710373, "lat": 56.9546169995469, "address": "Radisson Blu Hotel Latvija, Elizabetes iela 55"}}, {"type": "Feature", "geometry": {"type": "Point", "coordinates": [24.1116642951965, 56.9503166573584]}, "properties": {"bikes": 2, "stands": 8, "name": "Valnu/ Kalku ielas krustojums", "status": "OPEN", "lon": 24.1116642951965, "lat": 56.9503166573584, "address": "Valnu/ Kalku ielas krustojums"}}, {"type": "Feature", "geometry": {"type": "Point", "coordinates": [24.105688333511353, 56.958600955466544]}, "properties": {"bikes": 4, "stands": 8, "name": "Elizabetes/ Pulkveza Brieza ielas krustojums", "status": "OPEN", "lon": 24.105688333511353, "lat": 56.958600955466544, "address": "Elizabetes/ Pulkveza Brieza ielas krustojums"}}, {"type": "Feature", "geometry": {"type": "Point", "coordinates": [24.1128659248352, 56.9483915815451]}, "properties": {"bikes": 0, "stands": 5, "name": "Galerija Centrs, Audeju 16 (no Valnu ielas)", "status": "OPEN", "lon": 24.1128659248352, "lat": 56.9483915815451, "address": "Galerija Centrs, Audeju 16 (no Valnu ielas)"}}, {"type": "Feature", "geometry": {"type": "Point", "coordinates": [24.0937471389771, 56.9439442178479]}, "properties": {"bikes": 0, "stands": 10, "name": "Radisson Blu Daugava Hotel, Kugu iela 24", "status": "OPEN", "lon": 24.0937471389771, "lat": 56.9439442178479, "address": "Radisson Blu Daugava Hotel, Kugu iela 24"}}, {"type": "Feature", "geometry": {"type": "Point", "coordinates": [24.1270065307617, 56.9594667221538]}, "properties": {"bikes": 1, "stands": 6, "name": "Dailes Teatris, Brivibas iela 75", "status": "OPEN", "lon": 24.1270065307617, "lat": 56.9594667221538, "address": "Dailes Teatris, Brivibas iela 75"}}, {"type": "Feature", "geometry": {"type": "Point", "coordinates": [24.1334223747253, 56.965225313676]}, "properties": {"bikes": 6, "stands": 3, "name": "Tallinas/ Miera ielas krustojums", "status": "OPEN", "lon": 24.1334223747253, "lat": 56.965225313676, "address": "Tallinas/ Miera ielas krustojums"}}, {"type": "Feature", "geometry": {"type": "Point", "coordinates": [24.1083383560181, 56.9546872050993]}, "properties": {"bikes": 0, "stands": 9, "name": "Kongresu nams, Krisjana Valdemara iela 5", "status": "OPEN", "lon": 24.1083383560181, "lat": 56.9546872050993, "address": "Kongresu nams, Krisjana Valdemara iela 5"}}, {"type": "Feature", "geometry": {"type": "Point", "coordinates": [24.0714311599731, 56.9352352117036]}, "properties": {"bikes": 0, "stands": 9, "name": "Agenskalna tirgus, Nometnu 64", "status": "OPEN", "lon": 24.0714311599731, "lat": 56.9352352117036, "address": "Agenskalna tirgus, Nometnu 64"}}, {"type": "Feature", "geometry": {"type": "Point", "coordinates": [24.0738022327423, 56.9458695233014]}, "properties": {"bikes": 1, "stands": 9, "name": "Kalnciema/ Slokas ielas krustojums", "status": "OPEN", "lon": 24.0738022327423, "lat": 56.9458695233014, "address": "Kalnciema/ Slokas ielas krustojums"}}, {"type": "Feature", "geometry": {"type": "Point", "coordinates": [24.1857147216797, 56.9786195886038]}, "properties": {"bikes": 0, "stands": 10, "name": "Teika, Brivibas gatves/ Lielvardes ielas krustojums", "status": "OPEN", "lon": 24.1857147216797, "lat": 56.9786195886038, "address": "Teika, Brivibas gatves/ Lielvardes ielas krustojums"}}, {"type": "Feature", "geometry": {"type": "Point", "coordinates": [24.0838766098022, 56.9495501497201]}, "properties": {"bikes": 0, "stands": 9, "name": "i/c Olimpia, Azenes iela 5", "status": "OPEN", "lon": 24.0838766098022, "lat": 56.9495501497201, "address": "i/c Olimpia, Azenes iela 5"}}, {"type": "Feature", "geometry": {"type": "Point", "coordinates": [24.150867462158203, 56.93184002133409]}, "properties": {"bikes": 0, "stands": 3, "name": "Moller Auto Krasta, Krasta iela 54", "status": "OPEN", "lon": 24.150867462158203, "lat": 56.93184002133409, "address": "Moller Auto Krasta, Krasta iela 54"}}, {"type": "Feature", "geometry": {"type": "Point", "coordinates": [24.094948768615723, 56.9586419043441]}, "properties": {"bikes": 0, "stands": 7, "name": "Pasa\u017eieru osta, Eksporta iela 3a", "status": "OPEN", "lon": 24.094948768615723, "lat": 56.9586419043441, "address": "Pasa\u017eieru osta, Eksporta iela 3a"}}, {"type": "Feature", "geometry": {"type": "Point", "coordinates": [24.123852252960205, 56.95115336144497]}, "properties": {"bikes": 4, "stands": 3, "name": "Lattelecom, Dzirnavu iela 105", "status": "OPEN", "lon": 24.123852252960205, "lat": 56.95115336144497, "address": "Lattelecom, Dzirnavu iela 105"}}, {"type": "Feature", "geometry": {"type": "Point", "coordinates": [24.10050630569458, 56.95376574670144]}, "properties": {"bikes": 0, "stands": 7, "name": "Citadele banka, Republikas laukums 2a", "status": "OPEN", "lon": 24.10050630569458, "lat": 56.95376574670144, "address": "Citadele banka, Republikas laukums 2a"}}, {"type": "Feature", "geometry": {"type": "Point", "coordinates": [24.136791229248047, 56.97761394259473]}, "properties": {"bikes": 0, "stands": 7, "name": "DUNTES biroji biznesam, Duntes iela 6", "status": "OPEN", "lon": 24.136791229248047, "lat": 56.97761394259473, "address": "DUNTES biroji biznesam, Duntes iela 6"}}, {"type": "Feature", "geometry": {"type": "Point", "coordinates": [24.104851484298706, 56.94931024714476]}, "properties": {"bikes": 2, "stands": 5, "name": "Doma laukums", "status": "OPEN", "lon": 24.104851484298706, "lat": 56.94931024714476, "address": "Doma laukums"}}, {"type": "Feature", "geometry": {"type": "Point", "coordinates": [24.11969482898712, 56.947142277033656]}, "properties": {"bikes": 0, "stands": 7, "name": "Origo, Stacijas laukums 2", "status": "OPEN", "lon": 24.11969482898712, "lat": 56.947142277033656, "address": "Origo, Stacijas laukums 2"}}, {"type": "Feature", "geometry": {"type": "Point", "coordinates": [24.097824096679688, 56.94108826253097]}, "properties": {"bikes": 0, "stands": 5, "name": "Latvijas Nacion\u0101l\u0101 Bibliot\u0113ka, M\u016bkusalas 3", "status": "OPEN", "lon": 24.097824096679688, "lat": 56.94108826253097, "address": "Latvijas Nacion\u0101l\u0101 Bibliot\u0113ka, M\u016bkusalas 3"}}, {"type": "Feature", "geometry": {"type": "Point", "coordinates": [24.15541648864746, 57.00475685392781]}, "properties": {"bikes": 0, "stands": 11, "name": "Zood\u0101rzs, Me\u017eaparks, Me\u017ea prospekts", "status": "OPEN", "lon": 24.15541648864746, "lat": 57.00475685392781, "address": "Zood\u0101rzs, Me\u017eaparks, Me\u017ea prospekts"}}, {"type": "Feature", "geometry": {"type": "Point", "coordinates": [24.17105913162231, 57.00213927889762]}, "properties": {"bikes": 0, "stands": 5, "name": "\u0136eizarme\u017es, Ezermalas iela 30", "status": "OPEN", "lon": 24.17105913162231, "lat": 57.00213927889762, "address": "\u0136eizarme\u017es, Ezermalas iela 30"}}, {"type": "Feature", "geometry": {"type": "Point", "coordinates": [24.113810062408447, 56.958314312063834]}, "properties": {"bikes": 0, "stands": 6, "name": "Albert hotel, Dzirnavu/ Za\u013c\u0101s ielas krustojums", "status": "OPEN", "lon": 24.113810062408447, "lat": 56.958314312063834, "address": "Albert hotel, Dzirnavu/ Za\u013c\u0101s ielas krustojums"}}]}