{"type": "FeatureCollection", "features": [{"type": "Feature", "geometry": {"type": "Point", "coordinates": [15.891530513763428, 43.733576930799934]}, "properties": {"bikes": 6, "stands": 8, "name": "Gat Krka", "status": "OPEN", "lon": 15.891530513763428, "lat": 43.733576930799934, "address": "Gat Krka"}}, {"type": "Feature", "geometry": {"type": "Point", "coordinates": [15.89319884777069, 43.73447618514107]}, "properties": {"bikes": 1, "stands": 5, "name": "Poljana", "status": "OPEN", "lon": 15.89319884777069, "lat": 43.73447618514107, "address": "Poljana"}}, {"type": "Feature", "geometry": {"type": "Point", "coordinates": [15.902366638183594, 43.7290455687853]}, "properties": {"bikes": 2, "stands": 4, "name": "Baldekin", "status": "OPEN", "lon": 15.902366638183594, "lat": 43.7290455687853, "address": "Baldekin"}}, {"type": "Feature", "geometry": {"type": "Point", "coordinates": [15.909082889556887, 43.712029550837734]}, "properties": {"bikes": 3, "stands": 3, "name": "iNavis, SEO \u0160ibenik", "status": "OPEN", "lon": 15.909082889556887, "lat": 43.712029550837734, "address": "iNavis, SEO \u0160ibenik"}}, {"type": "Feature", "geometry": {"type": "Point", "coordinates": [15.89590787887573, 43.74573897707891]}, "properties": {"bikes": 1, "stands": 5, "name": "\u0160ubi\u0107evac, Caffe bar Shuby", "status": "OPEN", "lon": 15.89590787887573, "lat": 43.74573897707891, "address": "\u0160ubi\u0107evac, Caffe bar Shuby"}}]}