{"features": [{"properties": {"bikes": 6, "status": "OPEN", "name": "Gat Krka", "stands": 8, "lon": 15.891530513763428, "address": "Gat Krka", "lat": 43.733576930799934}, "geometry": {"type": "Point", "coordinates": [15.891530513763428, 43.733576930799934]}, "type": "Feature"}, {"properties": {"bikes": 1, "status": "OPEN", "name": "Poljana", "stands": 5, "lon": 15.89319884777069, "address": "Poljana", "lat": 43.73447618514107}, "geometry": {"type": "Point", "coordinates": [15.89319884777069, 43.73447618514107]}, "type": "Feature"}, {"properties": {"bikes": 2, "status": "OPEN", "name": "Baldekin", "stands": 4, "lon": 15.902366638183594, "address": "Baldekin", "lat": 43.7290455687853}, "geometry": {"type": "Point", "coordinates": [15.902366638183594, 43.7290455687853]}, "type": "Feature"}, {"properties": {"bikes": 3, "status": "OPEN", "name": "iNavis, SEO \u0160ibenik", "stands": 3, "lon": 15.909082889556887, "address": "iNavis, SEO \u0160ibenik", "lat": 43.712029550837734}, "geometry": {"type": "Point", "coordinates": [15.909082889556887, 43.712029550837734]}, "type": "Feature"}, {"properties": {"bikes": 1, "status": "OPEN", "name": "\u0160ubi\u0107evac, Caffe bar Shuby", "stands": 5, "lon": 15.89590787887573, "address": "\u0160ubi\u0107evac, Caffe bar Shuby", "lat": 43.74573897707891}, "geometry": {"type": "Point", "coordinates": [15.89590787887573, 43.74573897707891]}, "type": "Feature"}], "type": "FeatureCollection"}