{"type": "FeatureCollection", "features": [{"type": "Feature", "geometry": {"type": "Point", "coordinates": [1.441003598726198, 43.608951960496405]}, "properties": {"name": "00055 - ST SERNIN G. ARNOULT", "lon": 1.441003598726198, "lat": 43.608951960496405, "status": "OPEN", "stands": 14, "update": "2016-02-04T18:46:53", "address": "2 RUE GATIEN ARNOULT", "bikes": 1}}, {"type": "Feature", "geometry": {"type": "Point", "coordinates": [1.45907112459247, 43.59723540303583]}, "properties": {"name": "00195 - LARROUSSE -RIEUX", "lon": 1.45907112459247, "lat": 43.59723540303583, "status": "OPEN", "stands": 12, "update": "2016-02-04T18:44:01", "address": "FACE 15 RUE PIERRE LAROUSSE", "bikes": 6}}, {"type": "Feature", "geometry": {"type": "Point", "coordinates": [1.46278065695466, 43.571433064051334]}, "properties": {"name": "00229 - IUT RANGUEIL", "lon": 1.46278065695466, "lat": 43.571433064051334, "status": "OPEN", "stands": 16, "update": "2016-02-04T18:40:56", "address": "129 AV DE RANGUEIL", "bikes": 1}}, {"type": "Feature", "geometry": {"type": "Point", "coordinates": [1.452605307400692, 43.597074846780274]}, "properties": {"name": "00065 - VERDIER - GRAND ROND", "lon": 1.452605307400692, "lat": 43.597074846780274, "status": "OPEN", "stands": 21, "update": "2016-02-04T18:43:13", "address": "2 ALL FORAIN FRANCOIS VERDIER", "bikes": 6}}, {"type": "Feature", "geometry": {"type": "Point", "coordinates": [1.45195665819857, 43.60221990815785]}, "properties": {"name": "00022 - CARNOT ROLAND", "lon": 1.45195665819857, "lat": 43.60221990815785, "status": "OPEN", "stands": 19, "update": "2016-02-04T18:45:23", "address": "24 BD LAZARE CARNOT", "bikes": 1}}, {"type": "Feature", "geometry": {"type": "Point", "coordinates": [1.403872948950036, 43.59729443895585]}, "properties": {"name": "00236 - TOEC / LEMIRE", "lon": 1.403872948950036, "lat": 43.59729443895585, "status": "OPEN", "stands": 19, "update": "2016-02-04T18:37:23", "address": "RUE DE L'ABBE JULES LEMIRE", "bikes": 1}}, {"type": "Feature", "geometry": {"type": "Point", "coordinates": [1.442921175845342, 43.615259799224134]}, "properties": {"name": "00111 - MINIMES PASSERELLE", "lon": 1.442921175845342, "lat": 43.615259799224134, "status": "OPEN", "stands": 0, "update": "2016-02-04T18:42:48", "address": "38B BD DES MINIMES", "bikes": 27}}, {"type": "Feature", "geometry": {"type": "Point", "coordinates": [1.43180804154469, 43.632641237523]}, "properties": {"name": "00243 - ETATS-UNIS / FERRY", "lon": 1.43180804154469, "lat": 43.632641237523, "status": "OPEN", "stands": 10, "update": "2016-02-04T18:40:46", "address": "96 av des Etats-Unis angle rue Jules Ferry", "bikes": 7}}, {"type": "Feature", "geometry": {"type": "Point", "coordinates": [1.452693250180783, 43.63692179179762]}, "properties": {"name": "00174 - MAUNOURY / MELA", "lon": 1.452693250180783, "lat": 43.63692179179762, "status": "OPEN", "stands": 4, "update": "2016-02-04T18:43:42", "address": "41 AV MAURICE BOURGES MAUNOURY", "bikes": 15}}, {"type": "Feature", "geometry": {"type": "Point", "coordinates": [1.420275802412521, 43.60094924792523]}, "properties": {"name": "00137 - BRUNHES-FONTAINES", "lon": 1.420275802412521, "lat": 43.60094924792523, "status": "OPEN", "stands": 13, "update": "2016-02-04T18:37:27", "address": "47 BD JEAN BRUNHES", "bikes": 7}}, {"type": "Feature", "geometry": {"type": "Point", "coordinates": [1.421715694303944, 43.61606217398145]}, "properties": {"name": "00144 - SUISSE - LAUSANE", "lon": 1.421715694303944, "lat": 43.61606217398145, "status": "OPEN", "stands": 7, "update": "2016-02-04T18:43:44", "address": "62 BD DE SUISSE", "bikes": 13}}, {"type": "Feature", "geometry": {"type": "Point", "coordinates": [1.453588691746783, 43.604660136134775]}, "properties": {"name": "00040 - COLOMBETTE", "lon": 1.453588691746783, "lat": 43.604660136134775, "status": "OPEN", "stands": 12, "update": "2016-02-04T18:47:12", "address": "41 RUE DE LA COLOMBETTE", "bikes": 4}}, {"type": "Feature", "geometry": {"type": "Point", "coordinates": [1.445569311598848, 43.60333593826575]}, "properties": {"name": "00003 - POMME", "lon": 1.445569311598848, "lat": 43.60333593826575, "status": "OPEN", "stands": 2, "update": "2016-02-04T18:47:00", "address": "62 RUE DE LA POMME", "bikes": 16}}, {"type": "Feature", "geometry": {"type": "Point", "coordinates": [1.418420510391943, 43.5955673906372]}, "properties": {"name": "00139 - BARRIERE DE LOMBEZ", "lon": 1.418420510391943, "lat": 43.5955673906372, "status": "OPEN", "stands": 6, "update": "2016-02-04T18:47:04", "address": "39 BIS AV DE LOMBEZ", "bikes": 18}}, {"type": "Feature", "geometry": {"type": "Point", "coordinates": [1.44361404386217, 43.614465544425535]}, "properties": {"name": "00093 - PRINTEMPS", "lon": 1.44361404386217, "lat": 43.614465544425535, "status": "OPEN", "stands": 14, "update": "2016-02-04T18:38:12", "address": "57 RUE DU PRINTEMPS", "bikes": 3}}, {"type": "Feature", "geometry": {"type": "Point", "coordinates": [1.429556601823956, 43.59989498759688]}, "properties": {"name": "00081 - JARDIN RAYMOND VI", "lon": 1.429556601823956, "lat": 43.59989498759688, "status": "OPEN", "stands": 9, "update": "2016-02-04T18:46:02", "address": "ALL CHARLES DE FITTE", "bikes": 24}}, {"type": "Feature", "geometry": {"type": "Point", "coordinates": [1.449039275575635, 43.64108958806659]}, "properties": {"name": "00248 - BOUQUETINS/E. ROSTAND", "lon": 1.449039275575635, "lat": 43.64108958806659, "status": "OPEN", "stands": 9, "update": "2016-02-04T18:41:52", "address": "RUE DES BOUQUETINS ANGLE RUE EDMOND ROSTAND", "bikes": 11}}, {"type": "Feature", "geometry": {"type": "Point", "coordinates": [1.437631489341106, 43.60863633636605]}, "properties": {"name": "00053 - PLACE SAINT JULIEN", "lon": 1.437631489341106, "lat": 43.60863633636605, "status": "OPEN", "stands": 23, "update": "2016-02-04T18:45:26", "address": "PL SAINT JULIEN", "bikes": 2}}, {"type": "Feature", "geometry": {"type": "Point", "coordinates": [1.432335729928681, 43.609500004240715]}, "properties": {"name": "00087 - LASCROSSES LECLERC", "lon": 1.432335729928681, "lat": 43.609500004240715, "status": "OPEN", "stands": 15, "update": "2016-02-04T18:39:54", "address": "47 BD LASCROSSES", "bikes": 10}}, {"type": "Feature", "geometry": {"type": "Point", "coordinates": [1.438340345212284, 43.612327522628846]}, "properties": {"name": "00121 - SERRES - A. BERNARD", "lon": 1.438340345212284, "lat": 43.612327522628846, "status": "OPEN", "stands": 12, "update": "2016-02-04T18:40:32", "address": "33 AV HONRE SERRES", "bikes": 4}}, {"type": "Feature", "geometry": {"type": "Point", "coordinates": [1.469393836823441, 43.577166917623245]}, "properties": {"name": "00239 - LESPINET / HERBETTES", "lon": 1.469393836823441, "lat": 43.577166917623245, "status": "OPEN", "stands": 14, "update": "2016-02-04T18:45:51", "address": "FACE AU 127 AVENUE DE LESPINET", "bikes": 6}}, {"type": "Feature", "geometry": {"type": "Point", "coordinates": [1.445420780739279, 43.604134687021045]}, "properties": {"name": "00001 - POIDS DE L'HUILE", "lon": 1.445420780739279, "lat": 43.604134687021045, "status": "OPEN", "stands": 6, "update": "2016-02-04T18:47:05", "address": "12 RUE DU POIDS DE L'HUILE", "bikes": 13}}, {"type": "Feature", "geometry": {"type": "Point", "coordinates": [1.446593812218414, 43.605852162177925]}, "properties": {"name": "00007 - PLACE VICTOR HUGO", "lon": 1.446593812218414, "lat": 43.605852162177925, "status": "OPEN", "stands": 3, "update": "2016-02-04T18:45:58", "address": "6 RUE DU REMPART VILLENEUVE", "bikes": 21}}, {"type": "Feature", "geometry": {"type": "Point", "coordinates": [1.43298, 43.64751]}, "properties": {"name": "00259 - PLACE RICHE", "lon": 1.43298, "lat": 43.64751, "status": "OPEN", "stands": 4, "update": "2016-02-04T18:43:59", "address": "Place Riche / Lalande - 31000 TOULOUSE", "bikes": 16}}, {"type": "Feature", "geometry": {"type": "Point", "coordinates": [1.451330504561275, 43.628236592839514]}, "properties": {"name": "00234 - LOIN / RAYNAL", "lon": 1.451330504561275, "lat": 43.628236592839514, "status": "OPEN", "stands": 0, "update": "2016-02-04T18:45:18", "address": "RUE LOIN 100M AVT RAYNAL", "bikes": 15}}, {"type": "Feature", "geometry": {"type": "Point", "coordinates": [1.409162125552512, 43.587659413053814]}, "properties": {"name": "00192 - RTE DE ST SIMON/PRADO", "lon": 1.409162125552512, "lat": 43.587659413053814, "status": "OPEN", "stands": 16, "update": "2016-02-04T18:40:27", "address": "355 route de saint-Simon", "bikes": 3}}, {"type": "Feature", "geometry": {"type": "Point", "coordinates": [1.444132711268797, 43.59474911973265]}, "properties": {"name": "00048 - PLACE DU SALIN", "lon": 1.444132711268797, "lat": 43.59474911973265, "status": "OPEN", "stands": 12, "update": "2016-02-04T18:43:04", "address": "18 PL DU SALIN", "bikes": 10}}, {"type": "Feature", "geometry": {"type": "Point", "coordinates": [1.45256734914219, 43.6394555737186]}, "properties": {"name": "00175 - METRO MAUNOURY", "lon": 1.45256734914219, "lat": 43.6394555737186, "status": "OPEN", "stands": 16, "update": "2016-02-04T18:39:47", "address": "Avenue Maurice BOURGES MAUNOURY", "bikes": 14}}, {"type": "Feature", "geometry": {"type": "Point", "coordinates": [1.462031097914686, 43.574366149048714]}, "properties": {"name": "00166 - RANGUEIL GUYOU", "lon": 1.462031097914686, "lat": 43.574366149048714, "status": "OPEN", "stands": 14, "update": "2016-02-04T18:46:17", "address": "23 RUE GUYOU", "bikes": 6}}, {"type": "Feature", "geometry": {"type": "Point", "coordinates": [1.458585739964361, 43.62316326019301]}, "properties": {"name": "00135 - BONNEFOY   LEMAITRE", "lon": 1.458585739964361, "lat": 43.62316326019301, "status": "OPEN", "stands": 6, "update": "2016-02-04T18:44:35", "address": "183 RUE DU FB  BONNEFOY", "bikes": 12}}, {"type": "Feature", "geometry": {"type": "Point", "coordinates": [1.453805825078145, 43.590622011025665]}, "properties": {"name": "00115 - DEMOISELLES MISTRAL", "lon": 1.453805825078145, "lat": 43.590622011025665, "status": "OPEN", "stands": 13, "update": "2016-02-04T18:43:56", "address": "8 ALL DES DEMOISELLES", "bikes": 5}}, {"type": "Feature", "geometry": {"type": "Point", "coordinates": [1.44938, 43.59468]}, "properties": {"name": "00067 - MUSEUM", "lon": 1.44938, "lat": 43.59468, "status": "OPEN", "stands": 21, "update": "2016-02-04T18:45:30", "address": "35 ALL JULES GUESDE", "bikes": 0}}, {"type": "Feature", "geometry": {"type": "Point", "coordinates": [1.427517107421507, 43.584282965328995]}, "properties": {"name": "00188 - MURET/LAFAGE", "lon": 1.427517107421507, "lat": 43.584282965328995, "status": "OPEN", "stands": 7, "update": "2016-02-04T18:44:45", "address": "121 AVENUE DE MURET", "bikes": 10}}, {"type": "Feature", "geometry": {"type": "Point", "coordinates": [1.468753766918999, 43.619281402937425]}, "properties": {"name": "00178 - BRUNAUD / PLANA", "lon": 1.468753766918999, "lat": 43.619281402937425, "status": "OPEN", "stands": 13, "update": "2016-02-04T18:47:16", "address": "AVENUE YVES BRUNAUD", "bikes": 7}}, {"type": "Feature", "geometry": {"type": "Point", "coordinates": [1.454436078796189, 43.60265364232074]}, "properties": {"name": "00041 - ST AUBIN CAMICHEL", "lon": 1.454436078796189, "lat": 43.60265364232074, "status": "OPEN", "stands": 20, "update": "2016-02-04T18:43:46", "address": "1 RUE CHARLES CAMICHEL", "bikes": 0}}, {"type": "Feature", "geometry": {"type": "Point", "coordinates": [1.437871385550754, 43.61146971436288]}, "properties": {"name": "00090 - LASCROSSES- A. BERNARD", "lon": 1.437871385550754, "lat": 43.61146971436288, "status": "OPEN", "stands": 12, "update": "2016-02-04T18:44:57", "address": "3B BD LASCROSSES", "bikes": 13}}, {"type": "Feature", "geometry": {"type": "Point", "coordinates": [1.434707777421923, 43.615173611788045]}, "properties": {"name": "00109 - METRO CANAL DU MIDI", "lon": 1.434707777421923, "lat": 43.615173611788045, "status": "OPEN", "stands": 18, "update": "2016-02-04T18:43:04", "address": "1 BD DE LA MARQUETTE", "bikes": 7}}, {"type": "Feature", "geometry": {"type": "Point", "coordinates": [1.464093716152017, 43.60038605818475]}, "properties": {"name": "00197 - CASERNE PERIGNON", "lon": 1.464093716152017, "lat": 43.60038605818475, "status": "OPEN", "stands": 15, "update": "2016-02-04T18:46:26", "address": "6 AV LOUIS BLERIOT", "bikes": 5}}, {"type": "Feature", "geometry": {"type": "Point", "coordinates": [1.452057713684133, 43.60128593726337]}, "properties": {"name": "00023 - COMBATTANTS", "lon": 1.452057713684133, "lat": 43.60128593726337, "status": "OPEN", "stands": 7, "update": "2016-02-04T18:39:03", "address": "6 BD LAZARE CARNOT", "bikes": 18}}, {"type": "Feature", "geometry": {"type": "Point", "coordinates": [1.39262, 43.5792]}, "properties": {"name": "00273 - PASSERIEU - ST SIMON", "lon": 1.39262, "lat": 43.5792, "status": "OPEN", "stands": 10, "update": "2016-02-04T18:41:50", "address": "ROND POINT DES IZARD ANGLEPASSERIEU ET ROUTE ST SIMON", "bikes": 8}}, {"type": "Feature", "geometry": {"type": "Point", "coordinates": [1.437032051956223, 43.605071904633625]}, "properties": {"name": "00029 - VALADE", "lon": 1.437032051956223, "lat": 43.605071904633625, "status": "OPEN", "stands": 19, "update": "2016-02-04T18:44:23", "address": "31 RUE VALADE", "bikes": 0}}, {"type": "Feature", "geometry": {"type": "Point", "coordinates": [1.44871, 43.57383]}, "properties": {"name": "280 - CHARBONNIERE", "lon": 1.44871, "lat": 43.57383, "status": "OPEN", "stands": 9, "update": "2016-02-04T18:42:22", "address": "RUE DE LA CHARBONNIERE ANGLE RUE DES PALMIERS 31000 TOULOUSE", "bikes": 9}}, {"type": "Feature", "geometry": {"type": "Point", "coordinates": [1.441783289134449, 43.579737115748195]}, "properties": {"name": "00156 - METRO EMPALOT", "lon": 1.441783289134449, "lat": 43.579737115748195, "status": "OPEN", "stands": 16, "update": "2016-02-04T18:46:27", "address": "38 AV JEAN MOULIN FACE DEBOUCHE RUE DE CANNES", "bikes": 3}}, {"type": "Feature", "geometry": {"type": "Point", "coordinates": [1.437493796200118, 43.633866178151905]}, "properties": {"name": "00242 -  RAIMBAUD / COLETTE", "lon": 1.437493796200118, "lat": 43.633866178151905, "status": "OPEN", "stands": 1, "update": "2016-02-04T18:45:41", "address": "RUE RAIMBAUD ANGLE RUE COLETTE", "bikes": 15}}, {"type": "Feature", "geometry": {"type": "Point", "coordinates": [1.474881961695726, 43.566595761363736]}, "properties": {"name": "00224 - CAMPUS SUPAERO", "lon": 1.474881961695726, "lat": 43.566595761363736, "status": "OPEN", "stands": 20, "update": "2016-02-04T18:43:01", "address": "AVENUE EDOUARD BELIN FACE CH\u00c2TEAU DU CREPS", "bikes": 0}}, {"type": "Feature", "geometry": {"type": "Point", "coordinates": [1.4420311550308, 43.58995890864312]}, "properties": {"name": "00154 - GALLOIS", "lon": 1.4420311550308, "lat": 43.58995890864312, "status": "OPEN", "stands": 17, "update": "2016-02-04T18:45:18", "address": "RUE DES GALLOIS", "bikes": 3}}, {"type": "Feature", "geometry": {"type": "Point", "coordinates": [1.455204795385279, 43.60974282737991]}, "properties": {"name": "00096 - MEDIATHEQUE", "lon": 1.455204795385279, "lat": 43.60974282737991, "status": "OPEN", "stands": 14, "update": "2016-02-04T18:45:51", "address": "50 RUE DU GENERAL COMPANS", "bikes": 11}}, {"type": "Feature", "geometry": {"type": "Point", "coordinates": [1.438302180907754, 43.624183134252704]}, "properties": {"name": "00152 - MAZADES", "lon": 1.438302180907754, "lat": 43.624183134252704, "status": "OPEN", "stands": 17, "update": "2016-02-04T18:39:39", "address": "10 AV DES MAZADES", "bikes": 3}}, {"type": "Feature", "geometry": {"type": "Point", "coordinates": [1.37975, 43.58132]}, "properties": {"name": "00276 - MARIN REBOUL", "lon": 1.37975, "lat": 43.58132, "status": "OPEN", "stands": 7, "update": "2016-02-04T18:39:31", "address": "chemin du Marin angle chemin du Reboul", "bikes": 11}}, {"type": "Feature", "geometry": {"type": "Point", "coordinates": [1.431605284631358, 43.597835830061406]}, "properties": {"name": "00077 - PLACE INT SAINT CYPRIEN", "lon": 1.431605284631358, "lat": 43.597835830061406, "status": "OPEN", "stands": 0, "update": "2016-02-04T18:41:17", "address": "2 PL INTERIEURE ST CYPRIEN", "bikes": 13}}, {"type": "Feature", "geometry": {"type": "Point", "coordinates": [1.445580732388259, 43.599435045967155]}, "properties": {"name": "00025 - PLACE ROUAIX", "lon": 1.445580732388259, "lat": 43.599435045967155, "status": "OPEN", "stands": 16, "update": "2016-02-04T18:45:06", "address": "1 RUE DES TOURNEURS", "bikes": 2}}, {"type": "Feature", "geometry": {"type": "Point", "coordinates": [1.436175197009508, 43.596660562935625]}, "properties": {"name": "00074 - LAGANNE TEINTURIERS", "lon": 1.436175197009508, "lat": 43.596660562935625, "status": "OPEN", "stands": 1, "update": "2016-02-04T18:43:56", "address": "37 RUE LAGANNE", "bikes": 17}}, {"type": "Feature", "geometry": {"type": "Point", "coordinates": [1.434894328349442, 43.59318934283672]}, "properties": {"name": "00071 - COURS DILLON", "lon": 1.434894328349442, "lat": 43.59318934283672, "status": "OPEN", "stands": 18, "update": "2016-02-04T18:41:15", "address": "3 RUE LAGANNE", "bikes": 4}}, {"type": "Feature", "geometry": {"type": "Point", "coordinates": [1.428862699237109, 43.59764204883991]}, "properties": {"name": "00105 - BILLIERE -CHAMPETRE", "lon": 1.428862699237109, "lat": 43.59764204883991, "status": "OPEN", "stands": 0, "update": "2016-02-04T18:42:16", "address": "12  AV  ETIENNE  BILLIERES", "bikes": 19}}, {"type": "Feature", "geometry": {"type": "Point", "coordinates": [1.454987798766018, 43.60617263070887]}, "properties": {"name": "00064 - PERI MERCADIER", "lon": 1.454987798766018, "lat": 43.60617263070887, "status": "OPEN", "stands": 15, "update": "2016-02-04T18:43:11", "address": "0030 RUE GABRIEL PERI", "bikes": 8}}, {"type": "Feature", "geometry": {"type": "Point", "coordinates": [1.448541598385468, 43.61263652233987]}, "properties": {"name": "00060 - ROQUELAINE", "lon": 1.448541598385468, "lat": 43.61263652233987, "status": "OPEN", "stands": 0, "update": "2016-02-04T18:37:22", "address": "32 PL ROQUELAINE", "bikes": 24}}, {"type": "Feature", "geometry": {"type": "Point", "coordinates": [1.449367822982907, 43.609623167283914]}, "properties": {"name": "00036 - PLACE SCHUMAN", "lon": 1.449367822982907, "lat": 43.609623167283914, "status": "OPEN", "stands": 2, "update": "2016-02-04T18:46:52", "address": "5 PL ROBERT SCHUMAN", "bikes": 22}}, {"type": "Feature", "geometry": {"type": "Point", "coordinates": [1.462869145576551, 43.56160969546884]}, "properties": {"name": "00227 - METRO UPS", "lon": 1.462869145576551, "lat": 43.56160969546884, "status": "OPEN", "stands": 19, "update": "2016-02-04T18:42:39", "address": "118  RTE DE NARBONNE", "bikes": 0}}, {"type": "Feature", "geometry": {"type": "Point", "coordinates": [1.415543960373121, 43.584523123495174]}, "properties": {"name": "00187 - DESBALS MONTDORE", "lon": 1.415543960373121, "lat": 43.584523123495174, "status": "OPEN", "stands": 0, "update": "2016-02-04T18:42:06", "address": "187 RUE HENRI DESBALS", "bikes": 15}}, {"type": "Feature", "geometry": {"type": "Point", "coordinates": [1.473268554354084, 43.56947707206279]}, "properties": {"name": "00225 - BELIN ONERA", "lon": 1.473268554354084, "lat": 43.56947707206279, "status": "OPEN", "stands": 20, "update": "2016-02-04T18:46:22", "address": "AVENUE EDOUARD BELIN DEVANT ONERA", "bikes": 0}}, {"type": "Feature", "geometry": {"type": "Point", "coordinates": [1.432687682718845, 43.60524239596951]}, "properties": {"name": "00084 - BRIENNE MANUFACTURE", "lon": 1.432687682718845, "lat": 43.60524239596951, "status": "OPEN", "stands": 21, "update": "2016-02-04T18:46:27", "address": "19T ALL DE BRIENNE", "bikes": 2}}, {"type": "Feature", "geometry": {"type": "Point", "coordinates": [1.480087483756261, 43.59122002356995]}, "properties": {"name": "00208 - LIMAYRAC/ DARASSE", "lon": 1.480087483756261, "lat": 43.59122002356995, "status": "OPEN", "stands": 9, "update": "2016-02-04T18:47:06", "address": "ALL DE LIMAYRAC", "bikes": 9}}, {"type": "Feature", "geometry": {"type": "Point", "coordinates": [1.414597471267562, 43.61174111564092]}, "properties": {"name": "00131 - BERNIES", "lon": 1.414597471267562, "lat": 43.61174111564092, "status": "OPEN", "stands": 5, "update": "2016-02-04T18:38:46", "address": "15 RUE PAUL BERNIES", "bikes": 14}}, {"type": "Feature", "geometry": {"type": "Point", "coordinates": [1.429880706043356, 43.593506929037055]}, "properties": {"name": "00037 - STE LUCIE", "lon": 1.429880706043356, "lat": 43.593506929037055, "status": "OPEN", "stands": 10, "update": "2016-02-04T18:47:14", "address": "53 RUE STE LUCIE", "bikes": 8}}, {"type": "Feature", "geometry": {"type": "Point", "coordinates": [1.41398, 43.57375]}, "properties": {"name": "00266 - TOURAINE", "lon": 1.41398, "lat": 43.57375, "status": "OPEN", "stands": 14, "update": "2016-02-04T18:45:39", "address": "38 RUE DE LA TOURAINE ANGLE RUE D AUVERGNE 31000 TOULOUSE", "bikes": 5}}, {"type": "Feature", "geometry": {"type": "Point", "coordinates": [1.434138106708093, 43.60112880561738]}, "properties": {"name": "00079 - PLACE LANGE", "lon": 1.434138106708093, "lat": 43.60112880561738, "status": "OPEN", "stands": 6, "update": "2016-02-04T18:43:12", "address": "1 PL LANGE", "bikes": 13}}, {"type": "Feature", "geometry": {"type": "Point", "coordinates": [1.483021040946601, 43.586074956653995]}, "properties": {"name": "00210 - TERRASSE/ CENTRE CO.", "lon": 1.483021040946601, "lat": 43.586074956653995, "status": "OPEN", "stands": 13, "update": "2016-02-04T18:38:31", "address": "FACE 42 CHE DE LA TERRASSE", "bikes": 5}}, {"type": "Feature", "geometry": {"type": "Point", "coordinates": [1.436590757220506, 43.598542607102175]}, "properties": {"name": "00075 - CHATEAU D EAU", "lon": 1.436590757220506, "lat": 43.598542607102175, "status": "OPEN", "stands": 19, "update": "2016-02-04T18:44:05", "address": "12 PL LAGANNE", "bikes": 2}}, {"type": "Feature", "geometry": {"type": "Point", "coordinates": [1.406488768851485, 43.57641895477528]}, "properties": {"name": "00221 - VAUQUELIN", "lon": 1.406488768851485, "lat": 43.57641895477528, "status": "OPEN", "stands": 10, "update": "2016-02-04T18:38:36", "address": "FACE 85 RUE VAUQUELIN", "bikes": 10}}, {"type": "Feature", "geometry": {"type": "Point", "coordinates": [1.447411881616044, 43.58589564207925]}, "properties": {"name": "00128 - PRISON ST MICHEL", "lon": 1.447411881616044, "lat": 43.58589564207925, "status": "OPEN", "stands": 20, "update": "2016-02-04T18:44:54", "address": "18 B GRANDE RUE ST MICHEL", "bikes": 3}}, {"type": "Feature", "geometry": {"type": "Point", "coordinates": [1.450764528471522, 43.58817925392077]}, "properties": {"name": "00118 - PLACE DU BUSCA", "lon": 1.450764528471522, "lat": 43.58817925392077, "status": "OPEN", "stands": 3, "update": "2016-02-04T18:42:31", "address": "2 PLACE DU BUSCA", "bikes": 14}}, {"type": "Feature", "geometry": {"type": "Point", "coordinates": [1.44455, 43.59265]}, "properties": {"name": "00068 - METRO - PALAIS DE JUSTICE", "lon": 1.44455, "lat": 43.59265, "status": "OPEN", "stands": 10, "update": "2016-02-04T18:46:23", "address": "1 BIS ALLEE JULES GUESDE", "bikes": 6}}, {"type": "Feature", "geometry": {"type": "Point", "coordinates": [1.428966282419491, 43.61990748467363]}, "properties": {"name": "00147 - CHAUSSAS - DAUDET", "lon": 1.428966282419491, "lat": 43.61990748467363, "status": "OPEN", "stands": 2, "update": "2016-02-04T18:42:05", "address": "96 RUE DE CHAUSSAS", "bikes": 18}}, {"type": "Feature", "geometry": {"type": "Point", "coordinates": [1.447936286895422, 43.628469420497346]}, "properties": {"name": "00153 - BOURGES MAUNOURY", "lon": 1.447936286895422, "lat": 43.628469420497346, "status": "OPEN", "stands": 10, "update": "2016-02-04T18:47:06", "address": "12 AV BOURGES MAUNOURY", "bikes": 8}}, {"type": "Feature", "geometry": {"type": "Point", "coordinates": [1.45632, 43.64265]}, "properties": {"name": "00262 - ROND POINT CHEMIN DE BORDEROUGE", "lon": 1.45632, "lat": 43.64265, "status": "OPEN", "stands": 14, "update": "2016-02-04T18:46:09", "address": "Devant N\u00b026 Chemin de Borderouge", "bikes": 4}}, {"type": "Feature", "geometry": {"type": "Point", "coordinates": [1.458852500499583, 43.56641276350635]}, "properties": {"name": "00233 - NARBONNE /SAHUQUE", "lon": 1.458852500499583, "lat": 43.56641276350635, "status": "OPEN", "stands": 11, "update": "2016-02-04T18:41:14", "address": "105 RTE DE NARBONNE", "bikes": 9}}, {"type": "Feature", "geometry": {"type": "Point", "coordinates": [1.450245130369442, 43.60411143798555]}, "properties": {"name": "00021 - CARNOT LABEDA", "lon": 1.450245130369442, "lat": 43.60411143798555, "status": "OPEN", "stands": 16, "update": "2016-02-04T18:45:02", "address": "63 BD LAZARE CARNOT", "bikes": 9}}, {"type": "Feature", "geometry": {"type": "Point", "coordinates": [1.45336004007864, 43.609044644058145]}, "properties": {"name": "00062 - JAURES STALINGRAD", "lon": 1.45336004007864, "lat": 43.609044644058145, "status": "OPEN", "stands": 12, "update": "2016-02-04T18:45:12", "address": "71 ALL JEAN JAURES", "bikes": 10}}, {"type": "Feature", "geometry": {"type": "Point", "coordinates": [1.443751822397876, 43.635706776069696]}, "properties": {"name": "00244 - RENAN / VITRY", "lon": 1.443751822397876, "lat": 43.635706776069696, "status": "OPEN", "stands": 2, "update": "2016-02-04T18:46:46", "address": "93 RUE ERNEST RENAN ANGLE RUE VITRY", "bikes": 16}}, {"type": "Feature", "geometry": {"type": "Point", "coordinates": [1.41518438915584, 43.59990824072129]}, "properties": {"name": "00245 - GRANDE BRETAGNE / BADIOU", "lon": 1.41518438915584, "lat": 43.59990824072129, "status": "OPEN", "stands": 19, "update": "2016-02-04T18:39:49", "address": "103 BIS AVENUE DE GRANDE BRETAGNE ANGLE RUE BADIOU", "bikes": 0}}, {"type": "Feature", "geometry": {"type": "Point", "coordinates": [1.43379, 43.64495]}, "properties": {"name": "00260 - DUCLOS - FRONTON", "lon": 1.43379, "lat": 43.64495, "status": "OPEN", "stands": 7, "update": "2016-02-04T18:44:42", "address": "Avenue duclos angle Avenue de Fronton", "bikes": 11}}, {"type": "Feature", "geometry": {"type": "Point", "coordinates": [1.464456852027628, 43.567716505871594]}, "properties": {"name": "00228 - METRO PHARMACIE", "lon": 1.464456852027628, "lat": 43.567716505871594, "status": "OPEN", "stands": 17, "update": "2016-02-04T18:46:15", "address": "FACE 35 CHEMIN DES MARAICHERS", "bikes": 1}}, {"type": "Feature", "geometry": {"type": "Point", "coordinates": [1.43538536091475, 43.6333722270955]}, "properties": {"name": "00235 - PAUL VERLAINE", "lon": 1.43538536091475, "lat": 43.6333722270955, "status": "OPEN", "stands": 16, "update": "2016-02-04T18:37:22", "address": "FACE AU 8 RUE PAUL VERLAINE", "bikes": 3}}, {"type": "Feature", "geometry": {"type": "Point", "coordinates": [1.439870900566373, 43.62593095954932]}, "properties": {"name": "00150 - CURIE CAMPISTRON", "lon": 1.439870900566373, "lat": 43.62593095954932, "status": "OPEN", "stands": 9, "update": "2016-02-04T18:39:34", "address": "78 BD PIERRE ET MARIE CURIE", "bikes": 9}}, {"type": "Feature", "geometry": {"type": "Point", "coordinates": [1.39711, 43.61948]}, "properties": {"name": "00271 - ANCELY", "lon": 1.39711, "lat": 43.61948, "status": "OPEN", "stands": 19, "update": "2016-02-04T18:41:32", "address": "151 AVENUE DE CASSELARDIT SORTIE VILLE 31000 TOULOUSE", "bikes": 1}}, {"type": "Feature", "geometry": {"type": "Point", "coordinates": [1.443570238387108, 43.608568713084686]}, "properties": {"name": "00033 - BERALDI", "lon": 1.443570238387108, "lat": 43.608568713084686, "status": "OPEN", "stands": 8, "update": "2016-02-04T18:41:42", "address": "11 RUE HENRI BERALDI", "bikes": 7}}, {"type": "Feature", "geometry": {"type": "Point", "coordinates": [1.461191671613412, 43.642833569777416]}, "properties": {"name": "00172 - NETWILLER / LAFORGUE", "lon": 1.461191671613412, "lat": 43.642833569777416, "status": "OPEN", "stands": 9, "update": "2016-02-04T18:42:09", "address": "RUE HENRI EBELOT", "bikes": 11}}, {"type": "Feature", "geometry": {"type": "Point", "coordinates": [1.420545407442975, 43.61035351524297]}, "properties": {"name": "00120 - PONTS JUMEAUX", "lon": 1.420545407442975, "lat": 43.61035351524297, "status": "OPEN", "stands": 12, "update": "2016-02-04T18:45:58", "address": "152 ALL DE BARCELONE", "bikes": 6}}, {"type": "Feature", "geometry": {"type": "Point", "coordinates": [1.466442513411802, 43.629671600633195]}, "properties": {"name": "00217 - AMOUROUX/ ST TROPEZ", "lon": 1.466442513411802, "lat": 43.629671600633195, "status": "OPEN", "stands": 7, "update": "2016-02-04T18:37:17", "address": "42 CHE AMOUROUX", "bikes": 11}}, {"type": "Feature", "geometry": {"type": "Point", "coordinates": [1.450535969934731, 43.6331828272491]}, "properties": {"name": "00173 - MAUNOURY / SEGELA", "lon": 1.450535969934731, "lat": 43.6331828272491, "status": "OPEN", "stands": 11, "update": "2016-02-04T18:46:41", "address": "25 AV MAURICE BOURGES MAUNOURY", "bikes": 8}}, {"type": "Feature", "geometry": {"type": "Point", "coordinates": [1.413431676051568, 43.5813322052426]}, "properties": {"name": "00143 - DESBALS SAINTONGE", "lon": 1.413431676051568, "lat": 43.5813322052426, "status": "OPEN", "stands": 7, "update": "2016-02-04T18:43:05", "address": "145 RUE HENRI DESBALS", "bikes": 13}}, {"type": "Feature", "geometry": {"type": "Point", "coordinates": [1.42386687477895, 43.60842211156853]}, "properties": {"name": "00106 - BRIENNE PASSERELLE", "lon": 1.42386687477895, "lat": 43.60842211156853, "status": "OPEN", "stands": 10, "update": "2016-02-04T18:47:11", "address": "99 ALL DE BRIENNE", "bikes": 11}}, {"type": "Feature", "geometry": {"type": "Point", "coordinates": [1.43288072066524, 43.61492465117555]}, "properties": {"name": "00123 - CHAUSSAS EMBOUCHURE", "lon": 1.43288072066524, "lat": 43.61492465117555, "status": "OPEN", "stands": 23, "update": "2016-02-04T18:41:53", "address": "1 RUE DE CHAUSSAS", "bikes": 0}}, {"type": "Feature", "geometry": {"type": "Point", "coordinates": [1.442101445768934, 43.605203861405954]}, "properties": {"name": "00006 - LOIS", "lon": 1.442101445768934, "lat": 43.605203861405954, "status": "OPEN", "stands": 9, "update": "2016-02-04T18:46:26", "address": "5 RUE DES LOIS", "bikes": 11}}, {"type": "Feature", "geometry": {"type": "Point", "coordinates": [1.48346, 43.60086]}, "properties": {"name": "00257 - CHATEAU DE L'HERS", "lon": 1.48346, "lat": 43.60086, "status": "OPEN", "stands": 9, "update": "2016-02-04T18:46:05", "address": "CHEMIN DU CHATEAU DE L'HERS ANGLE CHEMIN FONTANELLES 31000 TOULOUSE", "bikes": 7}}, {"type": "Feature", "geometry": {"type": "Point", "coordinates": [1.451476646620887, 43.61243588156053]}, "properties": {"name": "00097 - RAYMOND IV", "lon": 1.451476646620887, "lat": 43.61243588156053, "status": "OPEN", "stands": 7, "update": "2016-02-04T18:47:19", "address": "RUE RAYMOND IV", "bikes": 14}}, {"type": "Feature", "geometry": {"type": "Point", "coordinates": [1.415183785619737, 43.58998499389323]}, "properties": {"name": "00191 - RUE DU 14 JUILLET", "lon": 1.415183785619737, "lat": 43.58998499389323, "status": "OPEN", "stands": 14, "update": "2016-02-04T18:43:38", "address": "395 ROUTE DE SAINT SIMON", "bikes": 3}}, {"type": "Feature", "geometry": {"type": "Point", "coordinates": [1.449072022617868, 43.60557592007205]}, "properties": {"name": "00019 - CARNOT PERI", "lon": 1.449072022617868, "lat": 43.60557592007205, "status": "OPEN", "stands": 1, "update": "2016-02-04T18:46:22", "address": "62 BD LAZARE CARNOT", "bikes": 24}}, {"type": "Feature", "geometry": {"type": "Point", "coordinates": [1.465376125032407, 43.615227374108336]}, "properties": {"name": "00212 - CHAUMIERE/ CRETES", "lon": 1.465376125032407, "lat": 43.615227374108336, "status": "OPEN", "stands": 14, "update": "2016-02-04T18:39:14", "address": "RUE DE LA CHAUMIERE", "bikes": 3}}, {"type": "Feature", "geometry": {"type": "Point", "coordinates": [1.473505161008297, 43.61680265241856]}, "properties": {"name": "00179 - CASSAING PLANA", "lon": 1.473505161008297, "lat": 43.61680265241856, "status": "OPEN", "stands": 8, "update": "2016-02-04T18:40:31", "address": "5 CH CASSAING", "bikes": 9}}, {"type": "Feature", "geometry": {"type": "Point", "coordinates": [1.463164045792265, 43.58677914294868]}, "properties": {"name": "00204 - PL. ROGER ARNAUD", "lon": 1.463164045792265, "lat": 43.58677914294868, "status": "OPEN", "stands": 12, "update": "2016-02-04T18:45:12", "address": "PL ROGER ARNAUD", "bikes": 6}}, {"type": "Feature", "geometry": {"type": "Point", "coordinates": [1.456658754907086, 43.61894094381528]}, "properties": {"name": "00134 - EGLISE BONNEFOY", "lon": 1.456658754907086, "lat": 43.61894094381528, "status": "OPEN", "stands": 3, "update": "2016-02-04T18:44:49", "address": "8 ALLEE DE L EGLISE BONNEFOY", "bikes": 16}}, {"type": "Feature", "geometry": {"type": "Point", "coordinates": [1.452936514925397, 43.585266840172814]}, "properties": {"name": "00112 - PLACE RUSSEL - BRANLY", "lon": 1.452936514925397, "lat": 43.585266840172814, "status": "OPEN", "stands": 0, "update": "2016-02-04T18:45:42", "address": "47 ALLEE BRANLY", "bikes": 20}}, {"type": "Feature", "geometry": {"type": "Point", "coordinates": [1.424432564672875, 43.574576545136445]}, "properties": {"name": "00241 - ESPAGNE CHARPENTIER", "lon": 1.424432564672875, "lat": 43.574576545136445, "status": "OPEN", "stands": 5, "update": "2016-02-04T18:45:39", "address": "57 Route D'Espagne", "bikes": 15}}, {"type": "Feature", "geometry": {"type": "Point", "coordinates": [1.42463077628583, 43.5931301810241]}, "properties": {"name": "00183 - RUE DE CUGNAUX", "lon": 1.42463077628583, "lat": 43.5931301810241, "status": "OPEN", "stands": 10, "update": "2016-02-04T18:41:03", "address": "RUE DE CUGNAUX", "bikes": 8}}, {"type": "Feature", "geometry": {"type": "Point", "coordinates": [1.454339701099757, 43.61689063107848]}, "properties": {"name": "00126 - ECOLE BONNEFOY", "lon": 1.454339701099757, "lat": 43.61689063107848, "status": "OPEN", "stands": 12, "update": "2016-02-04T18:47:04", "address": "18 RUE BONNEFOY", "bikes": 10}}, {"type": "Feature", "geometry": {"type": "Point", "coordinates": [1.44009, 43.57705]}, "properties": {"name": "00255 - HENRI SELLIER", "lon": 1.44009, "lat": 43.57705, "status": "OPEN", "stands": 14, "update": "2016-02-04T18:38:49", "address": "2 RUE DES MOUETTES ANGLE ALLEES SELLIER 31000 TOULOUSE", "bikes": 2}}, {"type": "Feature", "geometry": {"type": "Point", "coordinates": [1.450179100392055, 43.600398667412286]}, "properties": {"name": "00024 - PLACE SAINT ETIENNE", "lon": 1.450179100392055, "lat": 43.600398667412286, "status": "OPEN", "stands": 10, "update": "2016-02-04T18:38:09", "address": "14 PL SAINT ETIENNE", "bikes": 12}}, {"type": "Feature", "geometry": {"type": "Point", "coordinates": [1.458048662941769, 43.6017932127447]}, "properties": {"name": "00196 - GOUJON - GUILHEMERY", "lon": 1.458048662941769, "lat": 43.6017932127447, "status": "OPEN", "stands": 17, "update": "2016-02-04T18:41:59", "address": "6 RUE JEAN GOUJON", "bikes": 3}}, {"type": "Feature", "geometry": {"type": "Point", "coordinates": [1.44649, 43.57886]}, "properties": {"name": "281 - NIEL", "lon": 1.44649, "lat": 43.57886, "status": "OPEN", "stands": 16, "update": "2016-02-04T18:41:04", "address": "RUE ST ROCH FACE RUE ELVIRE 31000 TOULOUSE", "bikes": 2}}, {"type": "Feature", "geometry": {"type": "Point", "coordinates": [1.436875386155235, 43.61814891164924]}, "properties": {"name": "00124 - EGLISE DES MINIMES", "lon": 1.436875386155235, "lat": 43.61814891164924, "status": "OPEN", "stands": 3, "update": "2016-02-04T18:44:58", "address": "27 AV DES MINIMES", "bikes": 15}}, {"type": "Feature", "geometry": {"type": "Point", "coordinates": [1.481508972569192, 43.58300698375498]}, "properties": {"name": "00207 - CHRIST ROI", "lon": 1.481508972569192, "lat": 43.58300698375498, "status": "OPEN", "stands": 13, "update": "2016-02-04T18:44:48", "address": "FACE 25 RUE DE L AUDE", "bikes": 4}}, {"type": "Feature", "geometry": {"type": "Point", "coordinates": [1.44026, 43.60215]}, "properties": {"name": "00011 - PLACE DE LA DAURADE", "lon": 1.44026, "lat": 43.60215, "status": "OPEN", "stands": 22, "update": "2016-02-04T18:47:12", "address": "2 PL DE LA DAURADE", "bikes": 0}}, {"type": "Feature", "geometry": {"type": "Point", "coordinates": [1.41112908179427, 43.5792182218804]}, "properties": {"name": "00186 - DESBALS BOUALAM", "lon": 1.41112908179427, "lat": 43.5792182218804, "status": "OPEN", "stands": 3, "update": "2016-02-04T18:44:09", "address": "1 IMPASSE BACHAGA BOUALAM", "bikes": 15}}, {"type": "Feature", "geometry": {"type": "Point", "coordinates": [1.44404, 43.62687]}, "properties": {"name": "00252 - NEGRENEYS /CASENEUVE", "lon": 1.44404, "lat": 43.62687, "status": "OPEN", "stands": 2, "update": "2016-02-04T18:45:33", "address": "161/163 AV DE NEGRENEYS SUR ILOT CENTRAL", "bikes": 16}}, {"type": "Feature", "geometry": {"type": "Point", "coordinates": [1.469362217455508, 43.62727712277727]}, "properties": {"name": "00184 - MICHOUN", "lon": 1.469362217455508, "lat": 43.62727712277727, "status": "OPEN", "stands": 4, "update": "2016-02-04T18:46:57", "address": "70 CHEMIN MICHOUN", "bikes": 16}}, {"type": "Feature", "geometry": {"type": "Point", "coordinates": [1.454915112024358, 43.57644751100008]}, "properties": {"name": "00161 - RANGUEIL - BEDOUCE", "lon": 1.454915112024358, "lat": 43.57644751100008, "status": "OPEN", "stands": 6, "update": "2016-02-04T18:42:29", "address": "35 AV DE RANGUEIL", "bikes": 8}}, {"type": "Feature", "geometry": {"type": "Point", "coordinates": [1.3972, 43.60868]}, "properties": {"name": "00268 - PLACE BAYLAC", "lon": 1.3972, "lat": 43.60868, "status": "OPEN", "stands": 22, "update": "2016-02-04T18:47:08", "address": "avenue des Ar\u00e8nes Romaines, avant place du docteur Baylac 31000 TOULOUSE", "bikes": 0}}, {"type": "Feature", "geometry": {"type": "Point", "coordinates": [1.427969819484834, 43.605562378447424]}, "properties": {"name": "00082 - SEJOURNE CATALANS", "lon": 1.427969819484834, "lat": 43.605562378447424, "status": "OPEN", "stands": 16, "update": "2016-02-04T18:39:24", "address": "1 AV PAUL SEJOURNE", "bikes": 4}}, {"type": "Feature", "geometry": {"type": "Point", "coordinates": [1.43421, 43.59253]}, "properties": {"name": "00070 - FER A CHEVAL", "lon": 1.43421, "lat": 43.59253, "status": "OPEN", "stands": 13, "update": "2016-02-04T18:45:21", "address": "5 PLACE DU FER A CHEVAL", "bikes": 5}}, {"type": "Feature", "geometry": {"type": "Point", "coordinates": [1.418128481713567, 43.587583195522946]}, "properties": {"name": "00141 - FONTAINE LESTANG", "lon": 1.418128481713567, "lat": 43.587583195522946, "status": "OPEN", "stands": 7, "update": "2016-02-04T18:42:16", "address": "237 RUE HENRI DESBALS", "bikes": 11}}, {"type": "Feature", "geometry": {"type": "Point", "coordinates": [1.428790629053277, 43.612283701347906]}, "properties": {"name": "00108 - SEBASTOPOL - RITAY", "lon": 1.428790629053277, "lat": 43.612283701347906, "status": "OPEN", "stands": 19, "update": "2016-02-04T18:46:15", "address": "2 BD SEBASTOPOL", "bikes": 1}}, {"type": "Feature", "geometry": {"type": "Point", "coordinates": [1.430598716260075, 43.606708008560005]}, "properties": {"name": "00085 - MARECHAL LECLERC", "lon": 1.430598716260075, "lat": 43.606708008560005, "status": "OPEN", "stands": 10, "update": "2016-02-04T18:44:24", "address": "2 BD DU MARECHAL LECLERC", "bikes": 12}}, {"type": "Feature", "geometry": {"type": "Point", "coordinates": [1.476002176599847, 43.58166894906154]}, "properties": {"name": "00202 - ST EX. - COURREGE", "lon": 1.476002176599847, "lat": 43.58166894906154, "status": "OPEN", "stands": 8, "update": "2016-02-04T18:44:47", "address": "165 AV ANTOINE DE ST EXUPERY", "bikes": 9}}, {"type": "Feature", "geometry": {"type": "Point", "coordinates": [1.453042492588597, 43.593599912488976]}, "properties": {"name": "00102 -  MISTRAL - FLEURANCE", "lon": 1.453042492588597, "lat": 43.593599912488976, "status": "OPEN", "stands": 10, "update": "2016-02-04T18:43:17", "address": "18 ALLEE FREDERIC MISTRAL", "bikes": 9}}, {"type": "Feature", "geometry": {"type": "Point", "coordinates": [1.438224999266949, 43.60629527233212]}, "properties": {"name": "00030 - PLACE ANATOLE FRANCE", "lon": 1.438224999266949, "lat": 43.60629527233212, "status": "OPEN", "stands": 25, "update": "2016-02-04T18:40:12", "address": "40 PL ANATOLE FRANCE", "bikes": 0}}, {"type": "Feature", "geometry": {"type": "Point", "coordinates": [1.464148138450798, 43.635666512128225]}, "properties": {"name": "00170 - ROUTE D ALBI   / CUVIER", "lon": 1.464148138450798, "lat": 43.635666512128225, "status": "OPEN", "stands": 0, "update": "2016-02-04T18:41:28", "address": "FACE 163 CHEMIN NICOLE", "bikes": 17}}, {"type": "Feature", "geometry": {"type": "Point", "coordinates": [1.41954, 43.574]}, "properties": {"name": "00274 - GALLIENI", "lon": 1.41954, "lat": 43.574, "status": "OPEN", "stands": 12, "update": "2016-02-04T18:39:59", "address": "296 route de Seysses", "bikes": 6}}, {"type": "Feature", "geometry": {"type": "Point", "coordinates": [1.467514131065815, 43.60075517705335]}, "properties": {"name": "00213 - PUJOL/ CHAUBET", "lon": 1.467514131065815, "lat": 43.60075517705335, "status": "OPEN", "stands": 14, "update": "2016-02-04T18:46:51", "address": "129 AV DE CASTRES", "bikes": 3}}, {"type": "Feature", "geometry": {"type": "Point", "coordinates": [1.441434965295236, 43.599589544431005]}, "properties": {"name": "00049 - COUTELIER - METZ", "lon": 1.441434965295236, "lat": 43.599589544431005, "status": "OPEN", "stands": 10, "update": "2016-02-04T18:45:54", "address": "52 RUE DES COUTELIERS", "bikes": 6}}, {"type": "Feature", "geometry": {"type": "Point", "coordinates": [1.434650096062823, 43.60864745421513]}, "properties": {"name": "00052 - DUPORTAL CITE ADMIN.", "lon": 1.434650096062823, "lat": 43.60864745421513, "status": "OPEN", "stands": 10, "update": "2016-02-04T18:43:44", "address": "41 BD ARMAND DUPORTAL", "bikes": 11}}, {"type": "Feature", "geometry": {"type": "Point", "coordinates": [1.43104, 43.58903]}, "properties": {"name": "00104 - MURET BARTHERE", "lon": 1.43104, "lat": 43.58903, "status": "OPEN", "stands": 4, "update": "2016-02-04T18:42:28", "address": "219 AV DE MURET", "bikes": 14}}, {"type": "Feature", "geometry": {"type": "Point", "coordinates": [1.441331077590377, 43.60621318190248]}, "properties": {"name": "00013 - LOIS ESQUILE", "lon": 1.441331077590377, "lat": 43.60621318190248, "status": "OPEN", "stands": 15, "update": "2016-02-04T18:38:45", "address": "1 RUE DE L ESQUILE", "bikes": 0}}, {"type": "Feature", "geometry": {"type": "Point", "coordinates": [1.4278, 43.58588]}, "properties": {"name": "00129 - CROIX DE PIERRE", "lon": 1.4278, "lat": 43.58588, "status": "OPEN", "stands": 15, "update": "2016-02-04T18:44:45", "address": "2 BD DEODAT DE SEVERAC", "bikes": 1}}, {"type": "Feature", "geometry": {"type": "Point", "coordinates": [1.449135738584587, 43.580795461338795]}, "properties": {"name": "00158 - URSS ST THOMAS D AQUIN", "lon": 1.449135738584587, "lat": 43.580795461338795, "status": "OPEN", "stands": 2, "update": "2016-02-04T18:45:50", "address": "57 AV DE L URSS", "bikes": 18}}, {"type": "Feature", "geometry": {"type": "Point", "coordinates": [1.458930207887618, 43.626509813353074]}, "properties": {"name": "00168 - BILA   /  ROUTE D ALBI", "lon": 1.458930207887618, "lat": 43.626509813353074, "status": "OPEN", "stands": 8, "update": "2016-02-04T18:42:51", "address": "RUE CREMON", "bikes": 10}}, {"type": "Feature", "geometry": {"type": "Point", "coordinates": [1.46521198710394, 43.63812899582609]}, "properties": {"name": "00249 - CROIX DAURADE", "lon": 1.46521198710394, "lat": 43.63812899582609, "status": "OPEN", "stands": 3, "update": "2016-02-04T18:45:25", "address": "147 RTE D'ALBI", "bikes": 16}}, {"type": "Feature", "geometry": {"type": "Point", "coordinates": [1.4565, 43.59642]}, "properties": {"name": "00015 - PONT MONTAUDRAN", "lon": 1.4565, "lat": 43.59642, "status": "OPEN", "stands": 14, "update": "2016-02-04T18:43:55", "address": "face au 20 port st sauveur", "bikes": 6}}, {"type": "Feature", "geometry": {"type": "Point", "coordinates": [1.439230135508607, 43.63677495879212]}, "properties": {"name": "00247 - LAUNAGUET / AUDIBERT", "lon": 1.439230135508607, "lat": 43.63677495879212, "status": "OPEN", "stands": 6, "update": "2016-02-04T18:39:44", "address": "ROUTE DE LAUNAGUET ANGLE CHEMIN AUDIBERT", "bikes": 12}}, {"type": "Feature", "geometry": {"type": "Point", "coordinates": [1.435181557097925, 43.59849490883457]}, "properties": {"name": "00076 - REPUBLIQUE PL. OLIVIER", "lon": 1.435181557097925, "lat": 43.59849490883457, "status": "OPEN", "stands": 9, "update": "2016-02-04T18:45:31", "address": "34 RUE DE LA REPUBLIQUE", "bikes": 13}}, {"type": "Feature", "geometry": {"type": "Point", "coordinates": [1.415377349047291, 43.594849382545554]}, "properties": {"name": "00193 - LOMBEZ / PETITE VITESSE", "lon": 1.415377349047291, "lat": 43.594849382545554, "status": "OPEN", "stands": 6, "update": "2016-02-04T18:44:24", "address": "59 AV DE LOMBEZ", "bikes": 14}}, {"type": "Feature", "geometry": {"type": "Point", "coordinates": [1.423916022506519, 43.57827536338912]}, "properties": {"name": "00190 - ESPAGNE LES OUSTALOUS", "lon": 1.423916022506519, "lat": 43.57827536338912, "status": "OPEN", "stands": 8, "update": "2016-02-04T18:47:16", "address": "39 RTE D'Espagne", "bikes": 12}}, {"type": "Feature", "geometry": {"type": "Point", "coordinates": [1.43168347755474, 43.6319121122554]}, "properties": {"name": "00253 - ETATS-UNIS / ROBERT", "lon": 1.43168347755474, "lat": 43.6319121122554, "status": "OPEN", "stands": 4, "update": "2016-02-04T18:44:42", "address": "AV DES Etats-Unis FACE AU 68 / 70", "bikes": 16}}, {"type": "Feature", "geometry": {"type": "Point", "coordinates": [1.47765639323401, 43.6122515815792]}, "properties": {"name": "00180 - PLACE SOUPETARD", "lon": 1.47765639323401, "lat": 43.6122515815792, "status": "OPEN", "stands": 15, "update": "2016-02-04T18:42:32", "address": "3 Place SOUPETARD", "bikes": 3}}, {"type": "Feature", "geometry": {"type": "Point", "coordinates": [1.460094426022393, 43.579725432743686]}, "properties": {"name": "00164 - BEDOUCE SAOUZELONG", "lon": 1.460094426022393, "lat": 43.579725432743686, "status": "OPEN", "stands": 16, "update": "2016-02-04T18:42:28", "address": "AV ALBERT BEDOUCE", "bikes": 4}}, {"type": "Feature", "geometry": {"type": "Point", "coordinates": [1.434843235786321, 43.605035688745794]}, "properties": {"name": "00051 - DUPORTAL BRIENNE", "lon": 1.434843235786321, "lat": 43.605035688745794, "status": "OPEN", "stands": 0, "update": "2016-02-04T18:47:00", "address": "1 BD ARMAND DUPORTAL", "bikes": 18}}, {"type": "Feature", "geometry": {"type": "Point", "coordinates": [1.4469, 43.60964]}, "properties": {"name": "00035 - PLACE JEANNE D'ARC", "lon": 1.4469, "lat": 43.60964, "status": "OPEN", "stands": 24, "update": "2016-02-04T18:40:50", "address": "1 RUE RAYMOND IV", "bikes": 1}}, {"type": "Feature", "geometry": {"type": "Point", "coordinates": [1.45174992410964, 43.59800264157314]}, "properties": {"name": "00044 - PALAIS NIEL", "lon": 1.45174992410964, "lat": 43.59800264157314, "status": "OPEN", "stands": 17, "update": "2016-02-04T18:40:47", "address": "1 ALL FORAIN FRANCOIS VERDIER", "bikes": 5}}, {"type": "Feature", "geometry": {"type": "Point", "coordinates": [1.466308391813157, 43.640897350426606]}, "properties": {"name": "00171 - ROUTE D ALBI / CACTUS", "lon": 1.466308391813157, "lat": 43.640897350426606, "status": "OPEN", "stands": 1, "update": "2016-02-04T18:40:01", "address": "191 RTE D'ALBI", "bikes": 17}}, {"type": "Feature", "geometry": {"type": "Point", "coordinates": [1.45491780578712, 43.580276538637605]}, "properties": {"name": "00162 - PLACE D'ITALIE", "lon": 1.45491780578712, "lat": 43.580276538637605, "status": "OPEN", "stands": 5, "update": "2016-02-04T18:41:53", "address": "AV D' ITALIE", "bikes": 12}}, {"type": "Feature", "geometry": {"type": "Point", "coordinates": [1.43922052825561, 43.60749002329994]}, "properties": {"name": "00031 - SALENQUES", "lon": 1.43922052825561, "lat": 43.60749002329994, "status": "OPEN", "stands": 20, "update": "2016-02-04T18:44:37", "address": "7 RUE DES SALENQUES", "bikes": 0}}, {"type": "Feature", "geometry": {"type": "Point", "coordinates": [1.41997369298729, 43.598196214598815]}, "properties": {"name": "00138 - BARRIERE DE BAYONNE", "lon": 1.41997369298729, "lat": 43.598196214598815, "status": "OPEN", "stands": 3, "update": "2016-02-04T18:47:12", "address": "3 BD JEAN BRUNHES", "bikes": 16}}, {"type": "Feature", "geometry": {"type": "Point", "coordinates": [1.459836309553229, 43.587677990128874]}, "properties": {"name": "00098 - PONT DES DEMOISELLES", "lon": 1.459836309553229, "lat": 43.587677990128874, "status": "OPEN", "stands": 16, "update": "2016-02-04T18:43:00", "address": "80 ALL DES DEMOISELLES", "bikes": 6}}, {"type": "Feature", "geometry": {"type": "Point", "coordinates": [1.446610770547085, 43.60793763027584]}, "properties": {"name": "00016 - STRASBOURG BAYARD", "lon": 1.446610770547085, "lat": 43.60793763027584, "status": "OPEN", "stands": 18, "update": "2016-02-04T18:42:18", "address": "32 BD DE STRASBOURG", "bikes": 3}}, {"type": "Feature", "geometry": {"type": "Point", "coordinates": [1.473457600659471, 43.59622771557735]}, "properties": {"name": "00198 - LAFILAIRE - DELTOUR", "lon": 1.473457600659471, "lat": 43.59622771557735, "status": "OPEN", "stands": 13, "update": "2016-02-04T18:46:24", "address": "FACE 25 CHEMIN LAFILAIRE", "bikes": 7}}, {"type": "Feature", "geometry": {"type": "Point", "coordinates": [1.442808436675486, 43.609029818757634]}, "properties": {"name": "00056 - SAINT SERNIN  MERLY", "lon": 1.442808436675486, "lat": 43.609029818757634, "status": "OPEN", "stands": 13, "update": "2016-02-04T18:43:50", "address": "1 RUE MERLY", "bikes": 2}}, {"type": "Feature", "geometry": {"type": "Point", "coordinates": [1.428493330933498, 43.61541821044434]}, "properties": {"name": "00146 - SANG DE SERP - DAGNAUX", "lon": 1.428493330933498, "lat": 43.61541821044434, "status": "OPEN", "stands": 14, "update": "2016-02-04T18:45:57", "address": "57 CH DU SANG DE SERP", "bikes": 6}}, {"type": "Feature", "geometry": {"type": "Point", "coordinates": [1.37764, 43.58996]}, "properties": {"name": "00269 - PLACE SAUVEGRAIN", "lon": 1.37764, "lat": 43.58996, "status": "OPEN", "stands": 8, "update": "2016-02-04T18:37:21", "address": "Place Sauvegrain - angle avenue de Lardenne", "bikes": 10}}, {"type": "Feature", "geometry": {"type": "Point", "coordinates": [1.425222752953333, 43.602528105503815]}, "properties": {"name": "00095 - THEATRE GARONNE", "lon": 1.425222752953333, "lat": 43.602528105503815, "status": "OPEN", "stands": 11, "update": "2016-02-04T18:37:20", "address": "4 AVENUE DU CH\u00c2TEAU D'EAU", "bikes": 11}}, {"type": "Feature", "geometry": {"type": "Point", "coordinates": [1.441220679302088, 43.61325027179293]}, "properties": {"name": "00092 - CHALETS", "lon": 1.441220679302088, "lat": 43.61325027179293, "status": "OPEN", "stands": 9, "update": "2016-02-04T18:44:18", "address": "31 RUE DES CHALETS", "bikes": 6}}, {"type": "Feature", "geometry": {"type": "Point", "coordinates": [1.451651418090918, 43.60754756868432]}, "properties": {"name": "00038 - JAURES BACHELIER", "lon": 1.451651418090918, "lat": 43.60754756868432, "status": "OPEN", "stands": 7, "update": "2016-02-04T18:45:10", "address": "56 ALL JEAN JAURES", "bikes": 11}}, {"type": "Feature", "geometry": {"type": "Point", "coordinates": [1.41868, 43.59175]}, "properties": {"name": "00140 - EMILE MALE", "lon": 1.41868, "lat": 43.59175, "status": "OPEN", "stands": 17, "update": "2016-02-04T18:47:07", "address": "PLACE EMILE MALE", "bikes": 12}}, {"type": "Feature", "geometry": {"type": "Point", "coordinates": [1.458008846441328, 43.606790468455905]}, "properties": {"name": "00176 - GENERAL COMPANS", "lon": 1.458008846441328, "lat": 43.606790468455905, "status": "OPEN", "stands": 17, "update": "2016-02-04T18:37:23", "address": "1 RUE DU GENERAL COMPANS", "bikes": 1}}, {"type": "Feature", "geometry": {"type": "Point", "coordinates": [1.479772209704475, 43.56361464501064]}, "properties": {"name": "00237 - CNRS", "lon": 1.479772209704475, "lat": 43.56361464501064, "status": "OPEN", "stands": 15, "update": "2016-02-04T18:44:07", "address": "AVENUE EDOUARD BELIN FACE CNRS", "bikes": 5}}, {"type": "Feature", "geometry": {"type": "Point", "coordinates": [1.464668419108617, 43.594341505924845]}, "properties": {"name": "00206 - LEYGUE/ RIEUX", "lon": 1.464668419108617, "lat": 43.594341505924845, "status": "OPEN", "stands": 12, "update": "2016-02-04T18:42:30", "address": "20 AV ARMAND LEYGUE", "bikes": 6}}, {"type": "Feature", "geometry": {"type": "Point", "coordinates": [1.435070094381549, 43.610250914040755]}, "properties": {"name": "00088 - DUPORTAL LASCROSSES", "lon": 1.435070094381549, "lat": 43.610250914040755, "status": "OPEN", "stands": 17, "update": "2016-02-04T18:47:19", "address": "17T BD LASCROSSES", "bikes": 7}}, {"type": "Feature", "geometry": {"type": "Point", "coordinates": [1.436628759028233, 43.611036915218165]}, "properties": {"name": "00089 - ESP COMPANS CAFFARELLI", "lon": 1.436628759028233, "lat": 43.611036915218165, "status": "OPEN", "stands": 6, "update": "2016-02-04T18:44:11", "address": "1 ESP COMPANS CAFFARELLI", "bikes": 17}}, {"type": "Feature", "geometry": {"type": "Point", "coordinates": [1.455674042776099, 43.59697406705044]}, "properties": {"name": "00100 - PORT ST SAUVEUR", "lon": 1.455674042776099, "lat": 43.59697406705044, "status": "OPEN", "stands": 12, "update": "2016-02-04T18:42:17", "address": "16 ALL PAUL SABATIER", "bikes": 8}}, {"type": "Feature", "geometry": {"type": "Point", "coordinates": [1.475849028782433, 43.623814424096544]}, "properties": {"name": "00215 - METRO ARGOULETS", "lon": 1.475849028782433, "lat": 43.623814424096544, "status": "OPEN", "stands": 7, "update": "2016-02-04T18:45:22", "address": "FACE 8 RUE DE GAILLAC", "bikes": 13}}, {"type": "Feature", "geometry": {"type": "Point", "coordinates": [1.439762556768512, 43.60842033750804]}, "properties": {"name": "00054 - CHAINE", "lon": 1.439762556768512, "lat": 43.60842033750804, "status": "OPEN", "stands": 10, "update": "2016-02-04T18:44:54", "address": "10 RUE DE LA CHAINE", "bikes": 7}}, {"type": "Feature", "geometry": {"type": "Point", "coordinates": [1.448047137954633, 43.60307769477977]}, "properties": {"name": "00008 - ESPACE SAINT GEORGES", "lon": 1.448047137954633, "lat": 43.60307769477977, "status": "OPEN", "stands": 11, "update": "2016-02-04T18:47:01", "address": "19 RUE PAUL VIDAL", "bikes": 13}}, {"type": "Feature", "geometry": {"type": "Point", "coordinates": [1.37708, 43.58549]}, "properties": {"name": "00277 - ZAMENHOF", "lon": 1.37708, "lat": 43.58549, "status": "OPEN", "stands": 10, "update": "2016-02-04T18:43:05", "address": "10/12 rue zamenhof - 31000 TOuLOUSE", "bikes": 8}}, {"type": "Feature", "geometry": {"type": "Point", "coordinates": [1.473660631896838, 43.600795440313355]}, "properties": {"name": "00214 - CASTRES/ ACHIARY", "lon": 1.473660631896838, "lat": 43.600795440313355, "status": "OPEN", "stands": 15, "update": "2016-02-04T18:43:15", "address": "48 AV DE CASTRES", "bikes": 2}}, {"type": "Feature", "geometry": {"type": "Point", "coordinates": [1.458007861390548, 43.59239101222708]}, "properties": {"name": "00114 - BD MONTPLAISIR - CANAL", "lon": 1.458007861390548, "lat": 43.59239101222708, "status": "OPEN", "stands": 10, "update": "2016-02-04T18:41:34", "address": "8 BD MONPLAISIR", "bikes": 10}}, {"type": "Feature", "geometry": {"type": "Point", "coordinates": [1.445285876671779, 43.60485265221502]}, "properties": {"name": "00002 - LAFAYETTE", "lon": 1.445285876671779, "lat": 43.60485265221502, "status": "OPEN", "stands": 3, "update": "2016-02-04T18:46:49", "address": "21 RUE LAFAYETTE", "bikes": 20}}, {"type": "Feature", "geometry": {"type": "Point", "coordinates": [1.470276283956405, 43.591528310013615]}, "properties": {"name": "00199 - DELTOUR - RIEUX", "lon": 1.470276283956405, "lat": 43.591528310013615, "status": "OPEN", "stands": 22, "update": "2016-02-04T18:37:49", "address": "4 BD DELTOUR", "bikes": 0}}, {"type": "Feature", "geometry": {"type": "Point", "coordinates": [1.478340741030179, 43.565104300575406]}, "properties": {"name": "00223 - ENAC", "lon": 1.478340741030179, "lat": 43.565104300575406, "status": "OPEN", "stands": 20, "update": "2016-02-04T18:43:44", "address": "AVENUE EDOUARD BELIN ANGLE AV ROCHE", "bikes": 2}}, {"type": "Feature", "geometry": {"type": "Point", "coordinates": [1.44544233356215, 43.6003776908545]}, "properties": {"name": "00010 - PLACE ESQUIROL", "lon": 1.44544233356215, "lat": 43.6003776908545, "status": "OPEN", "stands": 17, "update": "2016-02-04T18:47:19", "address": "15 PL ETIENNE ESQUIROL", "bikes": 17}}, {"type": "Feature", "geometry": {"type": "Point", "coordinates": [1.414428635946386, 43.593097534292575]}, "properties": {"name": "00250 - 11 NOVEMBRE", "lon": 1.414428635946386, "lat": 43.593097534292575, "status": "OPEN", "stands": 4, "update": "2016-02-04T18:39:02", "address": "RUE DU 11 NOVEMBRE", "bikes": 14}}, {"type": "Feature", "geometry": {"type": "Point", "coordinates": [1.447014394243565, 43.596327873693475]}, "properties": {"name": "00045 - OZENNE", "lon": 1.447014394243565, "lat": 43.596327873693475, "status": "OPEN", "stands": 19, "update": "2016-02-04T18:47:12", "address": "10 RUE THEODORE OZENNE", "bikes": 0}}, {"type": "Feature", "geometry": {"type": "Point", "coordinates": [1.428253851896989, 43.6055917312578]}, "properties": {"name": "00083 - SEJOURNE AMIDONNIERS", "lon": 1.428253851896989, "lat": 43.6055917312578, "status": "OPEN", "stands": 6, "update": "2016-02-04T18:45:29", "address": "2 AV PAUL SEJOURNE", "bikes": 10}}, {"type": "Feature", "geometry": {"type": "Point", "coordinates": [1.445531445171338, 43.59546175758775]}, "properties": {"name": "00047 - NAZARETH LANGUEDOC", "lon": 1.445531445171338, "lat": 43.59546175758775, "status": "OPEN", "stands": 9, "update": "2016-02-04T18:41:30", "address": "12 RUE DU LANGUEDOC", "bikes": 16}}, {"type": "Feature", "geometry": {"type": "Point", "coordinates": [1.465370657992508, 43.557243695153005]}, "properties": {"name": "00231 - NARBONNE MARFAING", "lon": 1.465370657992508, "lat": 43.557243695153005, "status": "OPEN", "stands": 15, "update": "2016-02-04T18:44:21", "address": "RANGUEIL / CL ROCHE", "bikes": 4}}, {"type": "Feature", "geometry": {"type": "Point", "coordinates": [1.474057401308612, 43.622829380921075]}, "properties": {"name": "00216 - ARGOULETS HOUDON", "lon": 1.474057401308612, "lat": 43.622829380921075, "status": "OPEN", "stands": 12, "update": "2016-02-04T18:46:40", "address": "3 RUE JEAN HOUDON", "bikes": 5}}, {"type": "Feature", "geometry": {"type": "Point", "coordinates": [1.410651114174017, 43.594206765269206]}, "properties": {"name": "00194 - LOMBEZ / HIPPODROME", "lon": 1.410651114174017, "lat": 43.594206765269206, "status": "OPEN", "stands": 13, "update": "2016-02-04T18:39:43", "address": "138 AV DE LOMBEZ", "bikes": 7}}, {"type": "Feature", "geometry": {"type": "Point", "coordinates": [1.39867, 43.58444]}, "properties": {"name": "00263 - LYCEE POLYVALENT", "lon": 1.39867, "lat": 43.58444, "status": "OPEN", "stands": 14, "update": "2016-02-04T18:39:17", "address": "87 AVENUE JEAN BAYLET ANGLE CHEMIN CEPIERES", "bikes": 4}}, {"type": "Feature", "geometry": {"type": "Point", "coordinates": [1.462248097516892, 43.63124672931264]}, "properties": {"name": "00169 - ALBI  / JAFFARY", "lon": 1.462248097516892, "lat": 43.63124672931264, "status": "OPEN", "stands": 3, "update": "2016-02-04T18:45:48", "address": "65 RTE D'ALBI", "bikes": 14}}, {"type": "Feature", "geometry": {"type": "Point", "coordinates": [1.452939708828422, 43.60583232118379]}, "properties": {"name": "00039 - PLACE DAMLOUP", "lon": 1.452939708828422, "lat": 43.60583232118379, "status": "OPEN", "stands": 15, "update": "2016-02-04T18:44:37", "address": "9 PL DE DAMLOUP", "bikes": 4}}, {"type": "Feature", "geometry": {"type": "Point", "coordinates": [1.48049587613679, 43.57965532664315]}, "properties": {"name": "00201 - POTEZ -ST EXUPERY", "lon": 1.48049587613679, "lat": 43.57965532664315, "status": "OPEN", "stands": 11, "update": "2016-02-04T18:40:23", "address": "256 AV ANTOINE DE ST EXUPERY", "bikes": 7}}, {"type": "Feature", "geometry": {"type": "Point", "coordinates": [1.456321836591291, 43.59426485044087]}, "properties": {"name": "00101 - CAPT PORT ST SAUVEUR", "lon": 1.456321836591291, "lat": 43.59426485044087, "status": "OPEN", "stands": 7, "update": "2016-02-04T18:46:51", "address": "5 PORT SAINT SAUVEUR", "bikes": 13}}, {"type": "Feature", "geometry": {"type": "Point", "coordinates": [1.47643, 43.62957]}, "properties": {"name": "00258 - CAMBARD", "lon": 1.47643, "lat": 43.62957, "status": "OPEN", "stands": 5, "update": "2016-02-04T18:39:55", "address": "Boulevard Atlanta / Cambard", "bikes": 13}}, {"type": "Feature", "geometry": {"type": "Point", "coordinates": [1.450284083376377, 43.5785038852904]}, "properties": {"name": "00159 - U.R.S.S DEVIC", "lon": 1.450284083376377, "lat": 43.5785038852904, "status": "OPEN", "stands": 12, "update": "2016-02-04T18:43:12", "address": "96 AV JULES JULIEN", "bikes": 8}}, {"type": "Feature", "geometry": {"type": "Point", "coordinates": [1.432688307877285, 43.59504949175626]}, "properties": {"name": "00072 - FITTE CUGNAUX", "lon": 1.432688307877285, "lat": 43.59504949175626, "status": "OPEN", "stands": 9, "update": "2016-02-04T18:39:08", "address": "23 ALL CHARLES DE FITTE", "bikes": 11}}, {"type": "Feature", "geometry": {"type": "Point", "coordinates": [1.4401, 43.64066]}, "properties": {"name": "00261 - VAN DYCK - LAUNAGUET", "lon": 1.4401, "lat": 43.64066, "status": "OPEN", "stands": 13, "update": "2016-02-04T18:40:11", "address": "Devant le N\u00b06 rue Van Dyck avant angle rue Raphael - 31000 TOULOUSE", "bikes": 5}}, {"type": "Feature", "geometry": {"type": "Point", "coordinates": [1.443059611732516, 43.62459108857192]}, "properties": {"name": "00151 - CURIE - NEGRENEYS", "lon": 1.443059611732516, "lat": 43.62459108857192, "status": "OPEN", "stands": 16, "update": "2016-02-04T18:41:37", "address": "27 BD PIERRE ET MARIE CURIE", "bikes": 8}}, {"type": "Feature", "geometry": {"type": "Point", "coordinates": [1.473118127213999, 43.579425835630786]}, "properties": {"name": "00238 - HERBETTES / BUTTE", "lon": 1.473118127213999, "lat": 43.579425835630786, "status": "OPEN", "stands": 14, "update": "2016-02-04T18:38:11", "address": "AVENUE DES HERBETTES", "bikes": 3}}, {"type": "Feature", "geometry": {"type": "Point", "coordinates": [1.429275168509917, 43.59970386767416]}, "properties": {"name": "00080 - FITTE VARSI", "lon": 1.429275168509917, "lat": 43.59970386767416, "status": "OPEN", "stands": 0, "update": "2016-02-04T18:47:16", "address": "89B ALL CHARLES DE FITTE", "bikes": 23}}, {"type": "Feature", "geometry": {"type": "Point", "coordinates": [1.4431072280246, 43.610488427425665]}, "properties": {"name": "00057 - MERLY ARCOLE", "lon": 1.4431072280246, "lat": 43.610488427425665, "status": "OPEN", "stands": 13, "update": "2016-02-04T18:43:58", "address": "15 RUE MERLY", "bikes": 2}}, {"type": "Feature", "geometry": {"type": "Point", "coordinates": [1.443637125697445, 43.6106186453129]}, "properties": {"name": "00058 - CONCORDE ARCOLE", "lon": 1.443637125697445, "lat": 43.6106186453129, "status": "OPEN", "stands": 13, "update": "2016-02-04T18:41:05", "address": "4 RUE DE LA CONCORDE", "bikes": 12}}, {"type": "Feature", "geometry": {"type": "Point", "coordinates": [1.47297, 43.63539]}, "properties": {"name": "00272 - ANDRE VASSEUR", "lon": 1.47297, "lat": 43.63539, "status": "OPEN", "stands": 8, "update": "2016-02-04T18:39:04", "address": "Boulevard Atlanta / apr\u00e8s angle rue vasseur - 31000 TOULOUSE", "bikes": 9}}, {"type": "Feature", "geometry": {"type": "Point", "coordinates": [1.47517386253435, 43.5628140764194]}, "properties": {"name": "00222 - CAMBOU / ROCHE", "lon": 1.47517386253435, "lat": 43.5628140764194, "status": "OPEN", "stands": 19, "update": "2016-02-04T18:45:11", "address": "AVENUE DU COLONEL ROCHE", "bikes": 1}}, {"type": "Feature", "geometry": {"type": "Point", "coordinates": [1.442047437838665, 43.60233609279122]}, "properties": {"name": "00004 - STE URSULE", "lon": 1.442047437838665, "lat": 43.60233609279122, "status": "OPEN", "stands": 1, "update": "2016-02-04T18:45:37", "address": "15 RUE SAINTE URSULE", "bikes": 19}}, {"type": "Feature", "geometry": {"type": "Point", "coordinates": [1.414531359571464, 43.602050919601446]}, "properties": {"name": "00136 - FONTAINES", "lon": 1.414531359571464, "lat": 43.602050919601446, "status": "OPEN", "stands": 9, "update": "2016-02-04T18:46:08", "address": "RUE DES FONTAINES", "bikes": 6}}, {"type": "Feature", "geometry": {"type": "Point", "coordinates": [1.42438, 43.58807]}, "properties": {"name": "00142 - SEVERAC", "lon": 1.42438, "lat": 43.58807, "status": "OPEN", "stands": 19, "update": "2016-02-04T18:46:39", "address": "BD DEODAT DE SEVERAC", "bikes": 1}}, {"type": "Feature", "geometry": {"type": "Point", "coordinates": [1.481957162051808, 43.60593083247726]}, "properties": {"name": "00182 - CHAUBET", "lon": 1.481957162051808, "lat": 43.60593083247726, "status": "OPEN", "stands": 13, "update": "2016-02-04T18:45:06", "address": "AV JEAN CHAUBET", "bikes": 7}}, {"type": "Feature", "geometry": {"type": "Point", "coordinates": [1.451479779266325, 43.613829128033615]}, "properties": {"name": "00094 - SEMARD GARE ROUTIERE", "lon": 1.451479779266325, "lat": 43.613829128033615, "status": "OPEN", "stands": 3, "update": "2016-02-04T18:43:36", "address": "73 BD PIERRE SEMARD", "bikes": 19}}, {"type": "Feature", "geometry": {"type": "Point", "coordinates": [1.455945448109943, 43.589803552331645]}, "properties": {"name": "00127 - BEGUE - DEMOISELLES", "lon": 1.455945448109943, "lat": 43.589803552331645, "status": "OPEN", "stands": 9, "update": "2016-02-04T18:42:11", "address": "1 RUE BEGUE", "bikes": 6}}, {"type": "Feature", "geometry": {"type": "Point", "coordinates": [1.40142, 43.61354]}, "properties": {"name": "00279 - GUY ESPAGNO", "lon": 1.40142, "lat": 43.61354, "status": "OPEN", "stands": 18, "update": "2016-02-04T18:43:28", "address": "229 AVENUE DE CASSELARDIT CROISEMENT ESPAGNO / CASSELARDIT 31000 TOULOUSE", "bikes": 0}}, {"type": "Feature", "geometry": {"type": "Point", "coordinates": [1.4616307898919, 43.614208387732]}, "properties": {"name": "00251 - BLUM / JOUHAUX", "lon": 1.4616307898919, "lat": 43.614208387732, "status": "OPEN", "stands": 20, "update": "2016-02-04T18:43:32", "address": "26 AVENUE LEON BLUM ANGLE RUE LEON JOUHAUX", "bikes": 0}}, {"type": "Feature", "geometry": {"type": "Point", "coordinates": [1.407211289929025, 43.60419040838992]}, "properties": {"name": "00226 - FONTAINES /CASSELARDIT", "lon": 1.407211289929025, "lat": 43.60419040838992, "status": "OPEN", "stands": 16, "update": "2016-02-04T18:44:48", "address": "292 RUE DES FONTAINES", "bikes": 1}}, {"type": "Feature", "geometry": {"type": "Point", "coordinates": [1.430120187266013, 43.613472358330974]}, "properties": {"name": "00122 - PASSERELLE HAEDENS", "lon": 1.430120187266013, "lat": 43.613472358330974, "status": "OPEN", "stands": 9, "update": "2016-02-04T18:44:29", "address": "57 BD DE L EMBOUCHURE", "bikes": 10}}, {"type": "Feature", "geometry": {"type": "Point", "coordinates": [1.443005133993703, 43.59804753924319]}, "properties": {"name": "00026 - DALBADE - DE GORSSE", "lon": 1.443005133993703, "lat": 43.59804753924319, "status": "OPEN", "stands": 1, "update": "2016-02-04T18:39:27", "address": "9 RUE HENRY DE GORSSE", "bikes": 21}}, {"type": "Feature", "geometry": {"type": "Point", "coordinates": [1.467678323560475, 43.567221153708445]}, "properties": {"name": "00230 - RANGUEIL TRIPODE B", "lon": 1.467678323560475, "lat": 43.567221153708445, "status": "OPEN", "stands": 20, "update": "2016-02-04T18:39:08", "address": "141 AV DE RANGUEIL", "bikes": 0}}, {"type": "Feature", "geometry": {"type": "Point", "coordinates": [1.456048100267833, 43.601588174955744]}, "properties": {"name": "00042 - DAURIAC ESCANDE", "lon": 1.456048100267833, "lat": 43.601588174955744, "status": "OPEN", "stands": 20, "update": "2016-02-04T18:42:58", "address": "3 BD PR LEOPOLD ESCANDE", "bikes": 0}}, {"type": "Feature", "geometry": {"type": "Point", "coordinates": [1.411359591750251, 43.614589794633694]}, "properties": {"name": "00219 - PUCCINI/ BLAGNAC", "lon": 1.411359591750251, "lat": 43.614589794633694, "status": "OPEN", "stands": 0, "update": "2016-02-04T18:45:20", "address": "35 RUE PUCCINI", "bikes": 18}}, {"type": "Feature", "geometry": {"type": "Point", "coordinates": [1.462194464667426, 43.581459211587536]}, "properties": {"name": "00163 - BEDOUCE / MIDI", "lon": 1.462194464667426, "lat": 43.581459211587536, "status": "OPEN", "stands": 14, "update": "2016-02-04T18:44:18", "address": "115 AV ALBERT BEDOUCE", "bikes": 6}}, {"type": "Feature", "geometry": {"type": "Point", "coordinates": [1.435597311467436, 43.620735968782895]}, "properties": {"name": "00133 - MARCHE AUX COCHONS", "lon": 1.435597311467436, "lat": 43.620735968782895, "status": "OPEN", "stands": 1, "update": "2016-02-04T18:47:04", "address": "71 AV DES MINIMES", "bikes": 21}}, {"type": "Feature", "geometry": {"type": "Point", "coordinates": [1.47508540800772, 43.58588613821349]}, "properties": {"name": "00205 - COTTAGE/ RIEUX", "lon": 1.47508540800772, "lat": 43.58588613821349, "status": "OPEN", "stands": 15, "update": "2016-02-04T18:45:49", "address": "58 AV DES COTTAGES", "bikes": 3}}, {"type": "Feature", "geometry": {"type": "Point", "coordinates": [1.428450231443648, 43.60802027853654]}, "properties": {"name": "00086 - HERACLES - BEARNAIS", "lon": 1.428450231443648, "lat": 43.60802027853654, "status": "OPEN", "stands": 15, "update": "2016-02-04T18:41:11", "address": "23 RUE DU BEARNAIS", "bikes": 5}}, {"type": "Feature", "geometry": {"type": "Point", "coordinates": [1.451093339873272, 43.596478222107635]}, "properties": {"name": "00066 - JARDIN ROYAL", "lon": 1.451093339873272, "lat": 43.596478222107635, "status": "OPEN", "stands": 18, "update": "2016-02-04T18:44:17", "address": "HUIT MAI 1945", "bikes": 5}}, {"type": "Feature", "geometry": {"type": "Point", "coordinates": [1.408124460028565, 43.6172496485261]}, "properties": {"name": "00240 - RTE DE BLAGNAC / JOB", "lon": 1.408124460028565, "lat": 43.6172496485261, "status": "OPEN", "stands": 9, "update": "2016-02-04T18:40:43", "address": "FACE 103 BIS ROUTE DE BLAGNAC", "bikes": 9}}, {"type": "Feature", "geometry": {"type": "Point", "coordinates": [1.41476, 43.60614]}, "properties": {"name": "282 - RICHARD WAGNER", "lon": 1.41476, "lat": 43.60614, "status": "OPEN", "stands": 10, "update": "2016-02-04T18:37:30", "address": "BD RICHARD WAGNER / ANGLE A.VIVALDI 31000 TOULOUSE", "bikes": 8}}, {"type": "Feature", "geometry": {"type": "Point", "coordinates": [1.448244408330328, 43.60629718770727]}, "properties": {"name": "00018 - STRASBOURG JEAN JAURES", "lon": 1.448244408330328, "lat": 43.60629718770727, "status": "OPEN", "stands": 24, "update": "2016-02-04T18:47:16", "address": "4 BD DE STRASBOURG", "bikes": 1}}, {"type": "Feature", "geometry": {"type": "Point", "coordinates": [1.44002, 43.60459]}, "properties": {"name": "00012 - PARGAMINIERES", "lon": 1.44002, "lat": 43.60459, "status": "OPEN", "stands": 11, "update": "2016-02-04T18:44:36", "address": "66 RUE PARGAMINIERES", "bikes": 0}}, {"type": "Feature", "geometry": {"type": "Point", "coordinates": [1.425882273289917, 43.596852956620715]}, "properties": {"name": "00117 - BILLIERES -POSTE", "lon": 1.425882273289917, "lat": 43.596852956620715, "status": "OPEN", "stands": 1, "update": "2016-02-04T18:45:27", "address": "39 AVENUE ETIENNE BILLIERES", "bikes": 19}}, {"type": "Feature", "geometry": {"type": "Point", "coordinates": [1.454093824286969, 43.599990271041186]}, "properties": {"name": "00043 - DUPUY", "lon": 1.454093824286969, "lat": 43.599990271041186, "status": "OPEN", "stands": 3, "update": "2016-02-04T18:46:50", "address": "14 PL DOMINIQUE MARTIN DUPUY", "bikes": 19}}, {"type": "Feature", "geometry": {"type": "Point", "coordinates": [1.452455826571967, 43.61071810091073]}, "properties": {"name": "00061 - BONREPOS", "lon": 1.452455826571967, "lat": 43.61071810091073, "status": "OPEN", "stands": 1, "update": "2016-02-04T18:46:09", "address": "8T BD DE BONREPOS", "bikes": 26}}, {"type": "Feature", "geometry": {"type": "Point", "coordinates": [1.460187742067113, 43.57686792022356]}, "properties": {"name": "00165 - PLACE DES AVIONS", "lon": 1.460187742067113, "lat": 43.57686792022356, "status": "OPEN", "stands": 9, "update": "2016-02-04T18:37:33", "address": "33 AVENUE DES AVIONS", "bikes": 6}}, {"type": "Feature", "geometry": {"type": "Point", "coordinates": [1.42778, 43.62413]}, "properties": {"name": "00270 - SILVIO TRENTIN", "lon": 1.42778, "lat": 43.62413, "status": "OPEN", "stands": 4, "update": "2016-02-04T18:45:06", "address": "Rue Jules Verne angle Boulevard Silvio Trentin - 31000 TOULOUSE", "bikes": 12}}, {"type": "Feature", "geometry": {"type": "Point", "coordinates": [1.445174430937582, 43.590605082277605]}, "properties": {"name": "00103 - ST MICHEL ST CATHERINE", "lon": 1.445174430937582, "lat": 43.590605082277605, "status": "OPEN", "stands": 0, "update": "2016-02-04T18:38:50", "address": "139 GRANDE RUE ST MICHEL", "bikes": 20}}, {"type": "Feature", "geometry": {"type": "Point", "coordinates": [1.448061825303155, 43.60610692889793]}, "properties": {"name": "00017 - STRASBOURG SARDANE", "lon": 1.448061825303155, "lat": 43.60610692889793, "status": "OPEN", "stands": 7, "update": "2016-02-04T18:47:09", "address": "7 BD DE STRASBOURG", "bikes": 16}}, {"type": "Feature", "geometry": {"type": "Point", "coordinates": [1.445315649331453, 43.597401475499026]}, "properties": {"name": "00046 - PLACE DES CARMES", "lon": 1.445315649331453, "lat": 43.597401475499026, "status": "OPEN", "stands": 14, "update": "2016-02-04T18:46:48", "address": "1 PL DES CARMES", "bikes": 6}}, {"type": "Feature", "geometry": {"type": "Point", "coordinates": [1.461907953641387, 43.627603587351345]}, "properties": {"name": "00218 - AMOUROUX /STE AUGUSTINE", "lon": 1.461907953641387, "lat": 43.627603587351345, "status": "OPEN", "stands": 12, "update": "2016-02-04T18:45:23", "address": "24 BIS CHE AMOUROUX", "bikes": 6}}, {"type": "Feature", "geometry": {"type": "Point", "coordinates": [1.470077844843929, 43.5834192540153]}, "properties": {"name": "00203 - ST EX. - PETIT PRINCE", "lon": 1.470077844843929, "lat": 43.5834192540153, "status": "OPEN", "stands": 17, "update": "2016-02-04T18:41:28", "address": "2 AV ANTOINE DE ST EXUPERY", "bikes": 3}}, {"type": "Feature", "geometry": {"type": "Point", "coordinates": [1.441209573825458, 43.60765033417208]}, "properties": {"name": "00032 - MUSEE ST RAYMOND", "lon": 1.441209573825458, "lat": 43.60765033417208, "status": "OPEN", "stands": 12, "update": "2016-02-04T18:38:30", "address": "8 RUE DES TROIS RENARDS", "bikes": 0}}, {"type": "Feature", "geometry": {"type": "Point", "coordinates": [1.45752, 43.61184]}, "properties": {"name": "00005 - LEDUC", "lon": 1.45752, "lat": 43.61184, "status": "OPEN", "stands": 12, "update": "2016-02-04T18:46:15", "address": "5 RUE LEDUC", "bikes": 7}}, {"type": "Feature", "geometry": {"type": "Point", "coordinates": [1.432075106068745, 43.59628476386365]}, "properties": {"name": "00073 - FITTE TEINTURIERS", "lon": 1.432075106068745, "lat": 43.59628476386365, "status": "OPEN", "stands": 4, "update": "2016-02-04T18:46:57", "address": "40 ALL CHARLES DE FITTE", "bikes": 12}}, {"type": "Feature", "geometry": {"type": "Point", "coordinates": [1.440920059367141, 43.594569737633854]}, "properties": {"name": "00050 - GARONNETTE", "lon": 1.440920059367141, "lat": 43.594569737633854, "status": "OPEN", "stands": 11, "update": "2016-02-04T18:40:29", "address": "1 AV MAURICE HAURIOU", "bikes": 12}}, {"type": "Feature", "geometry": {"type": "Point", "coordinates": [1.449629619920856, 43.604717604204446]}, "properties": {"name": "00020 - CARNOT TROIS JOURNEES", "lon": 1.449629619920856, "lat": 43.604717604204446, "status": "OPEN", "stands": 18, "update": "2016-02-04T18:37:51", "address": "69 BD LAZARE CARNOT", "bikes": 9}}, {"type": "Feature", "geometry": {"type": "Point", "coordinates": [1.443635078857447, 43.58386908499996]}, "properties": {"name": "00155 - RECOLLETS", "lon": 1.443635078857447, "lat": 43.58386908499996, "status": "OPEN", "stands": 5, "update": "2016-02-04T18:46:03", "address": "34 BD DES RECOLLETS", "bikes": 15}}, {"type": "Feature", "geometry": {"type": "Point", "coordinates": [1.41028, 43.56507]}, "properties": {"name": "00264 - LAFOURGUETTE", "lon": 1.41028, "lat": 43.56507, "status": "OPEN", "stands": 13, "update": "2016-02-04T18:40:16", "address": "Place des Gli\u00e8res", "bikes": 4}}, {"type": "Feature", "geometry": {"type": "Point", "coordinates": [1.4842, 43.59666]}, "properties": {"name": "00256 - PLACE DE LA RONTONDE", "lon": 1.4842, "lat": 43.59666, "status": "OPEN", "stands": 10, "update": "2016-02-04T18:43:59", "address": "FACE 175 ROUTE DE CASTRES ANGLE RUE CARCASSONNE", "bikes": 8}}, {"type": "Feature", "geometry": {"type": "Point", "coordinates": [1.439737579879722, 43.611584087589904]}, "properties": {"name": "00091 - ARCOLE BALANCE", "lon": 1.439737579879722, "lat": 43.611584087589904, "status": "OPEN", "stands": 17, "update": "2016-02-04T18:47:17", "address": "48 BD D ARCOLE", "bikes": 4}}, {"type": "Feature", "geometry": {"type": "Point", "coordinates": [1.465517338373819, 43.62704846650827]}, "properties": {"name": "00185 - ROUBICHOU ARLES", "lon": 1.465517338373819, "lat": 43.62704846650827, "status": "OPEN", "stands": 10, "update": "2016-02-04T18:46:45", "address": "30 RUE ROUBICHOU", "bikes": 4}}, {"type": "Feature", "geometry": {"type": "Point", "coordinates": [1.440461106405702, 43.59938372814817]}, "properties": {"name": "00027 - QUAI DE TOUNIS", "lon": 1.440461106405702, "lat": 43.59938372814817, "status": "OPEN", "stands": 11, "update": "2016-02-04T18:37:29", "address": "QUAI DE TOUNIS", "bikes": 11}}, {"type": "Feature", "geometry": {"type": "Point", "coordinates": [1.478914286004687, 43.589466982143435]}, "properties": {"name": "00209 - BAROUX/ DARASSE", "lon": 1.478914286004687, "lat": 43.589466982143435, "status": "OPEN", "stands": 13, "update": "2016-02-04T18:42:57", "address": "4 AV LUCIEN BAROUX", "bikes": 4}}, {"type": "Feature", "geometry": {"type": "Point", "coordinates": [1.40230245215212, 43.574612132702526]}, "properties": {"name": "00220 - TABAR /UNIVERSITE", "lon": 1.40230245215212, "lat": 43.574612132702526, "status": "OPEN", "stands": 13, "update": "2016-02-04T18:41:05", "address": "3 RUE DE L'UNIVERSITE", "bikes": 6}}, {"type": "Feature", "geometry": {"type": "Point", "coordinates": [1.431415230750123, 43.59812186858788]}, "properties": {"name": "00078 - PLACE INT ST CYP. DARRE", "lon": 1.431415230750123, "lat": 43.59812186858788, "status": "OPEN", "stands": 0, "update": "2016-02-04T18:43:13", "address": "14 PL INTERIEURE ST CYPRIEN", "bikes": 17}}, {"type": "Feature", "geometry": {"type": "Point", "coordinates": [1.448486709552681, 43.615368584913504]}, "properties": {"name": "00149 - RAISIN MINIMES", "lon": 1.448486709552681, "lat": 43.615368584913504, "status": "OPEN", "stands": 17, "update": "2016-02-04T18:47:04", "address": "CH DU RAISIN", "bikes": 5}}, {"type": "Feature", "geometry": {"type": "Point", "coordinates": [1.446485498451865, 43.613590372531775]}, "properties": {"name": "00059 - CONCORDE", "lon": 1.446485498451865, "lat": 43.613590372531775, "status": "OPEN", "stands": 12, "update": "2016-02-04T18:46:12", "address": "61 RUE DE LA CONCORDE", "bikes": 7}}, {"type": "Feature", "geometry": {"type": "Point", "coordinates": [1.430389555237135, 43.609753361824794]}, "properties": {"name": "00107 - SEBASTOPOL", "lon": 1.430389555237135, "lat": 43.609753361824794, "status": "OPEN", "stands": 17, "update": "2016-02-04T18:46:21", "address": "1 RUE DE SEBASTOPOL", "bikes": 9}}, {"type": "Feature", "geometry": {"type": "Point", "coordinates": [1.420141760360439, 43.60390532418828]}, "properties": {"name": "00246 - WAGNER / JEAN BRUNHES", "lon": 1.420141760360439, "lat": 43.60390532418828, "status": "OPEN", "stands": 7, "update": "2016-02-04T18:47:09", "address": "29 BOULEVARD RICHARD WAGNER ANG BD JEAN BRUNHES", "bikes": 13}}, {"type": "Feature", "geometry": {"type": "Point", "coordinates": [1.450654849861206, 43.60082502483391]}, "properties": {"name": "00099 - REMPART ST ETIENNE", "lon": 1.450654849861206, "lat": 43.60082502483391, "status": "OPEN", "stands": 9, "update": "2016-02-04T18:47:19", "address": "7 RUE DU REMPART ST ETIENNE", "bikes": 7}}, {"type": "Feature", "geometry": {"type": "Point", "coordinates": [1.48278, 43.57452]}, "properties": {"name": "00267 - GONIN", "lon": 1.48278, "lat": 43.57452, "status": "OPEN", "stands": 7, "update": "2016-02-04T18:40:05", "address": "RUE GONIN ANGLE GENIN 31000 TOULOUSE", "bikes": 9}}, {"type": "Feature", "geometry": {"type": "Point", "coordinates": [1.449215732146181, 43.592355124495455]}, "properties": {"name": "00113 - MUSEUM LAMARCK", "lon": 1.449215732146181, "lat": 43.592355124495455, "status": "OPEN", "stands": 17, "update": "2016-02-04T18:38:59", "address": "FACE 58 RUE DUMERIL", "bikes": 3}}, {"type": "Feature", "geometry": {"type": "Point", "coordinates": [1.444528167445985, 43.61692696530316]}, "properties": {"name": "00148 - COLLIGNON", "lon": 1.444528167445985, "lat": 43.61692696530316, "status": "OPEN", "stands": 10, "update": "2016-02-04T18:41:14", "address": "5 AV DE COLLIGNON", "bikes": 9}}, {"type": "Feature", "geometry": {"type": "Point", "coordinates": [1.454698517821249, 43.62409340165932]}, "properties": {"name": "00167 - LAPUJADE-FLANDRES", "lon": 1.454698517821249, "lat": 43.62409340165932, "status": "OPEN", "stands": 11, "update": "2016-02-04T18:44:27", "address": "RUE LAPUJADE ANGLE RUE DES FLANDRES", "bikes": 7}}, {"type": "Feature", "geometry": {"type": "Point", "coordinates": [1.41325, 43.56793]}, "properties": {"name": "00265 - PASSAGE BORDELONGUE", "lon": 1.41325, "lat": 43.56793, "status": "OPEN", "stands": 9, "update": "2016-02-04T18:45:58", "address": "Face N\u00b0251 route de Seysses", "bikes": 9}}, {"type": "Feature", "geometry": {"type": "Point", "coordinates": [1.446483165667178, 43.588359791103294]}, "properties": {"name": "00116 - ST MICHEL NOTRE DAME", "lon": 1.446483165667178, "lat": 43.588359791103294, "status": "OPEN", "stands": 10, "update": "2016-02-04T18:46:24", "address": "50 GRANDE RUE ST MICHEL", "bikes": 5}}, {"type": "Feature", "geometry": {"type": "Point", "coordinates": [1.446076879873296, 43.609650036285025]}, "properties": {"name": "00034 - SAINT LAZARE", "lon": 1.446076879873296, "lat": 43.609650036285025, "status": "OPEN", "stands": 16, "update": "2016-02-04T18:47:09", "address": "2 PETITE RUE SAINT LAZARE", "bikes": 2}}, {"type": "Feature", "geometry": {"type": "Point", "coordinates": [1.419524853208122, 43.609967343094006]}, "properties": {"name": "00119 - CHAPOU", "lon": 1.419524853208122, "lat": 43.609967343094006, "status": "OPEN", "stands": 15, "update": "2016-02-04T18:37:58", "address": "129 ALL DE BRIENNE", "bikes": 9}}, {"type": "Feature", "geometry": {"type": "Point", "coordinates": [1.38887, 43.58171]}, "properties": {"name": "00275 - PLACE DES PRADETTES", "lon": 1.38887, "lat": 43.58171, "status": "OPEN", "stands": 13, "update": "2016-02-04T18:39:00", "address": "Place des Pradettes / rue Arthur Huc", "bikes": 4}}, {"type": "Feature", "geometry": {"type": "Point", "coordinates": [1.451999386383253, 43.573924940202886]}, "properties": {"name": "00160 - THEATRE JULES JULIEN", "lon": 1.451999386383253, "lat": 43.573924940202886, "status": "OPEN", "stands": 11, "update": "2016-02-04T18:41:19", "address": "21 AV DES ECOLES JULES JULIEN", "bikes": 6}}, {"type": "Feature", "geometry": {"type": "Point", "coordinates": [1.456086445970436, 43.569437251134566]}, "properties": {"name": "00232 - NARBONNE/ MIROUSE", "lon": 1.456086445970436, "lat": 43.569437251134566, "status": "OPEN", "stands": 10, "update": "2016-02-04T18:41:51", "address": "64 RTE DE NARBONNE", "bikes": 5}}, {"type": "Feature", "geometry": {"type": "Point", "coordinates": [1.48781984362323, 43.58350615923425]}, "properties": {"name": "00211 - LE DORMEUR/ LA TERRASSE", "lon": 1.48781984362323, "lat": 43.58350615923425, "status": "OPEN", "stands": 10, "update": "2016-02-04T18:41:16", "address": "9 RUE LE DORMEUR", "bikes": 8}}, {"type": "Feature", "geometry": {"type": "Point", "coordinates": [1.39709, 43.6142]}, "properties": {"name": "00278 - ARENES ROMAINE", "lon": 1.39709, "lat": 43.6142, "status": "OPEN", "stands": 15, "update": "2016-02-04T18:43:52", "address": "AVENUE DES ARENES ROMAINES / GUY ESPAGNO DANS ROND POINT 31000 TOULOUSE", "bikes": 3}}, {"type": "Feature", "geometry": {"type": "Point", "coordinates": [1.434473692188769, 43.62293779541603]}, "properties": {"name": "00132 - MINIMES BILARD", "lon": 1.434473692188769, "lat": 43.62293779541603, "status": "OPEN", "stands": 4, "update": "2016-02-04T18:43:00", "address": "101 AVENUES DES MINIMES", "bikes": 15}}, {"type": "Feature", "geometry": {"type": "Point", "coordinates": [1.424941224096277, 43.61395913175851]}, "properties": {"name": "00145 - GOUNOD - GARROS", "lon": 1.424941224096277, "lat": 43.61395913175851, "status": "OPEN", "stands": 14, "update": "2016-02-04T18:47:00", "address": "29 RUE ROLAND GARROS", "bikes": 6}}, {"type": "Feature", "geometry": {"type": "Point", "coordinates": [1.438157046235524, 43.61375517689823]}, "properties": {"name": "00110 - CABANEL - SERRES", "lon": 1.438157046235524, "lat": 43.61375517689823, "status": "OPEN", "stands": 14, "update": "2016-02-04T18:39:22", "address": "16 RUE ALEXANDRE CABANEL", "bikes": 4}}, {"type": "Feature", "geometry": {"type": "Point", "coordinates": [1.434225150757254, 43.6269176821576]}, "properties": {"name": "00125 - BARRI\u00c8RE DE PARIS", "lon": 1.434225150757254, "lat": 43.6269176821576, "status": "OPEN", "stands": 2, "update": "2016-02-04T18:44:55", "address": "BARRI\u00c8RE DE PARIS", "bikes": 23}}, {"type": "Feature", "geometry": {"type": "Point", "coordinates": [1.454189017923435, 43.607433487401345]}, "properties": {"name": "00063 - PISCINE LEO LAGRANGE", "lon": 1.454189017923435, "lat": 43.607433487401345, "status": "OPEN", "stands": 18, "update": "2016-02-04T18:45:17", "address": "54 RUE DES SEPT TROUBADOURS", "bikes": 4}}, {"type": "Feature", "geometry": {"type": "Point", "coordinates": [1.46539185105244, 43.61743867816197]}, "properties": {"name": "00177 - BAILLAUD BRUNAUD", "lon": 1.46539185105244, "lat": 43.61743867816197, "status": "OPEN", "stands": 18, "update": "2016-02-04T18:46:10", "address": "64 RUE BAILLAUD", "bikes": 2}}, {"type": "Feature", "geometry": {"type": "Point", "coordinates": [1.483669775054849, 43.57906922965151]}, "properties": {"name": "00200 - PLACE DE L'ORMEAU", "lon": 1.483669775054849, "lat": 43.57906922965151, "status": "OPEN", "stands": 14, "update": "2016-02-04T18:44:29", "address": "FACE 345 AV JEAN RIEUX", "bikes": 3}}, {"type": "Feature", "geometry": {"type": "Point", "coordinates": [1.444269620551324, 43.60735205357881]}, "properties": {"name": "00014 - PERIGORD", "lon": 1.444269620551324, "lat": 43.60735205357881, "status": "OPEN", "stands": 16, "update": "2016-02-04T18:46:22", "address": "26 RUE DE PERIGORD", "bikes": 0}}, {"type": "Feature", "geometry": {"type": "Point", "coordinates": [1.4795004816774, 43.610549420565]}, "properties": {"name": "00181 - PLANA GARNIER", "lon": 1.4795004816774, "lat": 43.610549420565, "status": "OPEN", "stands": 10, "update": "2016-02-04T18:40:29", "address": "27 Avenue Louis PLANA", "bikes": 7}}, {"type": "Feature", "geometry": {"type": "Point", "coordinates": [1.4429, 43.59253]}, "properties": {"name": "00069 - FEUGA", "lon": 1.4429, "lat": 43.59253, "status": "OPEN", "stands": 8, "update": "2016-02-04T18:45:09", "address": "11 ALL PAUL FEUGA", "bikes": 10}}, {"type": "Feature", "geometry": {"type": "Point", "coordinates": [1.448634234326797, 43.582831686768735]}, "properties": {"name": "00157 - U.R.S.S  PEYROUSET", "lon": 1.448634234326797, "lat": 43.582831686768735, "status": "OPEN", "stands": 13, "update": "2016-02-04T18:42:05", "address": "16 AV DE L'U.R.S.S", "bikes": 6}}, {"type": "Feature", "geometry": {"type": "Point", "coordinates": [1.425325828280708, 43.581352282638655]}, "properties": {"name": "00189 - MURET BOUTINON", "lon": 1.425325828280708, "lat": 43.581352282638655, "status": "OPEN", "stands": 10, "update": "2016-02-04T18:40:13", "address": "44 AVENUE DE MURET", "bikes": 10}}]}