<<<<<<< HEAD
{"features": [{"geometry": {"coordinates": [1.441003598726198, 43.608951960496405], "type": "Point"}, "properties": {"stands": 12, "lat": 43.608951960496405, "update": "2016-02-06T12:49:38", "status": "OPEN", "bikes": 3, "address": "2 RUE GATIEN ARNOULT", "name": "00055 - ST SERNIN G. ARNOULT", "lon": 1.441003598726198}, "type": "Feature"}, {"geometry": {"coordinates": [1.45907112459247, 43.59723540303583], "type": "Point"}, "properties": {"stands": 9, "lat": 43.59723540303583, "update": "2016-02-06T12:46:17", "status": "OPEN", "bikes": 8, "address": "FACE 15 RUE PIERRE LAROUSSE", "name": "00195 - LARROUSSE -RIEUX", "lon": 1.45907112459247}, "type": "Feature"}, {"geometry": {"coordinates": [1.46278065695466, 43.571433064051334], "type": "Point"}, "properties": {"stands": 11, "lat": 43.571433064051334, "update": "2016-02-06T12:47:02", "status": "OPEN", "bikes": 6, "address": "129 AV DE RANGUEIL", "name": "00229 - IUT RANGUEIL", "lon": 1.46278065695466}, "type": "Feature"}, {"geometry": {"coordinates": [1.452605307400692, 43.597074846780274], "type": "Point"}, "properties": {"stands": 13, "lat": 43.597074846780274, "update": "2016-02-06T12:40:33", "status": "OPEN", "bikes": 14, "address": "2 ALL FORAIN FRANCOIS VERDIER", "name": "00065 - VERDIER - GRAND ROND", "lon": 1.452605307400692}, "type": "Feature"}, {"geometry": {"coordinates": [1.45195665819857, 43.60221990815785], "type": "Point"}, "properties": {"stands": 18, "lat": 43.60221990815785, "update": "2016-02-06T12:45:09", "status": "OPEN", "bikes": 2, "address": "24 BD LAZARE CARNOT", "name": "00022 - CARNOT ROLAND", "lon": 1.45195665819857}, "type": "Feature"}, {"geometry": {"coordinates": [1.403872948950036, 43.59729443895585], "type": "Point"}, "properties": {"stands": 18, "lat": 43.59729443895585, "update": "2016-02-06T12:49:08", "status": "OPEN", "bikes": 2, "address": "RUE DE L'ABBE JULES LEMIRE", "name": "00236 - TOEC / LEMIRE", "lon": 1.403872948950036}, "type": "Feature"}, {"geometry": {"coordinates": [1.442921175845342, 43.615259799224134], "type": "Point"}, "properties": {"stands": 2, "lat": 43.615259799224134, "update": "2016-02-06T12:41:56", "status": "OPEN", "bikes": 25, "address": "38B BD DES MINIMES", "name": "00111 - MINIMES PASSERELLE", "lon": 1.442921175845342}, "type": "Feature"}, {"geometry": {"coordinates": [1.43180804154469, 43.632641237523], "type": "Point"}, "properties": {"stands": 5, "lat": 43.632641237523, "update": "2016-02-06T12:48:59", "status": "OPEN", "bikes": 12, "address": "96 av des Etats-Unis angle rue Jules Ferry", "name": "00243 - ETATS-UNIS / FERRY", "lon": 1.43180804154469}, "type": "Feature"}, {"geometry": {"coordinates": [1.452693250180783, 43.63692179179762], "type": "Point"}, "properties": {"stands": 4, "lat": 43.63692179179762, "update": "2016-02-06T12:40:23", "status": "OPEN", "bikes": 14, "address": "41 AV MAURICE BOURGES MAUNOURY", "name": "00174 - MAUNOURY / MELA", "lon": 1.452693250180783}, "type": "Feature"}, {"geometry": {"coordinates": [1.420275802412521, 43.60094924792523], "type": "Point"}, "properties": {"stands": 4, "lat": 43.60094924792523, "update": "2016-02-06T12:41:19", "status": "OPEN", "bikes": 16, "address": "47 BD JEAN BRUNHES", "name": "00137 - BRUNHES-FONTAINES", "lon": 1.420275802412521}, "type": "Feature"}, {"geometry": {"coordinates": [1.421715694303944, 43.61606217398145], "type": "Point"}, "properties": {"stands": 12, "lat": 43.61606217398145, "update": "2016-02-06T12:40:23", "status": "OPEN", "bikes": 8, "address": "62 BD DE SUISSE", "name": "00144 - SUISSE - LAUSANE", "lon": 1.421715694303944}, "type": "Feature"}, {"geometry": {"coordinates": [1.453588691746783, 43.604660136134775], "type": "Point"}, "properties": {"stands": 14, "lat": 43.604660136134775, "update": "2016-02-06T12:47:20", "status": "OPEN", "bikes": 2, "address": "41 RUE DE LA COLOMBETTE", "name": "00040 - COLOMBETTE", "lon": 1.453588691746783}, "type": "Feature"}, {"geometry": {"coordinates": [1.445569311598848, 43.60333593826575], "type": "Point"}, "properties": {"stands": 16, "lat": 43.60333593826575, "update": "2016-02-06T12:44:46", "status": "OPEN", "bikes": 2, "address": "62 RUE DE LA POMME", "name": "00003 - POMME", "lon": 1.445569311598848}, "type": "Feature"}, {"geometry": {"coordinates": [1.418420510391943, 43.5955673906372], "type": "Point"}, "properties": {"stands": 7, "lat": 43.5955673906372, "update": "2016-02-06T12:49:29", "status": "OPEN", "bikes": 18, "address": "39 BIS AV DE LOMBEZ", "name": "00139 - BARRIERE DE LOMBEZ", "lon": 1.418420510391943}, "type": "Feature"}, {"geometry": {"coordinates": [1.44361404386217, 43.614465544425535], "type": "Point"}, "properties": {"stands": 15, "lat": 43.614465544425535, "update": "2016-02-06T12:47:50", "status": "OPEN", "bikes": 2, "address": "57 RUE DU PRINTEMPS", "name": "00093 - PRINTEMPS", "lon": 1.44361404386217}, "type": "Feature"}, {"geometry": {"coordinates": [1.429556601823956, 43.59989498759688], "type": "Point"}, "properties": {"stands": 18, "lat": 43.59989498759688, "update": "2016-02-06T12:44:14", "status": "OPEN", "bikes": 15, "address": "ALL CHARLES DE FITTE", "name": "00081 - JARDIN RAYMOND VI", "lon": 1.429556601823956}, "type": "Feature"}, {"geometry": {"coordinates": [1.449039275575635, 43.64108958806659], "type": "Point"}, "properties": {"stands": 6, "lat": 43.64108958806659, "update": "2016-02-06T12:41:31", "status": "OPEN", "bikes": 14, "address": "RUE DES BOUQUETINS ANGLE RUE EDMOND ROSTAND", "name": "00248 - BOUQUETINS/E. ROSTAND", "lon": 1.449039275575635}, "type": "Feature"}, {"geometry": {"coordinates": [1.437631489341106, 43.60863633636605], "type": "Point"}, "properties": {"stands": 23, "lat": 43.60863633636605, "update": "2016-02-06T12:49:13", "status": "OPEN", "bikes": 2, "address": "PL SAINT JULIEN", "name": "00053 - PLACE SAINT JULIEN", "lon": 1.437631489341106}, "type": "Feature"}, {"geometry": {"coordinates": [1.432335729928681, 43.609500004240715], "type": "Point"}, "properties": {"stands": 7, "lat": 43.609500004240715, "update": "2016-02-06T12:49:19", "status": "OPEN", "bikes": 17, "address": "47 BD LASCROSSES", "name": "00087 - LASCROSSES LECLERC", "lon": 1.432335729928681}, "type": "Feature"}, {"geometry": {"coordinates": [1.438340345212284, 43.612327522628846], "type": "Point"}, "properties": {"stands": 15, "lat": 43.612327522628846, "update": "2016-02-06T12:47:52", "status": "OPEN", "bikes": 1, "address": "33 AV HONRE SERRES", "name": "00121 - SERRES - A. BERNARD", "lon": 1.438340345212284}, "type": "Feature"}, {"geometry": {"coordinates": [1.469393836823441, 43.577166917623245], "type": "Point"}, "properties": {"stands": 10, "lat": 43.577166917623245, "update": "2016-02-06T12:49:26", "status": "OPEN", "bikes": 10, "address": "FACE AU 127 AVENUE DE LESPINET", "name": "00239 - LESPINET / HERBETTES", "lon": 1.469393836823441}, "type": "Feature"}, {"geometry": {"coordinates": [1.445420780739279, 43.604134687021045], "type": "Point"}, "properties": {"stands": 1, "lat": 43.604134687021045, "update": "2016-02-06T12:44:37", "status": "OPEN", "bikes": 18, "address": "12 RUE DU POIDS DE L'HUILE", "name": "00001 - POIDS DE L'HUILE", "lon": 1.445420780739279}, "type": "Feature"}, {"geometry": {"coordinates": [1.446593812218414, 43.605852162177925], "type": "Point"}, "properties": {"stands": 6, "lat": 43.605852162177925, "update": "2016-02-06T12:50:11", "status": "OPEN", "bikes": 18, "address": "6 RUE DU REMPART VILLENEUVE", "name": "00007 - PLACE VICTOR HUGO", "lon": 1.446593812218414}, "type": "Feature"}, {"geometry": {"coordinates": [1.43298, 43.64751], "type": "Point"}, "properties": {"stands": 3, "lat": 43.64751, "update": "2016-02-06T12:44:53", "status": "OPEN", "bikes": 17, "address": "Place Riche / Lalande - 31000 TOULOUSE", "name": "00259 - PLACE RICHE", "lon": 1.43298}, "type": "Feature"}, {"geometry": {"coordinates": [1.451330504561275, 43.628236592839514], "type": "Point"}, "properties": {"stands": 4, "lat": 43.628236592839514, "update": "2016-02-06T12:45:52", "status": "OPEN", "bikes": 11, "address": "RUE LOIN 100M AVT RAYNAL", "name": "00234 - LOIN / RAYNAL", "lon": 1.451330504561275}, "type": "Feature"}, {"geometry": {"coordinates": [1.409162125552512, 43.587659413053814], "type": "Point"}, "properties": {"stands": 18, "lat": 43.587659413053814, "update": "2016-02-06T12:48:47", "status": "OPEN", "bikes": 1, "address": "355 route de saint-Simon", "name": "00192 - RTE DE ST SIMON/PRADO", "lon": 1.409162125552512}, "type": "Feature"}, {"geometry": {"coordinates": [1.444132711268797, 43.59474911973265], "type": "Point"}, "properties": {"stands": 13, "lat": 43.59474911973265, "update": "2016-02-06T12:43:51", "status": "OPEN", "bikes": 9, "address": "18 PL DU SALIN", "name": "00048 - PLACE DU SALIN", "lon": 1.444132711268797}, "type": "Feature"}, {"geometry": {"coordinates": [1.45256734914219, 43.6394555737186], "type": "Point"}, "properties": {"stands": 28, "lat": 43.6394555737186, "update": "2016-02-06T12:47:11", "status": "OPEN", "bikes": 2, "address": "Avenue Maurice BOURGES MAUNOURY", "name": "00175 - METRO MAUNOURY", "lon": 1.45256734914219}, "type": "Feature"}, {"geometry": {"coordinates": [1.462031097914686, 43.574366149048714], "type": "Point"}, "properties": {"stands": 7, "lat": 43.574366149048714, "update": "2016-02-06T12:47:40", "status": "OPEN", "bikes": 13, "address": "23 RUE GUYOU", "name": "00166 - RANGUEIL GUYOU", "lon": 1.462031097914686}, "type": "Feature"}, {"geometry": {"coordinates": [1.458585739964361, 43.62316326019301], "type": "Point"}, "properties": {"stands": 3, "lat": 43.62316326019301, "update": "2016-02-06T12:46:42", "status": "OPEN", "bikes": 15, "address": "183 RUE DU FB  BONNEFOY", "name": "00135 - BONNEFOY   LEMAITRE", "lon": 1.458585739964361}, "type": "Feature"}, {"geometry": {"coordinates": [1.453805825078145, 43.590622011025665], "type": "Point"}, "properties": {"stands": 14, "lat": 43.590622011025665, "update": "2016-02-06T12:44:05", "status": "OPEN", "bikes": 2, "address": "8 ALL DES DEMOISELLES", "name": "00115 - DEMOISELLES MISTRAL", "lon": 1.453805825078145}, "type": "Feature"}, {"geometry": {"coordinates": [1.44938, 43.59468], "type": "Point"}, "properties": {"stands": 9, "lat": 43.59468, "update": "2016-02-06T12:45:35", "status": "OPEN", "bikes": 11, "address": "35 ALL JULES GUESDE", "name": "00067 - MUSEUM", "lon": 1.44938}, "type": "Feature"}, {"geometry": {"coordinates": [1.427517107421507, 43.584282965328995], "type": "Point"}, "properties": {"stands": 10, "lat": 43.584282965328995, "update": "2016-02-06T12:42:39", "status": "OPEN", "bikes": 8, "address": "121 AVENUE DE MURET", "name": "00188 - MURET/LAFAGE", "lon": 1.427517107421507}, "type": "Feature"}, {"geometry": {"coordinates": [1.468753766918999, 43.619281402937425], "type": "Point"}, "properties": {"stands": 12, "lat": 43.619281402937425, "update": "2016-02-06T12:49:12", "status": "OPEN", "bikes": 8, "address": "AVENUE YVES BRUNAUD", "name": "00178 - BRUNAUD / PLANA", "lon": 1.468753766918999}, "type": "Feature"}, {"geometry": {"coordinates": [1.454436078796189, 43.60265364232074], "type": "Point"}, "properties": {"stands": 20, "lat": 43.60265364232074, "update": "2016-02-06T12:40:46", "status": "OPEN", "bikes": 1, "address": "1 RUE CHARLES CAMICHEL", "name": "00041 - ST AUBIN CAMICHEL", "lon": 1.454436078796189}, "type": "Feature"}, {"geometry": {"coordinates": [1.437871385550754, 43.61146971436288], "type": "Point"}, "properties": {"stands": 19, "lat": 43.61146971436288, "update": "2016-02-06T12:50:14", "status": "OPEN", "bikes": 6, "address": "3B BD LASCROSSES", "name": "00090 - LASCROSSES- A. BERNARD", "lon": 1.437871385550754}, "type": "Feature"}, {"geometry": {"coordinates": [1.434707777421923, 43.615173611788045], "type": "Point"}, "properties": {"stands": 11, "lat": 43.615173611788045, "update": "2016-02-06T12:43:56", "status": "OPEN", "bikes": 14, "address": "1 BD DE LA MARQUETTE", "name": "00109 - METRO CANAL DU MIDI", "lon": 1.434707777421923}, "type": "Feature"}, {"geometry": {"coordinates": [1.464093716152017, 43.60038605818475], "type": "Point"}, "properties": {"stands": 12, "lat": 43.60038605818475, "update": "2016-02-06T12:47:25", "status": "OPEN", "bikes": 8, "address": "6 AV LOUIS BLERIOT", "name": "00197 - CASERNE PERIGNON", "lon": 1.464093716152017}, "type": "Feature"}, {"geometry": {"coordinates": [1.452057713684133, 43.60128593726337], "type": "Point"}, "properties": {"stands": 21, "lat": 43.60128593726337, "update": "2016-02-06T12:45:15", "status": "OPEN", "bikes": 5, "address": "6 BD LAZARE CARNOT", "name": "00023 - COMBATTANTS", "lon": 1.452057713684133}, "type": "Feature"}, {"geometry": {"coordinates": [1.39262, 43.5792], "type": "Point"}, "properties": {"stands": 11, "lat": 43.5792, "update": "2016-02-06T12:49:04", "status": "OPEN", "bikes": 7, "address": "ROND POINT DES IZARD ANGLEPASSERIEU ET ROUTE ST SIMON", "name": "00273 - PASSERIEU - ST SIMON", "lon": 1.39262}, "type": "Feature"}, {"geometry": {"coordinates": [1.437032051956223, 43.605071904633625], "type": "Point"}, "properties": {"stands": 5, "lat": 43.605071904633625, "update": "2016-02-06T12:49:48", "status": "OPEN", "bikes": 14, "address": "31 RUE VALADE", "name": "00029 - VALADE", "lon": 1.437032051956223}, "type": "Feature"}, {"geometry": {"coordinates": [1.44871, 43.57383], "type": "Point"}, "properties": {"stands": 7, "lat": 43.57383, "update": "2016-02-06T12:45:23", "status": "OPEN", "bikes": 11, "address": "RUE DE LA CHARBONNIERE ANGLE RUE DES PALMIERS 31000 TOULOUSE", "name": "280 - CHARBONNIERE", "lon": 1.44871}, "type": "Feature"}, {"geometry": {"coordinates": [1.441783289134449, 43.579737115748195], "type": "Point"}, "properties": {"stands": 14, "lat": 43.579737115748195, "update": "2016-02-06T12:48:11", "status": "OPEN", "bikes": 4, "address": "38 AV JEAN MOULIN FACE DEBOUCHE RUE DE CANNES", "name": "00156 - METRO EMPALOT", "lon": 1.441783289134449}, "type": "Feature"}, {"geometry": {"coordinates": [1.437493796200118, 43.633866178151905], "type": "Point"}, "properties": {"stands": 4, "lat": 43.633866178151905, "update": "2016-02-06T12:43:43", "status": "OPEN", "bikes": 12, "address": "RUE RAIMBAUD ANGLE RUE COLETTE", "name": "00242 -  RAIMBAUD / COLETTE", "lon": 1.437493796200118}, "type": "Feature"}, {"geometry": {"coordinates": [1.474881961695726, 43.566595761363736], "type": "Point"}, "properties": {"stands": 19, "lat": 43.566595761363736, "update": "2016-02-06T12:47:41", "status": "OPEN", "bikes": 1, "address": "AVENUE EDOUARD BELIN FACE CH\u00c2TEAU DU CREPS", "name": "00224 - CAMPUS SUPAERO", "lon": 1.474881961695726}, "type": "Feature"}, {"geometry": {"coordinates": [1.4420311550308, 43.58995890864312], "type": "Point"}, "properties": {"stands": 7, "lat": 43.58995890864312, "update": "2016-02-06T12:49:10", "status": "OPEN", "bikes": 13, "address": "RUE DES GALLOIS", "name": "00154 - GALLOIS", "lon": 1.4420311550308}, "type": "Feature"}, {"geometry": {"coordinates": [1.455204795385279, 43.60974282737991], "type": "Point"}, "properties": {"stands": 20, "lat": 43.60974282737991, "update": "2016-02-06T12:43:21", "status": "OPEN", "bikes": 5, "address": "50 RUE DU GENERAL COMPANS", "name": "00096 - MEDIATHEQUE", "lon": 1.455204795385279}, "type": "Feature"}, {"geometry": {"coordinates": [1.438302180907754, 43.624183134252704], "type": "Point"}, "properties": {"stands": 19, "lat": 43.624183134252704, "update": "2016-02-06T12:45:23", "status": "OPEN", "bikes": 1, "address": "10 AV DES MAZADES", "name": "00152 - MAZADES", "lon": 1.438302180907754}, "type": "Feature"}, {"geometry": {"coordinates": [1.37975, 43.58132], "type": "Point"}, "properties": {"stands": 6, "lat": 43.58132, "update": "2016-02-06T12:45:42", "status": "OPEN", "bikes": 12, "address": "chemin du Marin angle chemin du Reboul", "name": "00276 - MARIN REBOUL", "lon": 1.37975}, "type": "Feature"}, {"geometry": {"coordinates": [1.431605284631358, 43.597835830061406], "type": "Point"}, "properties": {"stands": 0, "lat": 43.597835830061406, "update": "2016-02-06T12:45:01", "status": "OPEN", "bikes": 13, "address": "2 PL INTERIEURE ST CYPRIEN", "name": "00077 - PLACE INT SAINT CYPRIEN", "lon": 1.431605284631358}, "type": "Feature"}, {"geometry": {"coordinates": [1.445580732388259, 43.599435045967155], "type": "Point"}, "properties": {"stands": 15, "lat": 43.599435045967155, "update": "2016-02-06T12:42:13", "status": "OPEN", "bikes": 2, "address": "1 RUE DES TOURNEURS", "name": "00025 - PLACE ROUAIX", "lon": 1.445580732388259}, "type": "Feature"}, {"geometry": {"coordinates": [1.436175197009508, 43.596660562935625], "type": "Point"}, "properties": {"stands": 11, "lat": 43.596660562935625, "update": "2016-02-06T12:46:56", "status": "OPEN", "bikes": 7, "address": "37 RUE LAGANNE", "name": "00074 - LAGANNE TEINTURIERS", "lon": 1.436175197009508}, "type": "Feature"}, {"geometry": {"coordinates": [1.434894328349442, 43.59318934283672], "type": "Point"}, "properties": {"stands": 4, "lat": 43.59318934283672, "update": "2016-02-06T12:48:05", "status": "OPEN", "bikes": 18, "address": "3 RUE LAGANNE", "name": "00071 - COURS DILLON", "lon": 1.434894328349442}, "type": "Feature"}, {"geometry": {"coordinates": [1.428862699237109, 43.59764204883991], "type": "Point"}, "properties": {"stands": 3, "lat": 43.59764204883991, "update": "2016-02-06T12:47:57", "status": "OPEN", "bikes": 16, "address": "12  AV  ETIENNE  BILLIERES", "name": "00105 - BILLIERE -CHAMPETRE", "lon": 1.428862699237109}, "type": "Feature"}, {"geometry": {"coordinates": [1.454987798766018, 43.60617263070887], "type": "Point"}, "properties": {"stands": 21, "lat": 43.60617263070887, "update": "2016-02-06T12:46:56", "status": "OPEN", "bikes": 3, "address": "0030 RUE GABRIEL PERI", "name": "00064 - PERI MERCADIER", "lon": 1.454987798766018}, "type": "Feature"}, {"geometry": {"coordinates": [1.448541598385468, 43.61263652233987], "type": "Point"}, "properties": {"stands": 15, "lat": 43.61263652233987, "update": "2016-02-06T12:43:16", "status": "OPEN", "bikes": 9, "address": "32 PL ROQUELAINE", "name": "00060 - ROQUELAINE", "lon": 1.448541598385468}, "type": "Feature"}, {"geometry": {"coordinates": [1.449367822982907, 43.609623167283914], "type": "Point"}, "properties": {"stands": 24, "lat": 43.609623167283914, "update": "2016-02-06T12:41:22", "status": "OPEN", "bikes": 0, "address": "5 PL ROBERT SCHUMAN", "name": "00036 - PLACE SCHUMAN", "lon": 1.449367822982907}, "type": "Feature"}, {"geometry": {"coordinates": [1.462869145576551, 43.56160969546884], "type": "Point"}, "properties": {"stands": 19, "lat": 43.56160969546884, "update": "2016-02-06T12:40:33", "status": "OPEN", "bikes": 1, "address": "118  RTE DE NARBONNE", "name": "00227 - METRO UPS", "lon": 1.462869145576551}, "type": "Feature"}, {"geometry": {"coordinates": [1.415543960373121, 43.584523123495174], "type": "Point"}, "properties": {"stands": 4, "lat": 43.584523123495174, "update": "2016-02-06T12:41:36", "status": "OPEN", "bikes": 12, "address": "187 RUE HENRI DESBALS", "name": "00187 - DESBALS MONTDORE", "lon": 1.415543960373121}, "type": "Feature"}, {"geometry": {"coordinates": [1.473268554354084, 43.56947707206279], "type": "Point"}, "properties": {"stands": 17, "lat": 43.56947707206279, "update": "2016-02-06T12:50:09", "status": "OPEN", "bikes": 3, "address": "AVENUE EDOUARD BELIN DEVANT ONERA", "name": "00225 - BELIN ONERA", "lon": 1.473268554354084}, "type": "Feature"}, {"geometry": {"coordinates": [1.432687682718845, 43.60524239596951], "type": "Point"}, "properties": {"stands": 14, "lat": 43.60524239596951, "update": "2016-02-06T12:49:52", "status": "OPEN", "bikes": 9, "address": "19T ALL DE BRIENNE", "name": "00084 - BRIENNE MANUFACTURE", "lon": 1.432687682718845}, "type": "Feature"}, {"geometry": {"coordinates": [1.480087483756261, 43.59122002356995], "type": "Point"}, "properties": {"stands": 9, "lat": 43.59122002356995, "update": "2016-02-06T12:42:11", "status": "OPEN", "bikes": 9, "address": "ALL DE LIMAYRAC", "name": "00208 - LIMAYRAC/ DARASSE", "lon": 1.480087483756261}, "type": "Feature"}, {"geometry": {"coordinates": [1.414597471267562, 43.61174111564092], "type": "Point"}, "properties": {"stands": 7, "lat": 43.61174111564092, "update": "2016-02-06T12:42:32", "status": "OPEN", "bikes": 11, "address": "15 RUE PAUL BERNIES", "name": "00131 - BERNIES", "lon": 1.414597471267562}, "type": "Feature"}, {"geometry": {"coordinates": [1.429880706043356, 43.593506929037055], "type": "Point"}, "properties": {"stands": 8, "lat": 43.593506929037055, "update": "2016-02-06T12:49:50", "status": "OPEN", "bikes": 10, "address": "53 RUE STE LUCIE", "name": "00037 - STE LUCIE", "lon": 1.429880706043356}, "type": "Feature"}, {"geometry": {"coordinates": [1.41398, 43.57375], "type": "Point"}, "properties": {"stands": 16, "lat": 43.57375, "update": "2016-02-06T12:49:21", "status": "OPEN", "bikes": 3, "address": "38 RUE DE LA TOURAINE ANGLE RUE D AUVERGNE 31000 TOULOUSE", "name": "00266 - TOURAINE", "lon": 1.41398}, "type": "Feature"}, {"geometry": {"coordinates": [1.434138106708093, 43.60112880561738], "type": "Point"}, "properties": {"stands": 18, "lat": 43.60112880561738, "update": "2016-02-06T12:46:08", "status": "OPEN", "bikes": 1, "address": "1 PL LANGE", "name": "00079 - PLACE LANGE", "lon": 1.434138106708093}, "type": "Feature"}, {"geometry": {"coordinates": [1.483021040946601, 43.586074956653995], "type": "Point"}, "properties": {"stands": 16, "lat": 43.586074956653995, "update": "2016-02-06T12:43:07", "status": "OPEN", "bikes": 2, "address": "FACE 42 CHE DE LA TERRASSE", "name": "00210 - TERRASSE/ CENTRE CO.", "lon": 1.483021040946601}, "type": "Feature"}, {"geometry": {"coordinates": [1.436590757220506, 43.598542607102175], "type": "Point"}, "properties": {"stands": 16, "lat": 43.598542607102175, "update": "2016-02-06T12:40:20", "status": "OPEN", "bikes": 5, "address": "12 PL LAGANNE", "name": "00075 - CHATEAU D EAU", "lon": 1.436590757220506}, "type": "Feature"}, {"geometry": {"coordinates": [1.406488768851485, 43.57641895477528], "type": "Point"}, "properties": {"stands": 13, "lat": 43.57641895477528, "update": "2016-02-06T12:47:37", "status": "OPEN", "bikes": 7, "address": "FACE 85 RUE VAUQUELIN", "name": "00221 - VAUQUELIN", "lon": 1.406488768851485}, "type": "Feature"}, {"geometry": {"coordinates": [1.447411881616044, 43.58589564207925], "type": "Point"}, "properties": {"stands": 10, "lat": 43.58589564207925, "update": "2016-02-06T12:46:00", "status": "OPEN", "bikes": 13, "address": "18 B GRANDE RUE ST MICHEL", "name": "00128 - PRISON ST MICHEL", "lon": 1.447411881616044}, "type": "Feature"}, {"geometry": {"coordinates": [1.450764528471522, 43.58817925392077], "type": "Point"}, "properties": {"stands": 10, "lat": 43.58817925392077, "update": "2016-02-06T12:46:13", "status": "OPEN", "bikes": 7, "address": "2 PLACE DU BUSCA", "name": "00118 - PLACE DU BUSCA", "lon": 1.450764528471522}, "type": "Feature"}, {"geometry": {"coordinates": [1.44455, 43.59265], "type": "Point"}, "properties": {"stands": 15, "lat": 43.59265, "update": "2016-02-06T12:49:20", "status": "OPEN", "bikes": 1, "address": "1 BIS ALLEE JULES GUESDE", "name": "00068 - METRO - PALAIS DE JUSTICE", "lon": 1.44455}, "type": "Feature"}, {"geometry": {"coordinates": [1.428966282419491, 43.61990748467363], "type": "Point"}, "properties": {"stands": 7, "lat": 43.61990748467363, "update": "2016-02-06T12:41:02", "status": "OPEN", "bikes": 13, "address": "96 RUE DE CHAUSSAS", "name": "00147 - CHAUSSAS - DAUDET", "lon": 1.428966282419491}, "type": "Feature"}, {"geometry": {"coordinates": [1.447936286895422, 43.628469420497346], "type": "Point"}, "properties": {"stands": 7, "lat": 43.628469420497346, "update": "2016-02-06T12:47:13", "status": "OPEN", "bikes": 11, "address": "12 AV BOURGES MAUNOURY", "name": "00153 - BOURGES MAUNOURY", "lon": 1.447936286895422}, "type": "Feature"}, {"geometry": {"coordinates": [1.45632, 43.64265], "type": "Point"}, "properties": {"stands": 17, "lat": 43.64265, "update": "2016-02-06T12:47:47", "status": "OPEN", "bikes": 1, "address": "Devant N\u00b026 Chemin de Borderouge", "name": "00262 - ROND POINT CHEMIN DE BORDEROUGE", "lon": 1.45632}, "type": "Feature"}, {"geometry": {"coordinates": [1.458852500499583, 43.56641276350635], "type": "Point"}, "properties": {"stands": 10, "lat": 43.56641276350635, "update": "2016-02-06T12:49:19", "status": "OPEN", "bikes": 10, "address": "105 RTE DE NARBONNE", "name": "00233 - NARBONNE /SAHUQUE", "lon": 1.458852500499583}, "type": "Feature"}, {"geometry": {"coordinates": [1.450245130369442, 43.60411143798555], "type": "Point"}, "properties": {"stands": 18, "lat": 43.60411143798555, "update": "2016-02-06T12:49:42", "status": "OPEN", "bikes": 7, "address": "63 BD LAZARE CARNOT", "name": "00021 - CARNOT LABEDA", "lon": 1.450245130369442}, "type": "Feature"}, {"geometry": {"coordinates": [1.45336004007864, 43.609044644058145], "type": "Point"}, "properties": {"stands": 19, "lat": 43.609044644058145, "update": "2016-02-06T12:46:50", "status": "OPEN", "bikes": 3, "address": "71 ALL JEAN JAURES", "name": "00062 - JAURES STALINGRAD", "lon": 1.45336004007864}, "type": "Feature"}, {"geometry": {"coordinates": [1.443751822397876, 43.635706776069696], "type": "Point"}, "properties": {"stands": 7, "lat": 43.635706776069696, "update": "2016-02-06T12:49:40", "status": "OPEN", "bikes": 11, "address": "93 RUE ERNEST RENAN ANGLE RUE VITRY", "name": "00244 - RENAN / VITRY", "lon": 1.443751822397876}, "type": "Feature"}, {"geometry": {"coordinates": [1.41518438915584, 43.59990824072129], "type": "Point"}, "properties": {"stands": 19, "lat": 43.59990824072129, "update": "2016-02-06T12:45:19", "status": "OPEN", "bikes": 0, "address": "103 BIS AVENUE DE GRANDE BRETAGNE ANGLE RUE BADIOU", "name": "00245 - GRANDE BRETAGNE / BADIOU", "lon": 1.41518438915584}, "type": "Feature"}, {"geometry": {"coordinates": [1.43379, 43.64495], "type": "Point"}, "properties": {"stands": 7, "lat": 43.64495, "update": "2016-02-06T12:46:04", "status": "OPEN", "bikes": 11, "address": "Avenue duclos angle Avenue de Fronton", "name": "00260 - DUCLOS - FRONTON", "lon": 1.43379}, "type": "Feature"}, {"geometry": {"coordinates": [1.464456852027628, 43.567716505871594], "type": "Point"}, "properties": {"stands": 17, "lat": 43.567716505871594, "update": "2016-02-06T12:50:10", "status": "OPEN", "bikes": 1, "address": "FACE 35 CHEMIN DES MARAICHERS", "name": "00228 - METRO PHARMACIE", "lon": 1.464456852027628}, "type": "Feature"}, {"geometry": {"coordinates": [1.43538536091475, 43.6333722270955], "type": "Point"}, "properties": {"stands": 7, "lat": 43.6333722270955, "update": "2016-02-06T12:45:00", "status": "OPEN", "bikes": 12, "address": "FACE AU 8 RUE PAUL VERLAINE", "name": "00235 - PAUL VERLAINE", "lon": 1.43538536091475}, "type": "Feature"}, {"geometry": {"coordinates": [1.439870900566373, 43.62593095954932], "type": "Point"}, "properties": {"stands": 4, "lat": 43.62593095954932, "update": "2016-02-06T12:43:11", "status": "OPEN", "bikes": 14, "address": "78 BD PIERRE ET MARIE CURIE", "name": "00150 - CURIE CAMPISTRON", "lon": 1.439870900566373}, "type": "Feature"}, {"geometry": {"coordinates": [1.39711, 43.61948], "type": "Point"}, "properties": {"stands": 17, "lat": 43.61948, "update": "2016-02-06T12:41:00", "status": "OPEN", "bikes": 3, "address": "151 AVENUE DE CASSELARDIT SORTIE VILLE 31000 TOULOUSE", "name": "00271 - ANCELY", "lon": 1.39711}, "type": "Feature"}, {"geometry": {"coordinates": [1.443570238387108, 43.608568713084686], "type": "Point"}, "properties": {"stands": 4, "lat": 43.608568713084686, "update": "2016-02-06T12:48:11", "status": "OPEN", "bikes": 11, "address": "11 RUE HENRI BERALDI", "name": "00033 - BERALDI", "lon": 1.443570238387108}, "type": "Feature"}, {"geometry": {"coordinates": [1.461191671613412, 43.642833569777416], "type": "Point"}, "properties": {"stands": 1, "lat": 43.642833569777416, "update": "2016-02-06T12:41:59", "status": "OPEN", "bikes": 18, "address": "RUE HENRI EBELOT", "name": "00172 - NETWILLER / LAFORGUE", "lon": 1.461191671613412}, "type": "Feature"}, {"geometry": {"coordinates": [1.420545407442975, 43.61035351524297], "type": "Point"}, "properties": {"stands": 8, "lat": 43.61035351524297, "update": "2016-02-06T12:46:30", "status": "OPEN", "bikes": 10, "address": "152 ALL DE BARCELONE", "name": "00120 - PONTS JUMEAUX", "lon": 1.420545407442975}, "type": "Feature"}, {"geometry": {"coordinates": [1.466442513411802, 43.629671600633195], "type": "Point"}, "properties": {"stands": 5, "lat": 43.629671600633195, "update": "2016-02-06T12:48:25", "status": "OPEN", "bikes": 13, "address": "42 CHE AMOUROUX", "name": "00217 - AMOUROUX/ ST TROPEZ", "lon": 1.466442513411802}, "type": "Feature"}, {"geometry": {"coordinates": [1.450535969934731, 43.6331828272491], "type": "Point"}, "properties": {"stands": 5, "lat": 43.6331828272491, "update": "2016-02-06T12:40:17", "status": "OPEN", "bikes": 13, "address": "25 AV MAURICE BOURGES MAUNOURY", "name": "00173 - MAUNOURY / SEGELA", "lon": 1.450535969934731}, "type": "Feature"}, {"geometry": {"coordinates": [1.413431676051568, 43.5813322052426], "type": "Point"}, "properties": {"stands": 6, "lat": 43.5813322052426, "update": "2016-02-06T12:43:18", "status": "OPEN", "bikes": 14, "address": "145 RUE HENRI DESBALS", "name": "00143 - DESBALS SAINTONGE", "lon": 1.413431676051568}, "type": "Feature"}, {"geometry": {"coordinates": [1.42386687477895, 43.60842211156853], "type": "Point"}, "properties": {"stands": 15, "lat": 43.60842211156853, "update": "2016-02-06T12:47:36", "status": "OPEN", "bikes": 6, "address": "99 ALL DE BRIENNE", "name": "00106 - BRIENNE PASSERELLE", "lon": 1.42386687477895}, "type": "Feature"}, {"geometry": {"coordinates": [1.43288072066524, 43.61492465117555], "type": "Point"}, "properties": {"stands": 16, "lat": 43.61492465117555, "update": "2016-02-06T12:41:01", "status": "OPEN", "bikes": 7, "address": "1 RUE DE CHAUSSAS", "name": "00123 - CHAUSSAS EMBOUCHURE", "lon": 1.43288072066524}, "type": "Feature"}, {"geometry": {"coordinates": [1.442101445768934, 43.605203861405954], "type": "Point"}, "properties": {"stands": 5, "lat": 43.605203861405954, "update": "2016-02-06T12:49:58", "status": "OPEN", "bikes": 14, "address": "5 RUE DES LOIS", "name": "00006 - LOIS", "lon": 1.442101445768934}, "type": "Feature"}, {"geometry": {"coordinates": [1.48346, 43.60086], "type": "Point"}, "properties": {"stands": 8, "lat": 43.60086, "update": "2016-02-06T12:46:39", "status": "OPEN", "bikes": 8, "address": "CHEMIN DU CHATEAU DE L'HERS ANGLE CHEMIN FONTANELLES 31000 TOULOUSE", "name": "00257 - CHATEAU DE L'HERS", "lon": 1.48346}, "type": "Feature"}, {"geometry": {"coordinates": [1.451476646620887, 43.61243588156053], "type": "Point"}, "properties": {"stands": 0, "lat": 43.61243588156053, "update": "2016-02-06T12:49:32", "status": "OPEN", "bikes": 21, "address": "RUE RAYMOND IV", "name": "00097 - RAYMOND IV", "lon": 1.451476646620887}, "type": "Feature"}, {"geometry": {"coordinates": [1.415183785619737, 43.58998499389323], "type": "Point"}, "properties": {"stands": 10, "lat": 43.58998499389323, "update": "2016-02-06T12:46:15", "status": "OPEN", "bikes": 12, "address": "395 ROUTE DE SAINT SIMON", "name": "00191 - RUE DU 14 JUILLET", "lon": 1.415183785619737}, "type": "Feature"}, {"geometry": {"coordinates": [1.449072022617868, 43.60557592007205], "type": "Point"}, "properties": {"stands": 6, "lat": 43.60557592007205, "update": "2016-02-06T12:49:07", "status": "OPEN", "bikes": 18, "address": "62 BD LAZARE CARNOT", "name": "00019 - CARNOT PERI", "lon": 1.449072022617868}, "type": "Feature"}, {"geometry": {"coordinates": [1.465376125032407, 43.615227374108336], "type": "Point"}, "properties": {"stands": 11, "lat": 43.615227374108336, "update": "2016-02-06T12:47:48", "status": "OPEN", "bikes": 6, "address": "RUE DE LA CHAUMIERE", "name": "00212 - CHAUMIERE/ CRETES", "lon": 1.465376125032407}, "type": "Feature"}, {"geometry": {"coordinates": [1.473505161008297, 43.61680265241856], "type": "Point"}, "properties": {"stands": 10, "lat": 43.61680265241856, "update": "2016-02-06T12:44:12", "status": "OPEN", "bikes": 6, "address": "5 CH CASSAING", "name": "00179 - CASSAING PLANA", "lon": 1.473505161008297}, "type": "Feature"}, {"geometry": {"coordinates": [1.463164045792265, 43.58677914294868], "type": "Point"}, "properties": {"stands": 18, "lat": 43.58677914294868, "update": "2016-02-06T12:48:34", "status": "OPEN", "bikes": 0, "address": "PL ROGER ARNAUD", "name": "00204 - PL. ROGER ARNAUD", "lon": 1.463164045792265}, "type": "Feature"}, {"geometry": {"coordinates": [1.456658754907086, 43.61894094381528], "type": "Point"}, "properties": {"stands": 10, "lat": 43.61894094381528, "update": "2016-02-06T12:46:44", "status": "OPEN", "bikes": 9, "address": "8 ALLEE DE L EGLISE BONNEFOY", "name": "00134 - EGLISE BONNEFOY", "lon": 1.456658754907086}, "type": "Feature"}, {"geometry": {"coordinates": [1.452936514925397, 43.585266840172814], "type": "Point"}, "properties": {"stands": 5, "lat": 43.585266840172814, "update": "2016-02-06T12:43:02", "status": "OPEN", "bikes": 15, "address": "47 ALLEE BRANLY", "name": "00112 - PLACE RUSSEL - BRANLY", "lon": 1.452936514925397}, "type": "Feature"}, {"geometry": {"coordinates": [1.424432564672875, 43.574576545136445], "type": "Point"}, "properties": {"stands": 10, "lat": 43.574576545136445, "update": "2016-02-06T12:49:57", "status": "OPEN", "bikes": 10, "address": "57 Route D'Espagne", "name": "00241 - ESPAGNE CHARPENTIER", "lon": 1.424432564672875}, "type": "Feature"}, {"geometry": {"coordinates": [1.42463077628583, 43.5931301810241], "type": "Point"}, "properties": {"stands": 1, "lat": 43.5931301810241, "update": "2016-02-06T12:49:16", "status": "OPEN", "bikes": 17, "address": "RUE DE CUGNAUX", "name": "00183 - RUE DE CUGNAUX", "lon": 1.42463077628583}, "type": "Feature"}, {"geometry": {"coordinates": [1.454339701099757, 43.61689063107848], "type": "Point"}, "properties": {"stands": 5, "lat": 43.61689063107848, "update": "2016-02-06T12:45:26", "status": "OPEN", "bikes": 17, "address": "18 RUE BONNEFOY", "name": "00126 - ECOLE BONNEFOY", "lon": 1.454339701099757}, "type": "Feature"}, {"geometry": {"coordinates": [1.44009, 43.57705], "type": "Point"}, "properties": {"stands": 10, "lat": 43.57705, "update": "2016-02-06T12:46:43", "status": "OPEN", "bikes": 6, "address": "2 RUE DES MOUETTES ANGLE ALLEES SELLIER 31000 TOULOUSE", "name": "00255 - HENRI SELLIER", "lon": 1.44009}, "type": "Feature"}, {"geometry": {"coordinates": [1.450179100392055, 43.600398667412286], "type": "Point"}, "properties": {"stands": 15, "lat": 43.600398667412286, "update": "2016-02-06T12:46:52", "status": "OPEN", "bikes": 7, "address": "14 PL SAINT ETIENNE", "name": "00024 - PLACE SAINT ETIENNE", "lon": 1.450179100392055}, "type": "Feature"}, {"geometry": {"coordinates": [1.458048662941769, 43.6017932127447], "type": "Point"}, "properties": {"stands": 18, "lat": 43.6017932127447, "update": "2016-02-06T12:49:56", "status": "OPEN", "bikes": 2, "address": "6 RUE JEAN GOUJON", "name": "00196 - GOUJON - GUILHEMERY", "lon": 1.458048662941769}, "type": "Feature"}, {"geometry": {"coordinates": [1.44649, 43.57886], "type": "Point"}, "properties": {"stands": 11, "lat": 43.57886, "update": "2016-02-06T12:41:03", "status": "OPEN", "bikes": 7, "address": "RUE ST ROCH FACE RUE ELVIRE 31000 TOULOUSE", "name": "281 - NIEL", "lon": 1.44649}, "type": "Feature"}, {"geometry": {"coordinates": [1.436875386155235, 43.61814891164924], "type": "Point"}, "properties": {"stands": 6, "lat": 43.61814891164924, "update": "2016-02-06T12:43:35", "status": "OPEN", "bikes": 12, "address": "27 AV DES MINIMES", "name": "00124 - EGLISE DES MINIMES", "lon": 1.436875386155235}, "type": "Feature"}, {"geometry": {"coordinates": [1.481508972569192, 43.58300698375498], "type": "Point"}, "properties": {"stands": 15, "lat": 43.58300698375498, "update": "2016-02-06T12:47:41", "status": "OPEN", "bikes": 2, "address": "FACE 25 RUE DE L AUDE", "name": "00207 - CHRIST ROI", "lon": 1.481508972569192}, "type": "Feature"}, {"geometry": {"coordinates": [1.44026, 43.60215], "type": "Point"}, "properties": {"stands": 22, "lat": 43.60215, "update": "2016-02-06T12:45:06", "status": "OPEN", "bikes": 1, "address": "2 PL DE LA DAURADE", "name": "00011 - PLACE DE LA DAURADE", "lon": 1.44026}, "type": "Feature"}, {"geometry": {"coordinates": [1.41112908179427, 43.5792182218804], "type": "Point"}, "properties": {"stands": 5, "lat": 43.5792182218804, "update": "2016-02-06T12:42:41", "status": "OPEN", "bikes": 13, "address": "1 IMPASSE BACHAGA BOUALAM", "name": "00186 - DESBALS BOUALAM", "lon": 1.41112908179427}, "type": "Feature"}, {"geometry": {"coordinates": [1.44404, 43.62687], "type": "Point"}, "properties": {"stands": 2, "lat": 43.62687, "update": "2016-02-06T12:40:31", "status": "OPEN", "bikes": 15, "address": "161/163 AV DE NEGRENEYS SUR ILOT CENTRAL", "name": "00252 - NEGRENEYS /CASENEUVE", "lon": 1.44404}, "type": "Feature"}, {"geometry": {"coordinates": [1.469362217455508, 43.62727712277727], "type": "Point"}, "properties": {"stands": 2, "lat": 43.62727712277727, "update": "2016-02-06T12:40:29", "status": "OPEN", "bikes": 18, "address": "70 CHEMIN MICHOUN", "name": "00184 - MICHOUN", "lon": 1.469362217455508}, "type": "Feature"}, {"geometry": {"coordinates": [1.454915112024358, 43.57644751100008], "type": "Point"}, "properties": {"stands": 1, "lat": 43.57644751100008, "update": "2016-02-06T12:41:06", "status": "OPEN", "bikes": 13, "address": "35 AV DE RANGUEIL", "name": "00161 - RANGUEIL - BEDOUCE", "lon": 1.454915112024358}, "type": "Feature"}, {"geometry": {"coordinates": [1.3972, 43.60868], "type": "Point"}, "properties": {"stands": 19, "lat": 43.60868, "update": "2016-02-06T12:40:27", "status": "OPEN", "bikes": 3, "address": "avenue des Ar\u00e8nes Romaines, avant place du docteur Baylac 31000 TOULOUSE", "name": "00268 - PLACE BAYLAC", "lon": 1.3972}, "type": "Feature"}, {"geometry": {"coordinates": [1.427969819484834, 43.605562378447424], "type": "Point"}, "properties": {"stands": 19, "lat": 43.605562378447424, "update": "2016-02-06T12:48:46", "status": "OPEN", "bikes": 1, "address": "1 AV PAUL SEJOURNE", "name": "00082 - SEJOURNE CATALANS", "lon": 1.427969819484834}, "type": "Feature"}, {"geometry": {"coordinates": [1.43421, 43.59253], "type": "Point"}, "properties": {"stands": 9, "lat": 43.59253, "update": "2016-02-06T12:46:23", "status": "OPEN", "bikes": 9, "address": "5 PLACE DU FER A CHEVAL", "name": "00070 - FER A CHEVAL", "lon": 1.43421}, "type": "Feature"}, {"geometry": {"coordinates": [1.418128481713567, 43.587583195522946], "type": "Point"}, "properties": {"stands": 7, "lat": 43.587583195522946, "update": "2016-02-06T12:42:49", "status": "OPEN", "bikes": 10, "address": "237 RUE HENRI DESBALS", "name": "00141 - FONTAINE LESTANG", "lon": 1.418128481713567}, "type": "Feature"}, {"geometry": {"coordinates": [1.428790629053277, 43.612283701347906], "type": "Point"}, "properties": {"stands": 17, "lat": 43.612283701347906, "update": "2016-02-06T12:45:31", "status": "OPEN", "bikes": 3, "address": "2 BD SEBASTOPOL", "name": "00108 - SEBASTOPOL - RITAY", "lon": 1.428790629053277}, "type": "Feature"}, {"geometry": {"coordinates": [1.430598716260075, 43.606708008560005], "type": "Point"}, "properties": {"stands": 21, "lat": 43.606708008560005, "update": "2016-02-06T12:49:09", "status": "OPEN", "bikes": 1, "address": "2 BD DU MARECHAL LECLERC", "name": "00085 - MARECHAL LECLERC", "lon": 1.430598716260075}, "type": "Feature"}, {"geometry": {"coordinates": [1.476002176599847, 43.58166894906154], "type": "Point"}, "properties": {"stands": 12, "lat": 43.58166894906154, "update": "2016-02-06T12:50:17", "status": "OPEN", "bikes": 5, "address": "165 AV ANTOINE DE ST EXUPERY", "name": "00202 - ST EX. - COURREGE", "lon": 1.476002176599847}, "type": "Feature"}, {"geometry": {"coordinates": [1.453042492588597, 43.593599912488976], "type": "Point"}, "properties": {"stands": 11, "lat": 43.593599912488976, "update": "2016-02-06T12:44:55", "status": "OPEN", "bikes": 7, "address": "18 ALLEE FREDERIC MISTRAL", "name": "00102 -  MISTRAL - FLEURANCE", "lon": 1.453042492588597}, "type": "Feature"}, {"geometry": {"coordinates": [1.438224999266949, 43.60629527233212], "type": "Point"}, "properties": {"stands": 20, "lat": 43.60629527233212, "update": "2016-02-06T12:48:58", "status": "OPEN", "bikes": 3, "address": "40 PL ANATOLE FRANCE", "name": "00030 - PLACE ANATOLE FRANCE", "lon": 1.438224999266949}, "type": "Feature"}, {"geometry": {"coordinates": [1.464148138450798, 43.635666512128225], "type": "Point"}, "properties": {"stands": 4, "lat": 43.635666512128225, "update": "2016-02-06T12:43:47", "status": "OPEN", "bikes": 13, "address": "FACE 163 CHEMIN NICOLE", "name": "00170 - ROUTE D ALBI   / CUVIER", "lon": 1.464148138450798}, "type": "Feature"}, {"geometry": {"coordinates": [1.41954, 43.574], "type": "Point"}, "properties": {"stands": 8, "lat": 43.574, "update": "2016-02-06T12:47:45", "status": "OPEN", "bikes": 10, "address": "296 route de Seysses", "name": "00274 - GALLIENI", "lon": 1.41954}, "type": "Feature"}, {"geometry": {"coordinates": [1.467514131065815, 43.60075517705335], "type": "Point"}, "properties": {"stands": 11, "lat": 43.60075517705335, "update": "2016-02-06T12:41:44", "status": "OPEN", "bikes": 6, "address": "129 AV DE CASTRES", "name": "00213 - PUJOL/ CHAUBET", "lon": 1.467514131065815}, "type": "Feature"}, {"geometry": {"coordinates": [1.441434965295236, 43.599589544431005], "type": "Point"}, "properties": {"stands": 13, "lat": 43.599589544431005, "update": "2016-02-06T12:46:10", "status": "OPEN", "bikes": 3, "address": "52 RUE DES COUTELIERS", "name": "00049 - COUTELIER - METZ", "lon": 1.441434965295236}, "type": "Feature"}, {"geometry": {"coordinates": [1.434650096062823, 43.60864745421513], "type": "Point"}, "properties": {"stands": 19, "lat": 43.60864745421513, "update": "2016-02-06T12:50:17", "status": "OPEN", "bikes": 2, "address": "41 BD ARMAND DUPORTAL", "name": "00052 - DUPORTAL CITE ADMIN.", "lon": 1.434650096062823}, "type": "Feature"}, {"geometry": {"coordinates": [1.43104, 43.58903], "type": "Point"}, "properties": {"stands": 15, "lat": 43.58903, "update": "2016-02-06T12:42:52", "status": "OPEN", "bikes": 3, "address": "219 AV DE MURET", "name": "00104 - MURET BARTHERE", "lon": 1.43104}, "type": "Feature"}, {"geometry": {"coordinates": [1.441331077590377, 43.60621318190248], "type": "Point"}, "properties": {"stands": 15, "lat": 43.60621318190248, "update": "2016-02-06T12:48:20", "status": "OPEN", "bikes": 0, "address": "1 RUE DE L ESQUILE", "name": "00013 - LOIS ESQUILE", "lon": 1.441331077590377}, "type": "Feature"}, {"geometry": {"coordinates": [1.4278, 43.58588], "type": "Point"}, "properties": {"stands": 10, "lat": 43.58588, "update": "2016-02-06T12:43:21", "status": "OPEN", "bikes": 5, "address": "2 BD DEODAT DE SEVERAC", "name": "00129 - CROIX DE PIERRE", "lon": 1.4278}, "type": "Feature"}, {"geometry": {"coordinates": [1.449135738584587, 43.580795461338795], "type": "Point"}, "properties": {"stands": 1, "lat": 43.580795461338795, "update": "2016-02-06T12:46:44", "status": "OPEN", "bikes": 19, "address": "57 AV DE L URSS", "name": "00158 - URSS ST THOMAS D AQUIN", "lon": 1.449135738584587}, "type": "Feature"}, {"geometry": {"coordinates": [1.458930207887618, 43.626509813353074], "type": "Point"}, "properties": {"stands": 16, "lat": 43.626509813353074, "update": "2016-02-06T12:43:30", "status": "OPEN", "bikes": 4, "address": "RUE CREMON", "name": "00168 - BILA   /  ROUTE D ALBI", "lon": 1.458930207887618}, "type": "Feature"}, {"geometry": {"coordinates": [1.46521198710394, 43.63812899582609], "type": "Point"}, "properties": {"stands": 5, "lat": 43.63812899582609, "update": "2016-02-06T12:48:18", "status": "OPEN", "bikes": 14, "address": "147 RTE D'ALBI", "name": "00249 - CROIX DAURADE", "lon": 1.46521198710394}, "type": "Feature"}, {"geometry": {"coordinates": [1.4565, 43.59642], "type": "Point"}, "properties": {"stands": 16, "lat": 43.59642, "update": "2016-02-06T12:45:33", "status": "OPEN", "bikes": 4, "address": "face au 20 port st sauveur", "name": "00015 - PONT MONTAUDRAN", "lon": 1.4565}, "type": "Feature"}, {"geometry": {"coordinates": [1.439230135508607, 43.63677495879212], "type": "Point"}, "properties": {"stands": 9, "lat": 43.63677495879212, "update": "2016-02-06T12:48:26", "status": "OPEN", "bikes": 8, "address": "ROUTE DE LAUNAGUET ANGLE CHEMIN AUDIBERT", "name": "00247 - LAUNAGUET / AUDIBERT", "lon": 1.439230135508607}, "type": "Feature"}, {"geometry": {"coordinates": [1.435181557097925, 43.59849490883457], "type": "Point"}, "properties": {"stands": 3, "lat": 43.59849490883457, "update": "2016-02-06T12:45:31", "status": "OPEN", "bikes": 19, "address": "34 RUE DE LA REPUBLIQUE", "name": "00076 - REPUBLIQUE PL. OLIVIER", "lon": 1.435181557097925}, "type": "Feature"}, {"geometry": {"coordinates": [1.415377349047291, 43.594849382545554], "type": "Point"}, "properties": {"stands": 6, "lat": 43.594849382545554, "update": "2016-02-06T12:41:55", "status": "OPEN", "bikes": 14, "address": "59 AV DE LOMBEZ", "name": "00193 - LOMBEZ / PETITE VITESSE", "lon": 1.415377349047291}, "type": "Feature"}, {"geometry": {"coordinates": [1.423916022506519, 43.57827536338912], "type": "Point"}, "properties": {"stands": 1, "lat": 43.57827536338912, "update": "2016-02-06T12:47:38", "status": "OPEN", "bikes": 19, "address": "39 RTE D'Espagne", "name": "00190 - ESPAGNE LES OUSTALOUS", "lon": 1.423916022506519}, "type": "Feature"}, {"geometry": {"coordinates": [1.43168347755474, 43.6319121122554], "type": "Point"}, "properties": {"stands": 6, "lat": 43.6319121122554, "update": "2016-02-06T12:41:28", "status": "OPEN", "bikes": 14, "address": "AV DES Etats-Unis FACE AU 68 / 70", "name": "00253 - ETATS-UNIS / ROBERT", "lon": 1.43168347755474}, "type": "Feature"}, {"geometry": {"coordinates": [1.47765639323401, 43.6122515815792], "type": "Point"}, "properties": {"stands": 10, "lat": 43.6122515815792, "update": "2016-02-06T12:50:07", "status": "OPEN", "bikes": 8, "address": "3 Place SOUPETARD", "name": "00180 - PLACE SOUPETARD", "lon": 1.47765639323401}, "type": "Feature"}, {"geometry": {"coordinates": [1.460094426022393, 43.579725432743686], "type": "Point"}, "properties": {"stands": 9, "lat": 43.579725432743686, "update": "2016-02-06T12:44:04", "status": "OPEN", "bikes": 11, "address": "AV ALBERT BEDOUCE", "name": "00164 - BEDOUCE SAOUZELONG", "lon": 1.460094426022393}, "type": "Feature"}, {"geometry": {"coordinates": [1.434843235786321, 43.605035688745794], "type": "Point"}, "properties": {"stands": 16, "lat": 43.605035688745794, "update": "2016-02-06T12:50:15", "status": "OPEN", "bikes": 2, "address": "1 BD ARMAND DUPORTAL", "name": "00051 - DUPORTAL BRIENNE", "lon": 1.434843235786321}, "type": "Feature"}, {"geometry": {"coordinates": [1.4469, 43.60964], "type": "Point"}, "properties": {"stands": 22, "lat": 43.60964, "update": "2016-02-06T12:46:08", "status": "OPEN", "bikes": 3, "address": "1 RUE RAYMOND IV", "name": "00035 - PLACE JEANNE D'ARC", "lon": 1.4469}, "type": "Feature"}, {"geometry": {"coordinates": [1.45174992410964, 43.59800264157314], "type": "Point"}, "properties": {"stands": 17, "lat": 43.59800264157314, "update": "2016-02-06T12:48:47", "status": "OPEN", "bikes": 5, "address": "1 ALL FORAIN FRANCOIS VERDIER", "name": "00044 - PALAIS NIEL", "lon": 1.45174992410964}, "type": "Feature"}, {"geometry": {"coordinates": [1.466308391813157, 43.640897350426606], "type": "Point"}, "properties": {"stands": 1, "lat": 43.640897350426606, "update": "2016-02-06T12:42:19", "status": "OPEN", "bikes": 17, "address": "191 RTE D'ALBI", "name": "00171 - ROUTE D ALBI / CACTUS", "lon": 1.466308391813157}, "type": "Feature"}, {"geometry": {"coordinates": [1.45491780578712, 43.580276538637605], "type": "Point"}, "properties": {"stands": 10, "lat": 43.580276538637605, "update": "2016-02-06T12:49:18", "status": "OPEN", "bikes": 7, "address": "AV D' ITALIE", "name": "00162 - PLACE D'ITALIE", "lon": 1.45491780578712}, "type": "Feature"}, {"geometry": {"coordinates": [1.43922052825561, 43.60749002329994], "type": "Point"}, "properties": {"stands": 7, "lat": 43.60749002329994, "update": "2016-02-06T12:45:55", "status": "OPEN", "bikes": 13, "address": "7 RUE DES SALENQUES", "name": "00031 - SALENQUES", "lon": 1.43922052825561}, "type": "Feature"}, {"geometry": {"coordinates": [1.41997369298729, 43.598196214598815], "type": "Point"}, "properties": {"stands": 14, "lat": 43.598196214598815, "update": "2016-02-06T12:42:46", "status": "OPEN", "bikes": 5, "address": "3 BD JEAN BRUNHES", "name": "00138 - BARRIERE DE BAYONNE", "lon": 1.41997369298729}, "type": "Feature"}, {"geometry": {"coordinates": [1.459836309553229, 43.587677990128874], "type": "Point"}, "properties": {"stands": 11, "lat": 43.587677990128874, "update": "2016-02-06T12:49:29", "status": "OPEN", "bikes": 11, "address": "80 ALL DES DEMOISELLES", "name": "00098 - PONT DES DEMOISELLES", "lon": 1.459836309553229}, "type": "Feature"}, {"geometry": {"coordinates": [1.446610770547085, 43.60793763027584], "type": "Point"}, "properties": {"stands": 5, "lat": 43.60793763027584, "update": "2016-02-06T12:43:45", "status": "OPEN", "bikes": 16, "address": "32 BD DE STRASBOURG", "name": "00016 - STRASBOURG BAYARD", "lon": 1.446610770547085}, "type": "Feature"}, {"geometry": {"coordinates": [1.473457600659471, 43.59622771557735], "type": "Point"}, "properties": {"stands": 20, "lat": 43.59622771557735, "update": "2016-02-06T12:42:37", "status": "OPEN", "bikes": 0, "address": "FACE 25 CHEMIN LAFILAIRE", "name": "00198 - LAFILAIRE - DELTOUR", "lon": 1.473457600659471}, "type": "Feature"}, {"geometry": {"coordinates": [1.442808436675486, 43.609029818757634], "type": "Point"}, "properties": {"stands": 10, "lat": 43.609029818757634, "update": "2016-02-06T12:44:44", "status": "OPEN", "bikes": 5, "address": "1 RUE MERLY", "name": "00056 - SAINT SERNIN  MERLY", "lon": 1.442808436675486}, "type": "Feature"}, {"geometry": {"coordinates": [1.428493330933498, 43.61541821044434], "type": "Point"}, "properties": {"stands": 11, "lat": 43.61541821044434, "update": "2016-02-06T12:44:32", "status": "OPEN", "bikes": 9, "address": "57 CH DU SANG DE SERP", "name": "00146 - SANG DE SERP - DAGNAUX", "lon": 1.428493330933498}, "type": "Feature"}, {"geometry": {"coordinates": [1.37764, 43.58996], "type": "Point"}, "properties": {"stands": 1, "lat": 43.58996, "update": "2016-02-06T12:45:23", "status": "OPEN", "bikes": 17, "address": "Place Sauvegrain - angle avenue de Lardenne", "name": "00269 - PLACE SAUVEGRAIN", "lon": 1.37764}, "type": "Feature"}, {"geometry": {"coordinates": [1.425222752953333, 43.602528105503815], "type": "Point"}, "properties": {"stands": 15, "lat": 43.602528105503815, "update": "2016-02-06T12:46:04", "status": "OPEN", "bikes": 7, "address": "4 AVENUE DU CH\u00c2TEAU D'EAU", "name": "00095 - THEATRE GARONNE", "lon": 1.425222752953333}, "type": "Feature"}, {"geometry": {"coordinates": [1.441220679302088, 43.61325027179293], "type": "Point"}, "properties": {"stands": 5, "lat": 43.61325027179293, "update": "2016-02-06T12:49:49", "status": "OPEN", "bikes": 9, "address": "31 RUE DES CHALETS", "name": "00092 - CHALETS", "lon": 1.441220679302088}, "type": "Feature"}, {"geometry": {"coordinates": [1.451651418090918, 43.60754756868432], "type": "Point"}, "properties": {"stands": 18, "lat": 43.60754756868432, "update": "2016-02-06T12:48:57", "status": "OPEN", "bikes": 1, "address": "56 ALL JEAN JAURES", "name": "00038 - JAURES BACHELIER", "lon": 1.451651418090918}, "type": "Feature"}, {"geometry": {"coordinates": [1.41868, 43.59175], "type": "Point"}, "properties": {"stands": 5, "lat": 43.59175, "update": "2016-02-06T12:47:11", "status": "OPEN", "bikes": 24, "address": "PLACE EMILE MALE", "name": "00140 - EMILE MALE", "lon": 1.41868}, "type": "Feature"}, {"geometry": {"coordinates": [1.458008846441328, 43.606790468455905], "type": "Point"}, "properties": {"stands": 17, "lat": 43.606790468455905, "update": "2016-02-06T12:49:55", "status": "OPEN", "bikes": 1, "address": "1 RUE DU GENERAL COMPANS", "name": "00176 - GENERAL COMPANS", "lon": 1.458008846441328}, "type": "Feature"}, {"geometry": {"coordinates": [1.479772209704475, 43.56361464501064], "type": "Point"}, "properties": {"stands": 20, "lat": 43.56361464501064, "update": "2016-02-06T12:46:31", "status": "OPEN", "bikes": 0, "address": "AVENUE EDOUARD BELIN FACE CNRS", "name": "00237 - CNRS", "lon": 1.479772209704475}, "type": "Feature"}, {"geometry": {"coordinates": [1.464668419108617, 43.594341505924845], "type": "Point"}, "properties": {"stands": 12, "lat": 43.594341505924845, "update": "2016-02-06T12:49:44", "status": "OPEN", "bikes": 6, "address": "20 AV ARMAND LEYGUE", "name": "00206 - LEYGUE/ RIEUX", "lon": 1.464668419108617}, "type": "Feature"}, {"geometry": {"coordinates": [1.435070094381549, 43.610250914040755], "type": "Point"}, "properties": {"stands": 10, "lat": 43.610250914040755, "update": "2016-02-06T12:50:06", "status": "OPEN", "bikes": 15, "address": "17T BD LASCROSSES", "name": "00088 - DUPORTAL LASCROSSES", "lon": 1.435070094381549}, "type": "Feature"}, {"geometry": {"coordinates": [1.436628759028233, 43.611036915218165], "type": "Point"}, "properties": {"stands": 14, "lat": 43.611036915218165, "update": "2016-02-06T12:49:32", "status": "OPEN", "bikes": 9, "address": "1 ESP COMPANS CAFFARELLI", "name": "00089 - ESP COMPANS CAFFARELLI", "lon": 1.436628759028233}, "type": "Feature"}, {"geometry": {"coordinates": [1.455674042776099, 43.59697406705044], "type": "Point"}, "properties": {"stands": 5, "lat": 43.59697406705044, "update": "2016-02-06T12:50:15", "status": "OPEN", "bikes": 14, "address": "16 ALL PAUL SABATIER", "name": "00100 - PORT ST SAUVEUR", "lon": 1.455674042776099}, "type": "Feature"}, {"geometry": {"coordinates": [1.475849028782433, 43.623814424096544], "type": "Point"}, "properties": {"stands": 14, "lat": 43.623814424096544, "update": "2016-02-06T12:41:43", "status": "OPEN", "bikes": 6, "address": "FACE 8 RUE DE GAILLAC", "name": "00215 - METRO ARGOULETS", "lon": 1.475849028782433}, "type": "Feature"}, {"geometry": {"coordinates": [1.439762556768512, 43.60842033750804], "type": "Point"}, "properties": {"stands": 12, "lat": 43.60842033750804, "update": "2016-02-06T12:46:30", "status": "OPEN", "bikes": 5, "address": "10 RUE DE LA CHAINE", "name": "00054 - CHAINE", "lon": 1.439762556768512}, "type": "Feature"}, {"geometry": {"coordinates": [1.448047137954633, 43.60307769477977], "type": "Point"}, "properties": {"stands": 18, "lat": 43.60307769477977, "update": "2016-02-06T12:47:17", "status": "OPEN", "bikes": 6, "address": "19 RUE PAUL VIDAL", "name": "00008 - ESPACE SAINT GEORGES", "lon": 1.448047137954633}, "type": "Feature"}, {"geometry": {"coordinates": [1.37708, 43.58549], "type": "Point"}, "properties": {"stands": 8, "lat": 43.58549, "update": "2016-02-06T12:41:00", "status": "OPEN", "bikes": 10, "address": "10/12 rue zamenhof - 31000 TOuLOUSE", "name": "00277 - ZAMENHOF", "lon": 1.37708}, "type": "Feature"}, {"geometry": {"coordinates": [1.473660631896838, 43.600795440313355], "type": "Point"}, "properties": {"stands": 16, "lat": 43.600795440313355, "update": "2016-02-06T12:46:33", "status": "OPEN", "bikes": 1, "address": "48 AV DE CASTRES", "name": "00214 - CASTRES/ ACHIARY", "lon": 1.473660631896838}, "type": "Feature"}, {"geometry": {"coordinates": [1.458007861390548, 43.59239101222708], "type": "Point"}, "properties": {"stands": 7, "lat": 43.59239101222708, "update": "2016-02-06T12:41:33", "status": "OPEN", "bikes": 13, "address": "8 BD MONPLAISIR", "name": "00114 - BD MONTPLAISIR - CANAL", "lon": 1.458007861390548}, "type": "Feature"}, {"geometry": {"coordinates": [1.445285876671779, 43.60485265221502], "type": "Point"}, "properties": {"stands": 2, "lat": 43.60485265221502, "update": "2016-02-06T12:50:01", "status": "OPEN", "bikes": 22, "address": "21 RUE LAFAYETTE", "name": "00002 - LAFAYETTE", "lon": 1.445285876671779}, "type": "Feature"}, {"geometry": {"coordinates": [1.470276283956405, 43.591528310013615], "type": "Point"}, "properties": {"stands": 21, "lat": 43.591528310013615, "update": "2016-02-06T12:50:03", "status": "OPEN", "bikes": 1, "address": "4 BD DELTOUR", "name": "00199 - DELTOUR - RIEUX", "lon": 1.470276283956405}, "type": "Feature"}, {"geometry": {"coordinates": [1.478340741030179, 43.565104300575406], "type": "Point"}, "properties": {"stands": 19, "lat": 43.565104300575406, "update": "2016-02-06T12:48:48", "status": "OPEN", "bikes": 3, "address": "AVENUE EDOUARD BELIN ANGLE AV ROCHE", "name": "00223 - ENAC", "lon": 1.478340741030179}, "type": "Feature"}, {"geometry": {"coordinates": [1.44544233356215, 43.6003776908545], "type": "Point"}, "properties": {"stands": 8, "lat": 43.6003776908545, "update": "2016-02-06T12:50:12", "status": "OPEN", "bikes": 25, "address": "15 PL ETIENNE ESQUIROL", "name": "00010 - PLACE ESQUIROL", "lon": 1.44544233356215}, "type": "Feature"}, {"geometry": {"coordinates": [1.414428635946386, 43.593097534292575], "type": "Point"}, "properties": {"stands": 7, "lat": 43.593097534292575, "update": "2016-02-06T12:43:55", "status": "OPEN", "bikes": 10, "address": "RUE DU 11 NOVEMBRE", "name": "00250 - 11 NOVEMBRE", "lon": 1.414428635946386}, "type": "Feature"}, {"geometry": {"coordinates": [1.447014394243565, 43.596327873693475], "type": "Point"}, "properties": {"stands": 13, "lat": 43.596327873693475, "update": "2016-02-06T12:42:10", "status": "OPEN", "bikes": 3, "address": "10 RUE THEODORE OZENNE", "name": "00045 - OZENNE", "lon": 1.447014394243565}, "type": "Feature"}, {"geometry": {"coordinates": [1.428253851896989, 43.6055917312578], "type": "Point"}, "properties": {"stands": 8, "lat": 43.6055917312578, "update": "2016-02-06T12:49:43", "status": "OPEN", "bikes": 9, "address": "2 AV PAUL SEJOURNE", "name": "00083 - SEJOURNE AMIDONNIERS", "lon": 1.428253851896989}, "type": "Feature"}, {"geometry": {"coordinates": [1.445531445171338, 43.59546175758775], "type": "Point"}, "properties": {"stands": 18, "lat": 43.59546175758775, "update": "2016-02-06T12:47:09", "status": "OPEN", "bikes": 7, "address": "12 RUE DU LANGUEDOC", "name": "00047 - NAZARETH LANGUEDOC", "lon": 1.445531445171338}, "type": "Feature"}, {"geometry": {"coordinates": [1.465370657992508, 43.557243695153005], "type": "Point"}, "properties": {"stands": 18, "lat": 43.557243695153005, "update": "2016-02-06T12:48:12", "status": "OPEN", "bikes": 2, "address": "RANGUEIL / CL ROCHE", "name": "00231 - NARBONNE MARFAING", "lon": 1.465370657992508}, "type": "Feature"}, {"geometry": {"coordinates": [1.474057401308612, 43.622829380921075], "type": "Point"}, "properties": {"stands": 14, "lat": 43.622829380921075, "update": "2016-02-06T12:43:16", "status": "OPEN", "bikes": 3, "address": "3 RUE JEAN HOUDON", "name": "00216 - ARGOULETS HOUDON", "lon": 1.474057401308612}, "type": "Feature"}, {"geometry": {"coordinates": [1.410651114174017, 43.594206765269206], "type": "Point"}, "properties": {"stands": 6, "lat": 43.594206765269206, "update": "2016-02-06T12:48:12", "status": "OPEN", "bikes": 14, "address": "138 AV DE LOMBEZ", "name": "00194 - LOMBEZ / HIPPODROME", "lon": 1.410651114174017}, "type": "Feature"}, {"geometry": {"coordinates": [1.39867, 43.58444], "type": "Point"}, "properties": {"stands": 13, "lat": 43.58444, "update": "2016-02-06T12:48:39", "status": "OPEN", "bikes": 5, "address": "87 AVENUE JEAN BAYLET ANGLE CHEMIN CEPIERES", "name": "00263 - LYCEE POLYVALENT", "lon": 1.39867}, "type": "Feature"}, {"geometry": {"coordinates": [1.462248097516892, 43.63124672931264], "type": "Point"}, "properties": {"stands": 3, "lat": 43.63124672931264, "update": "2016-02-06T12:43:44", "status": "OPEN", "bikes": 14, "address": "65 RTE D'ALBI", "name": "00169 - ALBI  / JAFFARY", "lon": 1.462248097516892}, "type": "Feature"}, {"geometry": {"coordinates": [1.452939708828422, 43.60583232118379], "type": "Point"}, "properties": {"stands": 15, "lat": 43.60583232118379, "update": "2016-02-06T12:43:44", "status": "OPEN", "bikes": 4, "address": "9 PL DE DAMLOUP", "name": "00039 - PLACE DAMLOUP", "lon": 1.452939708828422}, "type": "Feature"}, {"geometry": {"coordinates": [1.48049587613679, 43.57965532664315], "type": "Point"}, "properties": {"stands": 17, "lat": 43.57965532664315, "update": "2016-02-06T12:45:09", "status": "OPEN", "bikes": 1, "address": "256 AV ANTOINE DE ST EXUPERY", "name": "00201 - POTEZ -ST EXUPERY", "lon": 1.48049587613679}, "type": "Feature"}, {"geometry": {"coordinates": [1.456321836591291, 43.59426485044087], "type": "Point"}, "properties": {"stands": 16, "lat": 43.59426485044087, "update": "2016-02-06T12:49:25", "status": "OPEN", "bikes": 4, "address": "5 PORT SAINT SAUVEUR", "name": "00101 - CAPT PORT ST SAUVEUR", "lon": 1.456321836591291}, "type": "Feature"}, {"geometry": {"coordinates": [1.47643, 43.62957], "type": "Point"}, "properties": {"stands": 13, "lat": 43.62957, "update": "2016-02-06T12:46:31", "status": "OPEN", "bikes": 5, "address": "Boulevard Atlanta / Cambard", "name": "00258 - CAMBARD", "lon": 1.47643}, "type": "Feature"}, {"geometry": {"coordinates": [1.450284083376377, 43.5785038852904], "type": "Point"}, "properties": {"stands": 6, "lat": 43.5785038852904, "update": "2016-02-06T12:42:07", "status": "OPEN", "bikes": 14, "address": "96 AV JULES JULIEN", "name": "00159 - U.R.S.S DEVIC", "lon": 1.450284083376377}, "type": "Feature"}, {"geometry": {"coordinates": [1.432688307877285, 43.59504949175626], "type": "Point"}, "properties": {"stands": 13, "lat": 43.59504949175626, "update": "2016-02-06T12:43:22", "status": "OPEN", "bikes": 7, "address": "23 ALL CHARLES DE FITTE", "name": "00072 - FITTE CUGNAUX", "lon": 1.432688307877285}, "type": "Feature"}, {"geometry": {"coordinates": [1.4401, 43.64066], "type": "Point"}, "properties": {"stands": 16, "lat": 43.64066, "update": "2016-02-06T12:49:53", "status": "OPEN", "bikes": 2, "address": "Devant le N\u00b06 rue Van Dyck avant angle rue Raphael - 31000 TOULOUSE", "name": "00261 - VAN DYCK - LAUNAGUET", "lon": 1.4401}, "type": "Feature"}, {"geometry": {"coordinates": [1.443059611732516, 43.62459108857192], "type": "Point"}, "properties": {"stands": 5, "lat": 43.62459108857192, "update": "2016-02-06T12:50:00", "status": "OPEN", "bikes": 19, "address": "27 BD PIERRE ET MARIE CURIE", "name": "00151 - CURIE - NEGRENEYS", "lon": 1.443059611732516}, "type": "Feature"}, {"geometry": {"coordinates": [1.473118127213999, 43.579425835630786], "type": "Point"}, "properties": {"stands": 14, "lat": 43.579425835630786, "update": "2016-02-06T12:44:36", "status": "OPEN", "bikes": 3, "address": "AVENUE DES HERBETTES", "name": "00238 - HERBETTES / BUTTE", "lon": 1.473118127213999}, "type": "Feature"}, {"geometry": {"coordinates": [1.429275168509917, 43.59970386767416], "type": "Point"}, "properties": {"stands": 13, "lat": 43.59970386767416, "update": "2016-02-06T12:41:07", "status": "OPEN", "bikes": 10, "address": "89B ALL CHARLES DE FITTE", "name": "00080 - FITTE VARSI", "lon": 1.429275168509917}, "type": "Feature"}, {"geometry": {"coordinates": [1.4431072280246, 43.610488427425665], "type": "Point"}, "properties": {"stands": 12, "lat": 43.610488427425665, "update": "2016-02-06T12:45:57", "status": "OPEN", "bikes": 3, "address": "15 RUE MERLY", "name": "00057 - MERLY ARCOLE", "lon": 1.4431072280246}, "type": "Feature"}, {"geometry": {"coordinates": [1.443637125697445, 43.6106186453129], "type": "Point"}, "properties": {"stands": 13, "lat": 43.6106186453129, "update": "2016-02-06T12:50:19", "status": "OPEN", "bikes": 12, "address": "4 RUE DE LA CONCORDE", "name": "00058 - CONCORDE ARCOLE", "lon": 1.443637125697445}, "type": "Feature"}, {"geometry": {"coordinates": [1.47297, 43.63539], "type": "Point"}, "properties": {"stands": 5, "lat": 43.63539, "update": "2016-02-06T12:44:33", "status": "OPEN", "bikes": 12, "address": "Boulevard Atlanta / apr\u00e8s angle rue vasseur - 31000 TOULOUSE", "name": "00272 - ANDRE VASSEUR", "lon": 1.47297}, "type": "Feature"}, {"geometry": {"coordinates": [1.47517386253435, 43.5628140764194], "type": "Point"}, "properties": {"stands": 20, "lat": 43.5628140764194, "update": "2016-02-06T12:49:08", "status": "OPEN", "bikes": 0, "address": "AVENUE DU COLONEL ROCHE", "name": "00222 - CAMBOU / ROCHE", "lon": 1.47517386253435}, "type": "Feature"}, {"geometry": {"coordinates": [1.442047437838665, 43.60233609279122], "type": "Point"}, "properties": {"stands": 12, "lat": 43.60233609279122, "update": "2016-02-06T12:49:28", "status": "OPEN", "bikes": 8, "address": "15 RUE SAINTE URSULE", "name": "00004 - STE URSULE", "lon": 1.442047437838665}, "type": "Feature"}, {"geometry": {"coordinates": [1.414531359571464, 43.602050919601446], "type": "Point"}, "properties": {"stands": 7, "lat": 43.602050919601446, "update": "2016-02-06T12:45:56", "status": "OPEN", "bikes": 8, "address": "RUE DES FONTAINES", "name": "00136 - FONTAINES", "lon": 1.414531359571464}, "type": "Feature"}, {"geometry": {"coordinates": [1.42438, 43.58807], "type": "Point"}, "properties": {"stands": 8, "lat": 43.58807, "update": "2016-02-06T12:44:38", "status": "OPEN", "bikes": 11, "address": "BD DEODAT DE SEVERAC", "name": "00142 - SEVERAC", "lon": 1.42438}, "type": "Feature"}, {"geometry": {"coordinates": [1.481957162051808, 43.60593083247726], "type": "Point"}, "properties": {"stands": 11, "lat": 43.60593083247726, "update": "2016-02-06T12:41:12", "status": "OPEN", "bikes": 9, "address": "AV JEAN CHAUBET", "name": "00182 - CHAUBET", "lon": 1.481957162051808}, "type": "Feature"}, {"geometry": {"coordinates": [1.451479779266325, 43.613829128033615], "type": "Point"}, "properties": {"stands": 4, "lat": 43.613829128033615, "update": "2016-02-06T12:45:35", "status": "OPEN", "bikes": 18, "address": "73 BD PIERRE SEMARD", "name": "00094 - SEMARD GARE ROUTIERE", "lon": 1.451479779266325}, "type": "Feature"}, {"geometry": {"coordinates": [1.455945448109943, 43.589803552331645], "type": "Point"}, "properties": {"stands": 5, "lat": 43.589803552331645, "update": "2016-02-06T12:41:08", "status": "OPEN", "bikes": 8, "address": "1 RUE BEGUE", "name": "00127 - BEGUE - DEMOISELLES", "lon": 1.455945448109943}, "type": "Feature"}, {"geometry": {"coordinates": [1.40142, 43.61354], "type": "Point"}, "properties": {"stands": 16, "lat": 43.61354, "update": "2016-02-06T12:46:28", "status": "OPEN", "bikes": 2, "address": "229 AVENUE DE CASSELARDIT CROISEMENT ESPAGNO / CASSELARDIT 31000 TOULOUSE", "name": "00279 - GUY ESPAGNO", "lon": 1.40142}, "type": "Feature"}, {"geometry": {"coordinates": [1.4616307898919, 43.614208387732], "type": "Point"}, "properties": {"stands": 13, "lat": 43.614208387732, "update": "2016-02-06T12:42:17", "status": "OPEN", "bikes": 7, "address": "26 AVENUE LEON BLUM ANGLE RUE LEON JOUHAUX", "name": "00251 - BLUM / JOUHAUX", "lon": 1.4616307898919}, "type": "Feature"}, {"geometry": {"coordinates": [1.407211289929025, 43.60419040838992], "type": "Point"}, "properties": {"stands": 13, "lat": 43.60419040838992, "update": "2016-02-06T12:46:43", "status": "OPEN", "bikes": 4, "address": "292 RUE DES FONTAINES", "name": "00226 - FONTAINES /CASSELARDIT", "lon": 1.407211289929025}, "type": "Feature"}, {"geometry": {"coordinates": [1.430120187266013, 43.613472358330974], "type": "Point"}, "properties": {"stands": 19, "lat": 43.613472358330974, "update": "2016-02-06T12:44:52", "status": "OPEN", "bikes": 0, "address": "57 BD DE L EMBOUCHURE", "name": "00122 - PASSERELLE HAEDENS", "lon": 1.430120187266013}, "type": "Feature"}, {"geometry": {"coordinates": [1.443005133993703, 43.59804753924319], "type": "Point"}, "properties": {"stands": 22, "lat": 43.59804753924319, "update": "2016-02-06T12:44:14", "status": "OPEN", "bikes": 0, "address": "9 RUE HENRY DE GORSSE", "name": "00026 - DALBADE - DE GORSSE", "lon": 1.443005133993703}, "type": "Feature"}, {"geometry": {"coordinates": [1.467678323560475, 43.567221153708445], "type": "Point"}, "properties": {"stands": 20, "lat": 43.567221153708445, "update": "2016-02-06T12:42:39", "status": "OPEN", "bikes": 0, "address": "141 AV DE RANGUEIL", "name": "00230 - RANGUEIL TRIPODE B", "lon": 1.467678323560475}, "type": "Feature"}, {"geometry": {"coordinates": [1.456048100267833, 43.601588174955744], "type": "Point"}, "properties": {"stands": 18, "lat": 43.601588174955744, "update": "2016-02-06T12:44:03", "status": "OPEN", "bikes": 1, "address": "3 BD PR LEOPOLD ESCANDE", "name": "00042 - DAURIAC ESCANDE", "lon": 1.456048100267833}, "type": "Feature"}, {"geometry": {"coordinates": [1.411359591750251, 43.614589794633694], "type": "Point"}, "properties": {"stands": 3, "lat": 43.614589794633694, "update": "2016-02-06T12:48:09", "status": "OPEN", "bikes": 15, "address": "35 RUE PUCCINI", "name": "00219 - PUCCINI/ BLAGNAC", "lon": 1.411359591750251}, "type": "Feature"}, {"geometry": {"coordinates": [1.462194464667426, 43.581459211587536], "type": "Point"}, "properties": {"stands": 5, "lat": 43.581459211587536, "update": "2016-02-06T12:50:18", "status": "OPEN", "bikes": 15, "address": "115 AV ALBERT BEDOUCE", "name": "00163 - BEDOUCE / MIDI", "lon": 1.462194464667426}, "type": "Feature"}, {"geometry": {"coordinates": [1.435597311467436, 43.620735968782895], "type": "Point"}, "properties": {"stands": 7, "lat": 43.620735968782895, "update": "2016-02-06T12:48:34", "status": "OPEN", "bikes": 15, "address": "71 AV DES MINIMES", "name": "00133 - MARCHE AUX COCHONS", "lon": 1.435597311467436}, "type": "Feature"}, {"geometry": {"coordinates": [1.47508540800772, 43.58588613821349], "type": "Point"}, "properties": {"stands": 14, "lat": 43.58588613821349, "update": "2016-02-06T12:46:20", "status": "OPEN", "bikes": 4, "address": "58 AV DES COTTAGES", "name": "00205 - COTTAGE/ RIEUX", "lon": 1.47508540800772}, "type": "Feature"}, {"geometry": {"coordinates": [1.428450231443648, 43.60802027853654], "type": "Point"}, "properties": {"stands": 15, "lat": 43.60802027853654, "update": "2016-02-06T12:50:12", "status": "OPEN", "bikes": 5, "address": "23 RUE DU BEARNAIS", "name": "00086 - HERACLES - BEARNAIS", "lon": 1.428450231443648}, "type": "Feature"}, {"geometry": {"coordinates": [1.451093339873272, 43.596478222107635], "type": "Point"}, "properties": {"stands": 14, "lat": 43.596478222107635, "update": "2016-02-06T12:49:53", "status": "OPEN", "bikes": 9, "address": "HUIT MAI 1945", "name": "00066 - JARDIN ROYAL", "lon": 1.451093339873272}, "type": "Feature"}, {"geometry": {"coordinates": [1.408124460028565, 43.6172496485261], "type": "Point"}, "properties": {"stands": 8, "lat": 43.6172496485261, "update": "2016-02-06T12:49:21", "status": "OPEN", "bikes": 10, "address": "FACE 103 BIS ROUTE DE BLAGNAC", "name": "00240 - RTE DE BLAGNAC / JOB", "lon": 1.408124460028565}, "type": "Feature"}, {"geometry": {"coordinates": [1.41476, 43.60614], "type": "Point"}, "properties": {"stands": 7, "lat": 43.60614, "update": "2016-02-06T12:49:07", "status": "OPEN", "bikes": 11, "address": "BD RICHARD WAGNER / ANGLE A.VIVALDI 31000 TOULOUSE", "name": "282 - RICHARD WAGNER", "lon": 1.41476}, "type": "Feature"}, {"geometry": {"coordinates": [1.448244408330328, 43.60629718770727], "type": "Point"}, "properties": {"stands": 14, "lat": 43.60629718770727, "update": "2016-02-06T12:48:06", "status": "OPEN", "bikes": 11, "address": "4 BD DE STRASBOURG", "name": "00018 - STRASBOURG JEAN JAURES", "lon": 1.448244408330328}, "type": "Feature"}, {"geometry": {"coordinates": [1.44002, 43.60459], "type": "Point"}, "properties": {"stands": 3, "lat": 43.60459, "update": "2016-02-06T12:48:08", "status": "OPEN", "bikes": 8, "address": "66 RUE PARGAMINIERES", "name": "00012 - PARGAMINIERES", "lon": 1.44002}, "type": "Feature"}, {"geometry": {"coordinates": [1.425882273289917, 43.596852956620715], "type": "Point"}, "properties": {"stands": 7, "lat": 43.596852956620715, "update": "2016-02-06T12:49:57", "status": "OPEN", "bikes": 13, "address": "39 AVENUE ETIENNE BILLIERES", "name": "00117 - BILLIERES -POSTE", "lon": 1.425882273289917}, "type": "Feature"}, {"geometry": {"coordinates": [1.454093824286969, 43.599990271041186], "type": "Point"}, "properties": {"stands": 16, "lat": 43.599990271041186, "update": "2016-02-06T12:50:05", "status": "OPEN", "bikes": 6, "address": "14 PL DOMINIQUE MARTIN DUPUY", "name": "00043 - DUPUY", "lon": 1.454093824286969}, "type": "Feature"}, {"geometry": {"coordinates": [1.452455826571967, 43.61071810091073], "type": "Point"}, "properties": {"stands": 1, "lat": 43.61071810091073, "update": "2016-02-06T12:49:45", "status": "OPEN", "bikes": 26, "address": "8T BD DE BONREPOS", "name": "00061 - BONREPOS", "lon": 1.452455826571967}, "type": "Feature"}, {"geometry": {"coordinates": [1.460187742067113, 43.57686792022356], "type": "Point"}, "properties": {"stands": 7, "lat": 43.57686792022356, "update": "2016-02-06T12:48:45", "status": "OPEN", "bikes": 8, "address": "33 AVENUE DES AVIONS", "name": "00165 - PLACE DES AVIONS", "lon": 1.460187742067113}, "type": "Feature"}, {"geometry": {"coordinates": [1.42778, 43.62413], "type": "Point"}, "properties": {"stands": 0, "lat": 43.62413, "update": "2016-02-06T12:45:03", "status": "OPEN", "bikes": 16, "address": "Rue Jules Verne angle Boulevard Silvio Trentin - 31000 TOULOUSE", "name": "00270 - SILVIO TRENTIN", "lon": 1.42778}, "type": "Feature"}, {"geometry": {"coordinates": [1.445174430937582, 43.590605082277605], "type": "Point"}, "properties": {"stands": 11, "lat": 43.590605082277605, "update": "2016-02-06T12:44:28", "status": "OPEN", "bikes": 8, "address": "139 GRANDE RUE ST MICHEL", "name": "00103 - ST MICHEL ST CATHERINE", "lon": 1.445174430937582}, "type": "Feature"}, {"geometry": {"coordinates": [1.448061825303155, 43.60610692889793], "type": "Point"}, "properties": {"stands": 13, "lat": 43.60610692889793, "update": "2016-02-06T12:47:27", "status": "OPEN", "bikes": 10, "address": "7 BD DE STRASBOURG", "name": "00017 - STRASBOURG SARDANE", "lon": 1.448061825303155}, "type": "Feature"}, {"geometry": {"coordinates": [1.445315649331453, 43.597401475499026], "type": "Point"}, "properties": {"stands": 12, "lat": 43.597401475499026, "update": "2016-02-06T12:50:00", "status": "OPEN", "bikes": 8, "address": "1 PL DES CARMES", "name": "00046 - PLACE DES CARMES", "lon": 1.445315649331453}, "type": "Feature"}, {"geometry": {"coordinates": [1.461907953641387, 43.627603587351345], "type": "Point"}, "properties": {"stands": 14, "lat": 43.627603587351345, "update": "2016-02-06T12:45:36", "status": "OPEN", "bikes": 4, "address": "24 BIS CHE AMOUROUX", "name": "00218 - AMOUROUX /STE AUGUSTINE", "lon": 1.461907953641387}, "type": "Feature"}, {"geometry": {"coordinates": [1.470077844843929, 43.5834192540153], "type": "Point"}, "properties": {"stands": 6, "lat": 43.5834192540153, "update": "2016-02-06T12:40:20", "status": "OPEN", "bikes": 14, "address": "2 AV ANTOINE DE ST EXUPERY", "name": "00203 - ST EX. - PETIT PRINCE", "lon": 1.470077844843929}, "type": "Feature"}, {"geometry": {"coordinates": [1.441209573825458, 43.60765033417208], "type": "Point"}, "properties": {"stands": 11, "lat": 43.60765033417208, "update": "2016-02-06T12:45:38", "status": "OPEN", "bikes": 1, "address": "8 RUE DES TROIS RENARDS", "name": "00032 - MUSEE ST RAYMOND", "lon": 1.441209573825458}, "type": "Feature"}, {"geometry": {"coordinates": [1.45752, 43.61184], "type": "Point"}, "properties": {"stands": 15, "lat": 43.61184, "update": "2016-02-06T12:42:11", "status": "OPEN", "bikes": 4, "address": "5 RUE LEDUC", "name": "00005 - LEDUC", "lon": 1.45752}, "type": "Feature"}, {"geometry": {"coordinates": [1.432075106068745, 43.59628476386365], "type": "Point"}, "properties": {"stands": 0, "lat": 43.59628476386365, "update": "2016-02-06T12:41:01", "status": "OPEN", "bikes": 16, "address": "40 ALL CHARLES DE FITTE", "name": "00073 - FITTE TEINTURIERS", "lon": 1.432075106068745}, "type": "Feature"}, {"geometry": {"coordinates": [1.440920059367141, 43.594569737633854], "type": "Point"}, "properties": {"stands": 8, "lat": 43.594569737633854, "update": "2016-02-06T12:41:52", "status": "OPEN", "bikes": 15, "address": "1 AV MAURICE HAURIOU", "name": "00050 - GARONNETTE", "lon": 1.440920059367141}, "type": "Feature"}, {"geometry": {"coordinates": [1.449629619920856, 43.604717604204446], "type": "Point"}, "properties": {"stands": 7, "lat": 43.604717604204446, "update": "2016-02-06T12:44:18", "status": "OPEN", "bikes": 20, "address": "69 BD LAZARE CARNOT", "name": "00020 - CARNOT TROIS JOURNEES", "lon": 1.449629619920856}, "type": "Feature"}, {"geometry": {"coordinates": [1.443635078857447, 43.58386908499996], "type": "Point"}, "properties": {"stands": 15, "lat": 43.58386908499996, "update": "2016-02-06T12:46:51", "status": "OPEN", "bikes": 5, "address": "34 BD DES RECOLLETS", "name": "00155 - RECOLLETS", "lon": 1.443635078857447}, "type": "Feature"}, {"geometry": {"coordinates": [1.41028, 43.56507], "type": "Point"}, "properties": {"stands": 7, "lat": 43.56507, "update": "2016-02-06T12:47:01", "status": "OPEN", "bikes": 11, "address": "Place des Gli\u00e8res", "name": "00264 - LAFOURGUETTE", "lon": 1.41028}, "type": "Feature"}, {"geometry": {"coordinates": [1.4842, 43.59666], "type": "Point"}, "properties": {"stands": 12, "lat": 43.59666, "update": "2016-02-06T12:47:36", "status": "OPEN", "bikes": 6, "address": "FACE 175 ROUTE DE CASTRES ANGLE RUE CARCASSONNE", "name": "00256 - PLACE DE LA RONTONDE", "lon": 1.4842}, "type": "Feature"}, {"geometry": {"coordinates": [1.439737579879722, 43.611584087589904], "type": "Point"}, "properties": {"stands": 20, "lat": 43.611584087589904, "update": "2016-02-06T12:47:34", "status": "OPEN", "bikes": 1, "address": "48 BD D ARCOLE", "name": "00091 - ARCOLE BALANCE", "lon": 1.439737579879722}, "type": "Feature"}, {"geometry": {"coordinates": [1.465517338373819, 43.62704846650827], "type": "Point"}, "properties": {"stands": 14, "lat": 43.62704846650827, "update": "2016-02-06T12:46:23", "status": "OPEN", "bikes": 1, "address": "30 RUE ROUBICHOU", "name": "00185 - ROUBICHOU ARLES", "lon": 1.465517338373819}, "type": "Feature"}, {"geometry": {"coordinates": [1.440461106405702, 43.59938372814817], "type": "Point"}, "properties": {"stands": 20, "lat": 43.59938372814817, "update": "2016-02-06T12:49:31", "status": "OPEN", "bikes": 3, "address": "QUAI DE TOUNIS", "name": "00027 - QUAI DE TOUNIS", "lon": 1.440461106405702}, "type": "Feature"}, {"geometry": {"coordinates": [1.478914286004687, 43.589466982143435], "type": "Point"}, "properties": {"stands": 17, "lat": 43.589466982143435, "update": "2016-02-06T12:46:37", "status": "OPEN", "bikes": 1, "address": "4 AV LUCIEN BAROUX", "name": "00209 - BAROUX/ DARASSE", "lon": 1.478914286004687}, "type": "Feature"}, {"geometry": {"coordinates": [1.40230245215212, 43.574612132702526], "type": "Point"}, "properties": {"stands": 16, "lat": 43.574612132702526, "update": "2016-02-06T12:44:30", "status": "OPEN", "bikes": 3, "address": "3 RUE DE L'UNIVERSITE", "name": "00220 - TABAR /UNIVERSITE", "lon": 1.40230245215212}, "type": "Feature"}, {"geometry": {"coordinates": [1.431415230750123, 43.59812186858788], "type": "Point"}, "properties": {"stands": 7, "lat": 43.59812186858788, "update": "2016-02-06T12:44:31", "status": "OPEN", "bikes": 10, "address": "14 PL INTERIEURE ST CYPRIEN", "name": "00078 - PLACE INT ST CYP. DARRE", "lon": 1.431415230750123}, "type": "Feature"}, {"geometry": {"coordinates": [1.448486709552681, 43.615368584913504], "type": "Point"}, "properties": {"stands": 17, "lat": 43.615368584913504, "update": "2016-02-06T12:48:03", "status": "OPEN", "bikes": 5, "address": "CH DU RAISIN", "name": "00149 - RAISIN MINIMES", "lon": 1.448486709552681}, "type": "Feature"}, {"geometry": {"coordinates": [1.446485498451865, 43.613590372531775], "type": "Point"}, "properties": {"stands": 14, "lat": 43.613590372531775, "update": "2016-02-06T10:58:34", "status": "OPEN", "bikes": 5, "address": "61 RUE DE LA CONCORDE", "name": "00059 - CONCORDE", "lon": 1.446485498451865}, "type": "Feature"}, {"geometry": {"coordinates": [1.430389555237135, 43.609753361824794], "type": "Point"}, "properties": {"stands": 0, "lat": 43.609753361824794, "update": "2016-02-06T12:46:30", "status": "OPEN", "bikes": 27, "address": "1 RUE DE SEBASTOPOL", "name": "00107 - SEBASTOPOL", "lon": 1.430389555237135}, "type": "Feature"}, {"geometry": {"coordinates": [1.420141760360439, 43.60390532418828], "type": "Point"}, "properties": {"stands": 2, "lat": 43.60390532418828, "update": "2016-02-06T12:46:00", "status": "OPEN", "bikes": 18, "address": "29 BOULEVARD RICHARD WAGNER ANG BD JEAN BRUNHES", "name": "00246 - WAGNER / JEAN BRUNHES", "lon": 1.420141760360439}, "type": "Feature"}, {"geometry": {"coordinates": [1.450654849861206, 43.60082502483391], "type": "Point"}, "properties": {"stands": 14, "lat": 43.60082502483391, "update": "2016-02-06T12:48:47", "status": "OPEN", "bikes": 2, "address": "7 RUE DU REMPART ST ETIENNE", "name": "00099 - REMPART ST ETIENNE", "lon": 1.450654849861206}, "type": "Feature"}, {"geometry": {"coordinates": [1.48278, 43.57452], "type": "Point"}, "properties": {"stands": 8, "lat": 43.57452, "update": "2016-02-06T12:42:11", "status": "OPEN", "bikes": 8, "address": "RUE GONIN ANGLE GENIN 31000 TOULOUSE", "name": "00267 - GONIN", "lon": 1.48278}, "type": "Feature"}, {"geometry": {"coordinates": [1.449215732146181, 43.592355124495455], "type": "Point"}, "properties": {"stands": 16, "lat": 43.592355124495455, "update": "2016-02-06T12:44:22", "status": "OPEN", "bikes": 3, "address": "FACE 58 RUE DUMERIL", "name": "00113 - MUSEUM LAMARCK", "lon": 1.449215732146181}, "type": "Feature"}, {"geometry": {"coordinates": [1.444528167445985, 43.61692696530316], "type": "Point"}, "properties": {"stands": 11, "lat": 43.61692696530316, "update": "2016-02-06T12:42:40", "status": "OPEN", "bikes": 8, "address": "5 AV DE COLLIGNON", "name": "00148 - COLLIGNON", "lon": 1.444528167445985}, "type": "Feature"}, {"geometry": {"coordinates": [1.454698517821249, 43.62409340165932], "type": "Point"}, "properties": {"stands": 5, "lat": 43.62409340165932, "update": "2016-02-06T12:45:41", "status": "OPEN", "bikes": 13, "address": "RUE LAPUJADE ANGLE RUE DES FLANDRES", "name": "00167 - LAPUJADE-FLANDRES", "lon": 1.454698517821249}, "type": "Feature"}, {"geometry": {"coordinates": [1.41325, 43.56793], "type": "Point"}, "properties": {"stands": 12, "lat": 43.56793, "update": "2016-02-06T12:47:39", "status": "OPEN", "bikes": 6, "address": "Face N\u00b0251 route de Seysses", "name": "00265 - PASSAGE BORDELONGUE", "lon": 1.41325}, "type": "Feature"}, {"geometry": {"coordinates": [1.446483165667178, 43.588359791103294], "type": "Point"}, "properties": {"stands": 14, "lat": 43.588359791103294, "update": "2016-02-06T12:48:38", "status": "OPEN", "bikes": 1, "address": "50 GRANDE RUE ST MICHEL", "name": "00116 - ST MICHEL NOTRE DAME", "lon": 1.446483165667178}, "type": "Feature"}, {"geometry": {"coordinates": [1.446076879873296, 43.609650036285025], "type": "Point"}, "properties": {"stands": 0, "lat": 43.609650036285025, "update": "2016-02-06T12:42:03", "status": "OPEN", "bikes": 19, "address": "2 PETITE RUE SAINT LAZARE", "name": "00034 - SAINT LAZARE", "lon": 1.446076879873296}, "type": "Feature"}, {"geometry": {"coordinates": [1.419524853208122, 43.609967343094006], "type": "Point"}, "properties": {"stands": 11, "lat": 43.609967343094006, "update": "2016-02-06T12:45:24", "status": "OPEN", "bikes": 13, "address": "129 ALL DE BRIENNE", "name": "00119 - CHAPOU", "lon": 1.419524853208122}, "type": "Feature"}, {"geometry": {"coordinates": [1.38887, 43.58171], "type": "Point"}, "properties": {"stands": 17, "lat": 43.58171, "update": "2016-02-06T12:48:27", "status": "OPEN", "bikes": 0, "address": "Place des Pradettes / rue Arthur Huc", "name": "00275 - PLACE DES PRADETTES", "lon": 1.38887}, "type": "Feature"}, {"geometry": {"coordinates": [1.451999386383253, 43.573924940202886], "type": "Point"}, "properties": {"stands": 3, "lat": 43.573924940202886, "update": "2016-02-06T12:50:15", "status": "OPEN", "bikes": 14, "address": "21 AV DES ECOLES JULES JULIEN", "name": "00160 - THEATRE JULES JULIEN", "lon": 1.451999386383253}, "type": "Feature"}, {"geometry": {"coordinates": [1.456086445970436, 43.569437251134566], "type": "Point"}, "properties": {"stands": 8, "lat": 43.569437251134566, "update": "2016-02-06T12:45:53", "status": "OPEN", "bikes": 7, "address": "64 RTE DE NARBONNE", "name": "00232 - NARBONNE/ MIROUSE", "lon": 1.456086445970436}, "type": "Feature"}, {"geometry": {"coordinates": [1.48781984362323, 43.58350615923425], "type": "Point"}, "properties": {"stands": 10, "lat": 43.58350615923425, "update": "2016-02-06T12:41:56", "status": "OPEN", "bikes": 8, "address": "9 RUE LE DORMEUR", "name": "00211 - LE DORMEUR/ LA TERRASSE", "lon": 1.48781984362323}, "type": "Feature"}, {"geometry": {"coordinates": [1.39709, 43.6142], "type": "Point"}, "properties": {"stands": 13, "lat": 43.6142, "update": "2016-02-06T12:43:28", "status": "OPEN", "bikes": 4, "address": "AVENUE DES ARENES ROMAINES / GUY ESPAGNO DANS ROND POINT 31000 TOULOUSE", "name": "00278 - ARENES ROMAINE", "lon": 1.39709}, "type": "Feature"}, {"geometry": {"coordinates": [1.434473692188769, 43.62293779541603], "type": "Point"}, "properties": {"stands": 5, "lat": 43.62293779541603, "update": "2016-02-06T12:44:39", "status": "OPEN", "bikes": 14, "address": "101 AVENUES DES MINIMES", "name": "00132 - MINIMES BILARD", "lon": 1.434473692188769}, "type": "Feature"}, {"geometry": {"coordinates": [1.424941224096277, 43.61395913175851], "type": "Point"}, "properties": {"stands": 15, "lat": 43.61395913175851, "update": "2016-02-06T12:42:52", "status": "OPEN", "bikes": 5, "address": "29 RUE ROLAND GARROS", "name": "00145 - GOUNOD - GARROS", "lon": 1.424941224096277}, "type": "Feature"}, {"geometry": {"coordinates": [1.438157046235524, 43.61375517689823], "type": "Point"}, "properties": {"stands": 8, "lat": 43.61375517689823, "update": "2016-02-06T12:49:22", "status": "OPEN", "bikes": 10, "address": "16 RUE ALEXANDRE CABANEL", "name": "00110 - CABANEL - SERRES", "lon": 1.438157046235524}, "type": "Feature"}, {"geometry": {"coordinates": [1.434225150757254, 43.6269176821576], "type": "Point"}, "properties": {"stands": 5, "lat": 43.6269176821576, "update": "2016-02-06T12:47:39", "status": "OPEN", "bikes": 19, "address": "BARRI\u00c8RE DE PARIS", "name": "00125 - BARRI\u00c8RE DE PARIS", "lon": 1.434225150757254}, "type": "Feature"}, {"geometry": {"coordinates": [1.454189017923435, 43.607433487401345], "type": "Point"}, "properties": {"stands": 10, "lat": 43.607433487401345, "update": "2016-02-06T12:50:15", "status": "OPEN", "bikes": 12, "address": "54 RUE DES SEPT TROUBADOURS", "name": "00063 - PISCINE LEO LAGRANGE", "lon": 1.454189017923435}, "type": "Feature"}, {"geometry": {"coordinates": [1.46539185105244, 43.61743867816197], "type": "Point"}, "properties": {"stands": 19, "lat": 43.61743867816197, "update": "2016-02-06T12:44:41", "status": "OPEN", "bikes": 0, "address": "64 RUE BAILLAUD", "name": "00177 - BAILLAUD BRUNAUD", "lon": 1.46539185105244}, "type": "Feature"}, {"geometry": {"coordinates": [1.483669775054849, 43.57906922965151], "type": "Point"}, "properties": {"stands": 15, "lat": 43.57906922965151, "update": "2016-02-06T12:49:10", "status": "OPEN", "bikes": 2, "address": "FACE 345 AV JEAN RIEUX", "name": "00200 - PLACE DE L'ORMEAU", "lon": 1.483669775054849}, "type": "Feature"}, {"geometry": {"coordinates": [1.444269620551324, 43.60735205357881], "type": "Point"}, "properties": {"stands": 10, "lat": 43.60735205357881, "update": "2016-02-06T12:49:01", "status": "OPEN", "bikes": 6, "address": "26 RUE DE PERIGORD", "name": "00014 - PERIGORD", "lon": 1.444269620551324}, "type": "Feature"}, {"geometry": {"coordinates": [1.4795004816774, 43.610549420565], "type": "Point"}, "properties": {"stands": 11, "lat": 43.610549420565, "update": "2016-02-06T12:45:35", "status": "OPEN", "bikes": 6, "address": "27 Avenue Louis PLANA", "name": "00181 - PLANA GARNIER", "lon": 1.4795004816774}, "type": "Feature"}, {"geometry": {"coordinates": [1.4429, 43.59253], "type": "Point"}, "properties": {"stands": 10, "lat": 43.59253, "update": "2016-02-06T12:49:44", "status": "OPEN", "bikes": 8, "address": "11 ALL PAUL FEUGA", "name": "00069 - FEUGA", "lon": 1.4429}, "type": "Feature"}, {"geometry": {"coordinates": [1.448634234326797, 43.582831686768735], "type": "Point"}, "properties": {"stands": 2, "lat": 43.582831686768735, "update": "2016-02-06T12:41:12", "status": "OPEN", "bikes": 17, "address": "16 AV DE L'U.R.S.S", "name": "00157 - U.R.S.S  PEYROUSET", "lon": 1.448634234326797}, "type": "Feature"}, {"geometry": {"coordinates": [1.425325828280708, 43.581352282638655], "type": "Point"}, "properties": {"stands": 3, "lat": 43.581352282638655, "update": "2016-02-06T12:41:10", "status": "OPEN", "bikes": 17, "address": "44 AVENUE DE MURET", "name": "00189 - MURET BOUTINON", "lon": 1.425325828280708}, "type": "Feature"}], "type": "FeatureCollection"}
=======
{"type": "FeatureCollection", "features": [{"type": "Feature", "properties": {"lon": 1.441003598726198, "stands": 11, "update": "2016-02-05T16:20:09", "bikes": 4, "lat": 43.608951960496405, "status": "OPEN", "address": "2 RUE GATIEN ARNOULT", "name": "00055 - ST SERNIN G. ARNOULT"}, "geometry": {"type": "Point", "coordinates": [1.441003598726198, 43.608951960496405]}}, {"type": "Feature", "properties": {"lon": 1.45907112459247, "stands": 18, "update": "2016-02-05T16:24:10", "bikes": 0, "lat": 43.59723540303583, "status": "OPEN", "address": "FACE 15 RUE PIERRE LAROUSSE", "name": "00195 - LARROUSSE -RIEUX"}, "geometry": {"type": "Point", "coordinates": [1.45907112459247, 43.59723540303583]}}, {"type": "Feature", "properties": {"lon": 1.46278065695466, "stands": 10, "update": "2016-02-05T16:20:17", "bikes": 7, "lat": 43.571433064051334, "status": "OPEN", "address": "129 AV DE RANGUEIL", "name": "00229 - IUT RANGUEIL"}, "geometry": {"type": "Point", "coordinates": [1.46278065695466, 43.571433064051334]}}, {"type": "Feature", "properties": {"lon": 1.452605307400692, "stands": 21, "update": "2016-02-05T16:24:13", "bikes": 6, "lat": 43.597074846780274, "status": "OPEN", "address": "2 ALL FORAIN FRANCOIS VERDIER", "name": "00065 - VERDIER - GRAND ROND"}, "geometry": {"type": "Point", "coordinates": [1.452605307400692, 43.597074846780274]}}, {"type": "Feature", "properties": {"lon": 1.45195665819857, "stands": 15, "update": "2016-02-05T16:21:04", "bikes": 5, "lat": 43.60221990815785, "status": "OPEN", "address": "24 BD LAZARE CARNOT", "name": "00022 - CARNOT ROLAND"}, "geometry": {"type": "Point", "coordinates": [1.45195665819857, 43.60221990815785]}}, {"type": "Feature", "properties": {"lon": 1.403872948950036, "stands": 20, "update": "2016-02-05T16:24:53", "bikes": 0, "lat": 43.59729443895585, "status": "OPEN", "address": "RUE DE L'ABBE JULES LEMIRE", "name": "00236 - TOEC / LEMIRE"}, "geometry": {"type": "Point", "coordinates": [1.403872948950036, 43.59729443895585]}}, {"type": "Feature", "properties": {"lon": 1.442921175845342, "stands": 6, "update": "2016-02-05T16:18:30", "bikes": 21, "lat": 43.615259799224134, "status": "OPEN", "address": "38B BD DES MINIMES", "name": "00111 - MINIMES PASSERELLE"}, "geometry": {"type": "Point", "coordinates": [1.442921175845342, 43.615259799224134]}}, {"type": "Feature", "properties": {"lon": 1.43180804154469, "stands": 9, "update": "2016-02-05T16:20:22", "bikes": 8, "lat": 43.632641237523, "status": "OPEN", "address": "96 av des Etats-Unis angle rue Jules Ferry", "name": "00243 - ETATS-UNIS / FERRY"}, "geometry": {"type": "Point", "coordinates": [1.43180804154469, 43.632641237523]}}, {"type": "Feature", "properties": {"lon": 1.452693250180783, "stands": 4, "update": "2016-02-05T16:16:14", "bikes": 15, "lat": 43.63692179179762, "status": "OPEN", "address": "41 AV MAURICE BOURGES MAUNOURY", "name": "00174 - MAUNOURY / MELA"}, "geometry": {"type": "Point", "coordinates": [1.452693250180783, 43.63692179179762]}}, {"type": "Feature", "properties": {"lon": 1.420275802412521, "stands": 16, "update": "2016-02-05T16:17:33", "bikes": 4, "lat": 43.60094924792523, "status": "OPEN", "address": "47 BD JEAN BRUNHES", "name": "00137 - BRUNHES-FONTAINES"}, "geometry": {"type": "Point", "coordinates": [1.420275802412521, 43.60094924792523]}}, {"type": "Feature", "properties": {"lon": 1.421715694303944, "stands": 4, "update": "2016-02-05T16:17:33", "bikes": 16, "lat": 43.61606217398145, "status": "OPEN", "address": "62 BD DE SUISSE", "name": "00144 - SUISSE - LAUSANE"}, "geometry": {"type": "Point", "coordinates": [1.421715694303944, 43.61606217398145]}}, {"type": "Feature", "properties": {"lon": 1.453588691746783, "stands": 13, "update": "2016-02-05T16:23:59", "bikes": 3, "lat": 43.604660136134775, "status": "OPEN", "address": "41 RUE DE LA COLOMBETTE", "name": "00040 - COLOMBETTE"}, "geometry": {"type": "Point", "coordinates": [1.453588691746783, 43.604660136134775]}}, {"type": "Feature", "properties": {"lon": 1.445569311598848, "stands": 8, "update": "2016-02-05T16:24:07", "bikes": 10, "lat": 43.60333593826575, "status": "OPEN", "address": "62 RUE DE LA POMME", "name": "00003 - POMME"}, "geometry": {"type": "Point", "coordinates": [1.445569311598848, 43.60333593826575]}}, {"type": "Feature", "properties": {"lon": 1.418420510391943, "stands": 1, "update": "2016-02-05T16:24:57", "bikes": 24, "lat": 43.5955673906372, "status": "OPEN", "address": "39 BIS AV DE LOMBEZ", "name": "00139 - BARRIERE DE LOMBEZ"}, "geometry": {"type": "Point", "coordinates": [1.418420510391943, 43.5955673906372]}}, {"type": "Feature", "properties": {"lon": 1.44361404386217, "stands": 11, "update": "2016-02-05T16:22:51", "bikes": 6, "lat": 43.614465544425535, "status": "OPEN", "address": "57 RUE DU PRINTEMPS", "name": "00093 - PRINTEMPS"}, "geometry": {"type": "Point", "coordinates": [1.44361404386217, 43.614465544425535]}}, {"type": "Feature", "properties": {"lon": 1.429556601823956, "stands": 27, "update": "2016-02-05T16:24:33", "bikes": 6, "lat": 43.59989498759688, "status": "OPEN", "address": "ALL CHARLES DE FITTE", "name": "00081 - JARDIN RAYMOND VI"}, "geometry": {"type": "Point", "coordinates": [1.429556601823956, 43.59989498759688]}}, {"type": "Feature", "properties": {"lon": 1.449039275575635, "stands": 8, "update": "2016-02-05T16:24:08", "bikes": 12, "lat": 43.64108958806659, "status": "OPEN", "address": "RUE DES BOUQUETINS ANGLE RUE EDMOND ROSTAND", "name": "00248 - BOUQUETINS/E. ROSTAND"}, "geometry": {"type": "Point", "coordinates": [1.449039275575635, 43.64108958806659]}}, {"type": "Feature", "properties": {"lon": 1.437631489341106, "stands": 12, "update": "2016-02-05T16:22:14", "bikes": 13, "lat": 43.60863633636605, "status": "OPEN", "address": "PL SAINT JULIEN", "name": "00053 - PLACE SAINT JULIEN"}, "geometry": {"type": "Point", "coordinates": [1.437631489341106, 43.60863633636605]}}, {"type": "Feature", "properties": {"lon": 1.432335729928681, "stands": 10, "update": "2016-02-05T16:18:44", "bikes": 14, "lat": 43.609500004240715, "status": "OPEN", "address": "47 BD LASCROSSES", "name": "00087 - LASCROSSES LECLERC"}, "geometry": {"type": "Point", "coordinates": [1.432335729928681, 43.609500004240715]}}, {"type": "Feature", "properties": {"lon": 1.438340345212284, "stands": 11, "update": "2016-02-05T16:21:03", "bikes": 6, "lat": 43.612327522628846, "status": "OPEN", "address": "33 AV HONRE SERRES", "name": "00121 - SERRES - A. BERNARD"}, "geometry": {"type": "Point", "coordinates": [1.438340345212284, 43.612327522628846]}}, {"type": "Feature", "properties": {"lon": 1.469393836823441, "stands": 11, "update": "2016-02-05T16:23:30", "bikes": 9, "lat": 43.577166917623245, "status": "OPEN", "address": "FACE AU 127 AVENUE DE LESPINET", "name": "00239 - LESPINET / HERBETTES"}, "geometry": {"type": "Point", "coordinates": [1.469393836823441, 43.577166917623245]}}, {"type": "Feature", "properties": {"lon": 1.445420780739279, "stands": 2, "update": "2016-02-05T16:17:32", "bikes": 17, "lat": 43.604134687021045, "status": "OPEN", "address": "12 RUE DU POIDS DE L'HUILE", "name": "00001 - POIDS DE L'HUILE"}, "geometry": {"type": "Point", "coordinates": [1.445420780739279, 43.604134687021045]}}, {"type": "Feature", "properties": {"lon": 1.446593812218414, "stands": 7, "update": "2016-02-05T16:24:47", "bikes": 18, "lat": 43.605852162177925, "status": "OPEN", "address": "6 RUE DU REMPART VILLENEUVE", "name": "00007 - PLACE VICTOR HUGO"}, "geometry": {"type": "Point", "coordinates": [1.446593812218414, 43.605852162177925]}}, {"type": "Feature", "properties": {"lon": 1.43298, "stands": 5, "update": "2016-02-05T16:20:48", "bikes": 15, "lat": 43.64751, "status": "OPEN", "address": "Place Riche / Lalande - 31000 TOULOUSE", "name": "00259 - PLACE RICHE"}, "geometry": {"type": "Point", "coordinates": [1.43298, 43.64751]}}, {"type": "Feature", "properties": {"lon": 1.451330504561275, "stands": 0, "update": "2016-02-05T16:22:19", "bikes": 15, "lat": 43.628236592839514, "status": "OPEN", "address": "RUE LOIN 100M AVT RAYNAL", "name": "00234 - LOIN / RAYNAL"}, "geometry": {"type": "Point", "coordinates": [1.451330504561275, 43.628236592839514]}}, {"type": "Feature", "properties": {"lon": 1.409162125552512, "stands": 15, "update": "2016-02-05T16:17:02", "bikes": 4, "lat": 43.587659413053814, "status": "OPEN", "address": "355 route de saint-Simon", "name": "00192 - RTE DE ST SIMON/PRADO"}, "geometry": {"type": "Point", "coordinates": [1.409162125552512, 43.587659413053814]}}, {"type": "Feature", "properties": {"lon": 1.444132711268797, "stands": 22, "update": "2016-02-05T16:20:13", "bikes": 0, "lat": 43.59474911973265, "status": "OPEN", "address": "18 PL DU SALIN", "name": "00048 - PLACE DU SALIN"}, "geometry": {"type": "Point", "coordinates": [1.444132711268797, 43.59474911973265]}}, {"type": "Feature", "properties": {"lon": 1.45256734914219, "stands": 20, "update": "2016-02-05T16:17:29", "bikes": 10, "lat": 43.6394555737186, "status": "OPEN", "address": "Avenue Maurice BOURGES MAUNOURY", "name": "00175 - METRO MAUNOURY"}, "geometry": {"type": "Point", "coordinates": [1.45256734914219, 43.6394555737186]}}, {"type": "Feature", "properties": {"lon": 1.462031097914686, "stands": 15, "update": "2016-02-05T16:19:05", "bikes": 5, "lat": 43.574366149048714, "status": "OPEN", "address": "23 RUE GUYOU", "name": "00166 - RANGUEIL GUYOU"}, "geometry": {"type": "Point", "coordinates": [1.462031097914686, 43.574366149048714]}}, {"type": "Feature", "properties": {"lon": 1.458585739964361, "stands": 5, "update": "2016-02-05T16:22:49", "bikes": 13, "lat": 43.62316326019301, "status": "OPEN", "address": "183 RUE DU FB  BONNEFOY", "name": "00135 - BONNEFOY   LEMAITRE"}, "geometry": {"type": "Point", "coordinates": [1.458585739964361, 43.62316326019301]}}, {"type": "Feature", "properties": {"lon": 1.453805825078145, "stands": 10, "update": "2016-02-05T16:23:46", "bikes": 7, "lat": 43.590622011025665, "status": "OPEN", "address": "8 ALL DES DEMOISELLES", "name": "00115 - DEMOISELLES MISTRAL"}, "geometry": {"type": "Point", "coordinates": [1.453805825078145, 43.590622011025665]}}, {"type": "Feature", "properties": {"lon": 1.44938, "stands": 7, "update": "2016-02-05T16:21:42", "bikes": 13, "lat": 43.59468, "status": "OPEN", "address": "35 ALL JULES GUESDE", "name": "00067 - MUSEUM"}, "geometry": {"type": "Point", "coordinates": [1.44938, 43.59468]}}, {"type": "Feature", "properties": {"lon": 1.427517107421507, "stands": 1, "update": "2016-02-05T16:25:10", "bikes": 17, "lat": 43.584282965328995, "status": "OPEN", "address": "121 AVENUE DE MURET", "name": "00188 - MURET/LAFAGE"}, "geometry": {"type": "Point", "coordinates": [1.427517107421507, 43.584282965328995]}},