{"features": [{"geometry": {"coordinates": [1.441003598726198, 43.608951960496405], "type": "Point"}, "properties": {"name": "00055 - ST SERNIN G. ARNOULT", "lon": 1.441003598726198, "status": "OPEN", "stands": 13, "bikes": 2, "update": "2016-02-06T13:06:42", "lat": 43.608951960496405, "address": "2 RUE GATIEN ARNOULT"}, "type": "Feature"}, {"geometry": {"coordinates": [1.45907112459247, 43.59723540303583], "type": "Point"}, "properties": {"name": "00195 - LARROUSSE -RIEUX", "lon": 1.45907112459247, "status": "OPEN", "stands": 9, "bikes": 8, "update": "2016-02-06T13:15:02", "lat": 43.59723540303583, "address": "FACE 15 RUE PIERRE LAROUSSE"}, "type": "Feature"}, {"geometry": {"coordinates": [1.46278065695466, 43.571433064051334], "type": "Point"}, "properties": {"name": "00229 - IUT RANGUEIL", "lon": 1.46278065695466, "status": "OPEN", "stands": 12, "bikes": 5, "update": "2016-02-06T13:10:31", "lat": 43.571433064051334, "address": "129 AV DE RANGUEIL"}, "type": "Feature"}, {"geometry": {"coordinates": [1.452605307400692, 43.597074846780274], "type": "Point"}, "properties": {"name": "00065 - VERDIER - GRAND ROND", "lon": 1.452605307400692, "status": "OPEN", "stands": 13, "bikes": 14, "update": "2016-02-06T13:10:45", "lat": 43.597074846780274, "address": "2 ALL FORAIN FRANCOIS VERDIER"}, "type": "Feature"}, {"geometry": {"coordinates": [1.45195665819857, 43.60221990815785], "type": "Point"}, "properties": {"name": "00022 - CARNOT ROLAND", "lon": 1.45195665819857, "status": "OPEN", "stands": 17, "bikes": 3, "update": "2016-02-06T13:14:12", "lat": 43.60221990815785, "address": "24 BD LAZARE CARNOT"}, "type": "Feature"}, {"geometry": {"coordinates": [1.403872948950036, 43.59729443895585], "type": "Point"}, "properties": {"name": "00236 - TOEC / LEMIRE", "lon": 1.403872948950036, "status": "OPEN", "stands": 15, "bikes": 5, "update": "2016-02-06T13:14:28", "lat": 43.59729443895585, "address": "RUE DE L'ABBE JULES LEMIRE"}, "type": "Feature"}, {"geometry": {"coordinates": [1.442921175845342, 43.615259799224134], "type": "Point"}, "properties": {"name": "00111 - MINIMES PASSERELLE", "lon": 1.442921175845342, "status": "OPEN", "stands": 6, "bikes": 21, "update": "2016-02-06T13:10:38", "lat": 43.615259799224134, "address": "38B BD DES MINIMES"}, "type": "Feature"}, {"geometry": {"coordinates": [1.43180804154469, 43.632641237523], "type": "Point"}, "properties": {"name": "00243 - ETATS-UNIS / FERRY", "lon": 1.43180804154469, "status": "OPEN", "stands": 4, "bikes": 13, "update": "2016-02-06T13:08:41", "lat": 43.632641237523, "address": "96 av des Etats-Unis angle rue Jules Ferry"}, "type": "Feature"}, {"geometry": {"coordinates": [1.452693250180783, 43.63692179179762], "type": "Point"}, "properties": {"name": "00174 - MAUNOURY / MELA", "lon": 1.452693250180783, "status": "OPEN", "stands": 4, "bikes": 14, "update": "2016-02-06T13:10:37", "lat": 43.63692179179762, "address": "41 AV MAURICE BOURGES MAUNOURY"}, "type": "Feature"}, {"geometry": {"coordinates": [1.420275802412521, 43.60094924792523], "type": "Point"}, "properties": {"name": "00137 - BRUNHES-FONTAINES", "lon": 1.420275802412521, "status": "OPEN", "stands": 4, "bikes": 16, "update": "2016-02-06T13:11:30", "lat": 43.60094924792523, "address": "47 BD JEAN BRUNHES"}, "type": "Feature"}, {"geometry": {"coordinates": [1.421715694303944, 43.61606217398145], "type": "Point"}, "properties": {"name": "00144 - SUISSE - LAUSANE", "lon": 1.421715694303944, "status": "OPEN", "stands": 13, "bikes": 7, "update": "2016-02-06T13:11:46", "lat": 43.61606217398145, "address": "62 BD DE SUISSE"}, "type": "Feature"}, {"geometry": {"coordinates": [1.453588691746783, 43.604660136134775], "type": "Point"}, "properties": {"name": "00040 - COLOMBETTE", "lon": 1.453588691746783, "status": "OPEN", "stands": 15, "bikes": 1, "update": "2016-02-06T13:13:45", "lat": 43.604660136134775, "address": "41 RUE DE LA COLOMBETTE"}, "type": "Feature"}, {"geometry": {"coordinates": [1.445569311598848, 43.60333593826575], "type": "Point"}, "properties": {"name": "00003 - POMME", "lon": 1.445569311598848, "status": "OPEN", "stands": 6, "bikes": 10, "update": "2016-02-06T13:16:00", "lat": 43.60333593826575, "address": "62 RUE DE LA POMME"}, "type": "Feature"}, {"geometry": {"coordinates": [1.418420510391943, 43.5955673906372], "type": "Point"}, "properties": {"name": "00139 - BARRIERE DE LOMBEZ", "lon": 1.418420510391943, "status": "OPEN", "stands": 10, "bikes": 15, "update": "2016-02-06T13:14:53", "lat": 43.5955673906372, "address": "39 BIS AV DE LOMBEZ"}, "type": "Feature"}, {"geometry": {"coordinates": [1.44361404386217, 43.614465544425535], "type": "Point"}, "properties": {"name": "00093 - PRINTEMPS", "lon": 1.44361404386217, "status": "OPEN", "stands": 14, "bikes": 3, "update": "2016-02-06T13:06:41", "lat": 43.614465544425535, "address": "57 RUE DU PRINTEMPS"}, "type": "Feature"}, {"geometry": {"coordinates": [1.429556601823956, 43.59989498759688], "type": "Point"}, "properties": {"name": "00081 - JARDIN RAYMOND VI", "lon": 1.429556601823956, "status": "OPEN", "stands": 14, "bikes": 19, "update": "2016-02-06T13:14:58", "lat": 43.59989498759688, "address": "ALL CHARLES DE FITTE"}, "type": "Feature"}, {"geometry": {"coordinates": [1.449039275575635, 43.64108958806659], "type": "Point"}, "properties": {"name": "00248 - BOUQUETINS/E. ROSTAND", "lon": 1.449039275575635, "status": "OPEN", "stands": 6, "bikes": 14, "update": "2016-02-06T13:11:43", "lat": 43.64108958806659, "address": "RUE DES BOUQUETINS ANGLE RUE EDMOND ROSTAND"}, "type": "Feature"}, {"geometry": {"coordinates": [1.437631489341106, 43.60863633636605], "type": "Point"}, "properties": {"name": "00053 - PLACE SAINT JULIEN", "lon": 1.437631489341106, "status": "OPEN", "stands": 25, "bikes": 0, "update": "2016-02-06T13:10:12", "lat": 43.60863633636605, "address": "PL SAINT JULIEN"}, "type": "Feature"}, {"geometry": {"coordinates": [1.432335729928681, 43.609500004240715], "type": "Point"}, "properties": {"name": "00087 - LASCROSSES LECLERC", "lon": 1.432335729928681, "status": "OPEN", "stands": 9, "bikes": 15, "update": "2016-02-06T13:06:31", "lat": 43.609500004240715, "address": "47 BD LASCROSSES"}, "type": "Feature"}, {"geometry": {"coordinates": [1.438340345212284, 43.612327522628846], "type": "Point"}, "properties": {"name": "00121 - SERRES - A. BERNARD", "lon": 1.438340345212284, "status": "OPEN", "stands": 14, "bikes": 2, "update": "2016-02-06T13:13:44", "lat": 43.612327522628846, "address": "33 AV HONRE SERRES"}, "type": "Feature"}, {"geometry": {"coordinates": [1.469393836823441, 43.577166917623245], "type": "Point"}, "properties": {"name": "00239 - LESPINET / HERBETTES", "lon": 1.469393836823441, "status": "OPEN", "stands": 8, "bikes": 12, "update": "2016-02-06T13:14:44", "lat": 43.577166917623245, "address": "FACE AU 127 AVENUE DE LESPINET"}, "type": "Feature"}, {"geometry": {"coordinates": [1.445420780739279, 43.604134687021045], "type": "Point"}, "properties": {"name": "00001 - POIDS DE L'HUILE", "lon": 1.445420780739279, "status": "OPEN", "stands": 0, "bikes": 19, "update": "2016-02-06T13:12:02", "lat": 43.604134687021045, "address": "12 RUE DU POIDS DE L'HUILE"}, "type": "Feature"}, {"geometry": {"coordinates": [1.446593812218414, 43.605852162177925], "type": "Point"}, "properties": {"name": "00007 - PLACE VICTOR HUGO", "lon": 1.446593812218414, "status": "OPEN", "stands": 7, "bikes": 17, "update": "2016-02-06T13:15:39", "lat": 43.605852162177925, "address": "6 RUE DU REMPART VILLENEUVE"}, "type": "Feature"}, {"geometry": {"coordinates": [1.43298, 43.64751], "type": "Point"}, "properties": {"name": "00259 - PLACE RICHE", "lon": 1.43298, "status": "OPEN", "stands": 3, "bikes": 17, "update": "2016-02-06T13:15:08", "lat": 43.64751, "address": "Place Riche / Lalande - 31000 TOULOUSE"}, "type": "Feature"}, {"geometry": {"coordinates": [1.451330504561275, 43.628236592839514], "type": "Point"}, "properties": {"name": "00234 - LOIN / RAYNAL", "lon": 1.451330504561275, "status": "OPEN", "stands": 4, "bikes": 11, "update": "2016-02-06T13:16:04", "lat": 43.628236592839514, "address": "RUE LOIN 100M AVT RAYNAL"}, "type": "Feature"}, {"geometry": {"coordinates": [1.409162125552512, 43.587659413053814], "type": "Point"}, "properties": {"name": "00192 - RTE DE ST SIMON/PRADO", "lon": 1.409162125552512, "status": "OPEN", "stands": 17, "bikes": 2, "update": "2016-02-06T13:10:57", "lat": 43.587659413053814, "address": "355 route de saint-Simon"}, "type": "Feature"}, {"geometry": {"coordinates": [1.444132711268797, 43.59474911973265], "type": "Point"}, "properties": {"name": "00048 - PLACE DU SALIN", "lon": 1.444132711268797, "status": "OPEN", "stands": 14, "bikes": 8, "update": "2016-02-06T13:12:12", "lat": 43.59474911973265, "address": "18 PL DU SALIN"}, "type": "Feature"}, {"geometry": {"coordinates": [1.45256734914219, 43.6394555737186], "type": "Point"}, "properties": {"name": "00175 - METRO MAUNOURY", "lon": 1.45256734914219, "status": "OPEN", "stands": 28, "bikes": 2, "update": "2016-02-06T13:07:20", "lat": 43.6394555737186, "address": "Avenue Maurice BOURGES MAUNOURY"}, "type": "Feature"}, {"geometry": {"coordinates": [1.462031097914686, 43.574366149048714], "type": "Point"}, "properties": {"name": "00166 - RANGUEIL GUYOU", "lon": 1.462031097914686, "status": "OPEN", "stands": 9, "bikes": 11, "update": "2016-02-06T13:08:41", "lat": 43.574366149048714, "address": "23 RUE GUYOU"}, "type": "Feature"}, {"geometry": {"coordinates": [1.458585739964361, 43.62316326019301], "type": "Point"}, "properties": {"name": "00135 - BONNEFOY   LEMAITRE", "lon": 1.458585739964361, "status": "OPEN", "stands": 4, "bikes": 14, "update": "2016-02-06T13:11:52", "lat": 43.62316326019301, "address": "183 RUE DU FB  BONNEFOY"}, "type": "Feature"}, {"geometry": {"coordinates": [1.453805825078145, 43.590622011025665], "type": "Point"}, "properties": {"name": "00115 - DEMOISELLES MISTRAL", "lon": 1.453805825078145, "status": "OPEN", "stands": 14, "bikes": 2, "update": "2016-02-06T13:14:17", "lat": 43.590622011025665, "address": "8 ALL DES DEMOISELLES"}, "type": "Feature"}, {"geometry": {"coordinates": [1.44938, 43.59468], "type": "Point"}, "properties": {"name": "00067 - MUSEUM", "lon": 1.44938, "status": "OPEN", "stands": 10, "bikes": 10, "update": "2016-02-06T13:16:17", "lat": 43.59468, "address": "35 ALL JULES GUESDE"}, "type": "Feature"}, {"geometry": {"coordinates": [1.427517107421507, 43.584282965328995], "type": "Point"}, "properties": {"name": "00188 - MURET/LAFAGE", "lon": 1.427517107421507, "status": "OPEN", "stands": 11, "bikes": 7, "update": "2016-02-06T13:14:52", "lat": 43.584282965328995, "address": "121 AVENUE DE MURET"}, "type": "Feature"}, {"geometry": {"coordinates": [1.468753766918999, 43.619281402937425], "type": "Point"}, "properties": {"name": "00178 - BRUNAUD / PLANA", "lon": 1.468753766918999, "status": "OPEN", "stands": 11, "bikes": 9, "update": "2016-02-06T13:15:11", "lat": 43.619281402937425, "address": "AVENUE YVES BRUNAUD"}, "type": "Feature"}, {"geometry": {"coordinates": [1.454436078796189, 43.60265364232074], "type": "Point"}, "properties": {"name": "00041 - ST AUBIN CAMICHEL", "lon": 1.454436078796189, "status": "OPEN", "stands": 20, "bikes": 1, "update": "2016-02-06T13:10:57", "lat": 43.60265364232074, "address": "1 RUE CHARLES CAMICHEL"}, "type": "Feature"}, {"geometry": {"coordinates": [1.437871385550754, 43.61146971436288], "type": "Point"}, "properties": {"name": "00090 - LASCROSSES- A. BERNARD", "lon": 1.437871385550754, "status": "OPEN", "stands": 21, "bikes": 4, "update": "2016-02-06T13:14:48", "lat": 43.61146971436288, "address": "3B BD LASCROSSES"}, "type": "Feature"}, {"geometry": {"coordinates": [1.434707777421923, 43.615173611788045], "type": "Point"}, "properties": {"name": "00109 - METRO CANAL DU MIDI", "lon": 1.434707777421923, "status": "OPEN", "stands": 11, "bikes": 14, "update": "2016-02-06T13:11:32", "lat": 43.615173611788045, "address": "1 BD DE LA MARQUETTE"}, "type": "Feature"}, {"geometry": {"coordinates": [1.464093716152017, 43.60038605818475], "type": "Point"}, "properties": {"name": "00197 - CASERNE PERIGNON", "lon": 1.464093716152017, "status": "OPEN", "stands": 13, "bikes": 7, "update": "2016-02-06T13:06:35", "lat": 43.60038605818475, "address": "6 AV LOUIS BLERIOT"}, "type": "Feature"}, {"geometry": {"coordinates": [1.452057713684133, 43.60128593726337], "type": "Point"}, "properties": {"name": "00023 - COMBATTANTS", "lon": 1.452057713684133, "status": "OPEN", "stands": 13, "bikes": 13, "update": "2016-02-06T13:14:17", "lat": 43.60128593726337, "address": "6 BD LAZARE CARNOT"}, "type": "Feature"}, {"geometry": {"coordinates": [1.39262, 43.5792], "type": "Point"}, "properties": {"name": "00273 - PASSERIEU - ST SIMON", "lon": 1.39262, "status": "OPEN", "stands": 13, "bikes": 5, "update": "2016-02-06T13:15:13", "lat": 43.5792, "address": "ROND POINT DES IZARD ANGLEPASSERIEU ET ROUTE ST SIMON"}, "type": "Feature"}, {"geometry": {"coordinates": [1.437032051956223, 43.605071904633625], "type": "Point"}, "properties": {"name": "00029 - VALADE", "lon": 1.437032051956223, "status": "OPEN", "stands": 12, "bikes": 7, "update": "2016-02-06T13:15:21", "lat": 43.605071904633625, "address": "31 RUE VALADE"}, "type": "Feature"}, {"geometry": {"coordinates": [1.44871, 43.57383], "type": "Point"}, "properties": {"name": "280 - CHARBONNIERE", "lon": 1.44871, "status": "OPEN", "stands": 7, "bikes": 11, "update": "2016-02-06T13:15:41", "lat": 43.57383, "address": "RUE DE LA CHARBONNIERE ANGLE RUE DES PALMIERS 31000 TOULOUSE"}, "type": "Feature"}, {"geometry": {"coordinates": [1.441783289134449, 43.579737115748195], "type": "Point"}, "properties": {"name": "00156 - METRO EMPALOT", "lon": 1.441783289134449, "status": "OPEN", "stands": 14, "bikes": 4, "update": "2016-02-06T13:08:18", "lat": 43.579737115748195, "address": "38 AV JEAN MOULIN FACE DEBOUCHE RUE DE CANNES"}, "type": "Feature"}, {"geometry": {"coordinates": [1.437493796200118, 43.633866178151905], "type": "Point"}, "properties": {"name": "00242 -  RAIMBAUD / COLETTE", "lon": 1.437493796200118, "status": "OPEN", "stands": 4, "bikes": 12, "update": "2016-02-06T13:13:54", "lat": 43.633866178151905, "address": "RUE RAIMBAUD ANGLE RUE COLETTE"}, "type": "Feature"}, {"geometry": {"coordinates": [1.474881961695726, 43.566595761363736], "type": "Point"}, "properties": {"name": "00224 - CAMPUS SUPAERO", "lon": 1.474881961695726, "status": "OPEN", "stands": 20, "bikes": 0, "update": "2016-02-06T13:07:04", "lat": 43.566595761363736, "address": "AVENUE EDOUARD BELIN FACE CH\u00c2TEAU DU CREPS"}, "type": "Feature"}, {"geometry": {"coordinates": [1.4420311550308, 43.58995890864312], "type": "Point"}, "properties": {"name": "00154 - GALLOIS", "lon": 1.4420311550308, "status": "OPEN", "stands": 4, "bikes": 16, "update": "2016-02-06T13:14:47", "lat": 43.58995890864312, "address": "RUE DES GALLOIS"}, "type": "Feature"}, {"geometry": {"coordinates": [1.455204795385279, 43.60974282737991], "type": "Point"}, "properties": {"name": "00096 - MEDIATHEQUE", "lon": 1.455204795385279, "status": "OPEN", "stands": 24, "bikes": 1, "update": "2016-02-06T13:16:10", "lat": 43.60974282737991, "address": "50 RUE DU GENERAL COMPANS"}, "type": "Feature"}, {"geometry": {"coordinates": [1.438302180907754, 43.624183134252704], "type": "Point"}, "properties": {"name": "00152 - MAZADES", "lon": 1.438302180907754, "status": "OPEN", "stands": 19, "bikes": 1, "update": "2016-02-06T13:15:34", "lat": 43.624183134252704, "address": "10 AV DES MAZADES"}, "type": "Feature"}, {"geometry": {"coordinates": [1.37975, 43.58132], "type": "Point"}, "properties": {"name": "00276 - MARIN REBOUL", "lon": 1.37975, "status": "OPEN", "stands": 6, "bikes": 12, "update": "2016-02-06T13:15:56", "lat": 43.58132, "address": "chemin du Marin angle chemin du Reboul"}, "type": "Feature"}, {"geometry": {"coordinates": [1.431605284631358, 43.597835830061406], "type": "Point"}, "properties": {"name": "00077 - PLACE INT SAINT CYPRIEN", "lon": 1.431605284631358, "status": "OPEN", "stands": 3, "bikes": 10, "update": "2016-02-06T13:15:00", "lat": 43.597835830061406, "address": "2 PL INTERIEURE ST CYPRIEN"}, "type": "Feature"}, {"geometry": {"coordinates": [1.445580732388259, 43.599435045967155], "type": "Point"}, "properties": {"name": "00025 - PLACE ROUAIX", "lon": 1.445580732388259, "status": "OPEN", "stands": 17, "bikes": 0, "update": "2016-02-06T13:15:52", "lat": 43.599435045967155, "address": "1 RUE DES TOURNEURS"}, "type": "Feature"}, {"geometry": {"coordinates": [1.436175197009508, 43.596660562935625], "type": "Point"}, "properties": {"name": "00074 - LAGANNE TEINTURIERS", "lon": 1.436175197009508, "status": "OPEN", "stands": 11, "bikes": 7, "update": "2016-02-06T13:07:04", "lat": 43.596660562935625, "address": "37 RUE LAGANNE"}, "type": "Feature"}, {"geometry": {"coordinates": [1.434894328349442, 43.59318934283672], "type": "Point"}, "properties": {"name": "00071 - COURS DILLON", "lon": 1.434894328349442, "status": "OPEN", "stands": 3, "bikes": 19, "update": "2016-02-06T13:16:18", "lat": 43.59318934283672, "address": "3 RUE LAGANNE"}, "type": "Feature"}, {"geometry": {"coordinates": [1.428862699237109, 43.59764204883991], "type": "Point"}, "properties": {"name": "00105 - BILLIERE -CHAMPETRE", "lon": 1.428862699237109, "status": "OPEN", "stands": 4, "bikes": 15, "update": "2016-02-06T13:15:51", "lat": 43.59764204883991, "address": "12  AV  ETIENNE  BILLIERES"}, "type": "Feature"}, {"geometry": {"coordinates": [1.454987798766018, 43.60617263070887], "type": "Point"}, "properties": {"name": "00064 - PERI MERCADIER", "lon": 1.454987798766018, "status": "OPEN", "stands": 20, "bikes": 4, "update": "2016-02-06T13:13:05", "lat": 43.60617263070887, "address": "0030 RUE GABRIEL PERI"}, "type": "Feature"}, {"geometry": {"coordinates": [1.448541598385468, 43.61263652233987], "type": "Point"}, "properties": {"name": "00060 - ROQUELAINE", "lon": 1.448541598385468, "status": "OPEN", "stands": 13, "bikes": 11, "update": "2016-02-06T13:16:19", "lat": 43.61263652233987, "address": "32 PL ROQUELAINE"}, "type": "Feature"}, {"geometry": {"coordinates": [1.449367822982907, 43.609623167283914], "type": "Point"}, "properties": {"name": "00036 - PLACE SCHUMAN", "lon": 1.449367822982907, "status": "OPEN", "stands": 22, "bikes": 2, "update": "2016-02-06T13:13:04", "lat": 43.609623167283914, "address": "5 PL ROBERT SCHUMAN"}, "type": "Feature"}, {"geometry": {"coordinates": [1.462869145576551, 43.56160969546884], "type": "Point"}, "properties": {"name": "00227 - METRO UPS", "lon": 1.462869145576551, "status": "OPEN", "stands": 19, "bikes": 1, "update": "2016-02-06T13:10:44", "lat": 43.56160969546884, "address": "118  RTE DE NARBONNE"}, "type": "Feature"}, {"geometry": {"coordinates": [1.415543960373121, 43.584523123495174], "type": "Point"}, "properties": {"name": "00187 - DESBALS MONTDORE", "lon": 1.415543960373121, "status": "OPEN", "stands": 4, "bikes": 12, "update": "2016-02-06T13:11:49", "lat": 43.584523123495174, "address": "187 RUE HENRI DESBALS"}, "type": "Feature"}, {"geometry": {"coordinates": [1.473268554354084, 43.56947707206279], "type": "Point"}, "properties": {"name": "00225 - BELIN ONERA", "lon": 1.473268554354084, "status": "OPEN", "stands": 18, "bikes": 2, "update": "2016-02-06T13:15:39", "lat": 43.56947707206279, "address": "AVENUE EDOUARD BELIN DEVANT ONERA"}, "type": "Feature"}, {"geometry": {"coordinates": [1.432687682718845, 43.60524239596951], "type": "Point"}, "properties": {"name": "00084 - BRIENNE MANUFACTURE", "lon": 1.432687682718845, "status": "OPEN", "stands": 14, "bikes": 9, "update": "2016-02-06T13:14:53", "lat": 43.60524239596951, "address": "19T ALL DE BRIENNE"}, "type": "Feature"}, {"geometry": {"coordinates": [1.480087483756261, 43.59122002356995], "type": "Point"}, "properties": {"name": "00208 - LIMAYRAC/ DARASSE", "lon": 1.480087483756261, "status": "OPEN", "stands": 9, "bikes": 9, "update": "2016-02-06T13:12:23", "lat": 43.59122002356995, "address": "ALL DE LIMAYRAC"}, "type": "Feature"}, {"geometry": {"coordinates": [1.414597471267562, 43.61174111564092], "type": "Point"}, "properties": {"name": "00131 - BERNIES", "lon": 1.414597471267562, "status": "OPEN", "stands": 9, "bikes": 9, "update": "2016-02-06T13:15:24", "lat": 43.61174111564092, "address": "15 RUE PAUL BERNIES"}, "type": "Feature"}, {"geometry": {"coordinates": [1.429880706043356, 43.593506929037055], "type": "Point"}, "properties": {"name": "00037 - STE LUCIE", "lon": 1.429880706043356, "status": "OPEN", "stands": 9, "bikes": 9, "update": "2016-02-06T13:15:46", "lat": 43.593506929037055, "address": "53 RUE STE LUCIE"}, "type": "Feature"}, {"geometry": {"coordinates": [1.41398, 43.57375], "type": "Point"}, "properties": {"name": "00266 - TOURAINE", "lon": 1.41398, "status": "OPEN", "stands": 16, "bikes": 3, "update": "2016-02-06T13:09:29", "lat": 43.57375, "address": "38 RUE DE LA TOURAINE ANGLE RUE D AUVERGNE 31000 TOULOUSE"}, "type": "Feature"}, {"geometry": {"coordinates": [1.434138106708093, 43.60112880561738], "type": "Point"}, "properties": {"name": "00079 - PLACE LANGE", "lon": 1.434138106708093, "status": "OPEN", "stands": 18, "bikes": 1, "update": "2016-02-06T13:06:16", "lat": 43.60112880561738, "address": "1 PL LANGE"}, "type": "Feature"}, {"geometry": {"coordinates": [1.483021040946601, 43.586074956653995], "type": "Point"}, "properties": {"name": "00210 - TERRASSE/ CENTRE CO.", "lon": 1.483021040946601, "status": "OPEN", "stands": 16, "bikes": 2, "update": "2016-02-06T13:13:19", "lat": 43.586074956653995, "address": "FACE 42 CHE DE LA TERRASSE"}, "type": "Feature"}, {"geometry": {"coordinates": [1.436590757220506, 43.598542607102175], "type": "Point"}, "properties": {"name": "00075 - CHATEAU D EAU", "lon": 1.436590757220506, "status": "OPEN", "stands": 13, "bikes": 8, "update": "2016-02-06T13:15:20", "lat": 43.598542607102175, "address": "12 PL LAGANNE"}, "type": "Feature"}, {"geometry": {"coordinates": [1.406488768851485, 43.57641895477528], "type": "Point"}, "properties": {"name": "00221 - VAUQUELIN", "lon": 1.406488768851485, "status": "OPEN", "stands": 13, "bikes": 7, "update": "2016-02-06T13:07:45", "lat": 43.57641895477528, "address": "FACE 85 RUE VAUQUELIN"}, "type": "Feature"}, {"geometry": {"coordinates": [1.447411881616044, 43.58589564207925], "type": "Point"}, "properties": {"name": "00128 - PRISON ST MICHEL", "lon": 1.447411881616044, "status": "OPEN", "stands": 15, "bikes": 8, "update": "2016-02-06T13:14:12", "lat": 43.58589564207925, "address": "18 B GRANDE RUE ST MICHEL"}, "type": "Feature"}, {"geometry": {"coordinates": [1.450764528471522, 43.58817925392077], "type": "Point"}, "properties": {"name": "00118 - PLACE DU BUSCA", "lon": 1.450764528471522, "status": "OPEN", "stands": 7, "bikes": 10, "update": "2016-02-06T13:08:25", "lat": 43.58817925392077, "address": "2 PLACE DU BUSCA"}, "type": "Feature"}, {"geometry": {"coordinates": [1.44455, 43.59265], "type": "Point"}, "properties": {"name": "00068 - METRO - PALAIS DE JUSTICE", "lon": 1.44455, "status": "OPEN", "stands": 14, "bikes": 2, "update": "2016-02-06T13:12:27", "lat": 43.59265, "address": "1 BIS ALLEE JULES GUESDE"}, "type": "Feature"}, {"geometry": {"coordinates": [1.428966282419491, 43.61990748467363], "type": "Point"}, "properties": {"name": "00147 - CHAUSSAS - DAUDET", "lon": 1.428966282419491, "status": "OPEN", "stands": 7, "bikes": 13, "update": "2016-02-06T13:13:37", "lat": 43.61990748467363, "address": "96 RUE DE CHAUSSAS"}, "type": "Feature"}, {"geometry": {"coordinates": [1.447936286895422, 43.628469420497346], "type": "Point"}, "properties": {"name": "00153 - BOURGES MAUNOURY", "lon": 1.447936286895422, "status": "OPEN", "stands": 7, "bikes": 11, "update": "2016-02-06T13:07:21", "lat": 43.628469420497346, "address": "12 AV BOURGES MAUNOURY"}, "type": "Feature"}, {"geometry": {"coordinates": [1.45632, 43.64265], "type": "Point"}, "properties": {"name": "00262 - ROND POINT CHEMIN DE BORDEROUGE", "lon": 1.45632, "status": "OPEN", "stands": 17, "bikes": 1, "update": "2016-02-06T13:07:55", "lat": 43.64265, "address": "Devant N\u00b026 Chemin de Borderouge"}, "type": "Feature"}, {"geometry": {"coordinates": [1.458852500499583, 43.56641276350635], "type": "Point"}, "properties": {"name": "00233 - NARBONNE /SAHUQUE", "lon": 1.458852500499583, "status": "OPEN", "stands": 9, "bikes": 11, "update": "2016-02-06T13:12:45", "lat": 43.56641276350635, "address": "105 RTE DE NARBONNE"}, "type": "Feature"}, {"geometry": {"coordinates": [1.450245130369442, 43.60411143798555], "type": "Point"}, "properties": {"name": "00021 - CARNOT LABEDA", "lon": 1.450245130369442, "status": "OPEN", "stands": 17, "bikes": 8, "update": "2016-02-06T13:12:25", "lat": 43.60411143798555, "address": "63 BD LAZARE CARNOT"}, "type": "Feature"}, {"geometry": {"coordinates": [1.45336004007864, 43.609044644058145], "type": "Point"}, "properties": {"name": "00062 - JAURES STALINGRAD", "lon": 1.45336004007864, "status": "OPEN", "stands": 21, "bikes": 1, "update": "2016-02-06T13:07:56", "lat": 43.609044644058145, "address": "71 ALL JEAN JAURES"}, "type": "Feature"}, {"geometry": {"coordinates": [1.443751822397876, 43.635706776069696], "type": "Point"}, "properties": {"name": "00244 - RENAN / VITRY", "lon": 1.443751822397876, "status": "OPEN", "stands": 7, "bikes": 11, "update": "2016-02-06T13:09:47", "lat": 43.635706776069696, "address": "93 RUE ERNEST RENAN ANGLE RUE VITRY"}, "type": "Feature"}, {"geometry": {"coordinates": [1.41518438915584, 43.59990824072129], "type": "Point"}, "properties": {"name": "00245 - GRANDE BRETAGNE / BADIOU", "lon": 1.41518438915584, "status": "OPEN", "stands": 18, "bikes": 1, "update": "2016-02-06T13:12:55", "lat": 43.59990824072129, "address": "103 BIS AVENUE DE GRANDE BRETAGNE ANGLE RUE BADIOU"}, "type": "Feature"}, {"geometry": {"coordinates": [1.43379, 43.64495], "type": "Point"}, "properties": {"name": "00260 - DUCLOS - FRONTON", "lon": 1.43379, "status": "OPEN", "stands": 7, "bikes": 11, "update": "2016-02-06T13:16:15", "lat": 43.64495, "address": "Avenue duclos angle Avenue de Fronton"}, "type": "Feature"}, {"geometry": {"coordinates": [1.464456852027628, 43.567716505871594], "type": "Point"}, "properties": {"name": "00228 - METRO PHARMACIE", "lon": 1.464456852027628, "status": "OPEN", "stands": 18, "bikes": 0, "update": "2016-02-06T13:13:33", "lat": 43.567716505871594, "address": "FACE 35 CHEMIN DES MARAICHERS"}, "type": "Feature"}, {"geometry": {"coordinates": [1.43538536091475, 43.6333722270955], "type": "Point"}, "properties": {"name": "00235 - PAUL VERLAINE", "lon": 1.43538536091475, "status": "OPEN", "stands": 7, "bikes": 12, "update": "2016-02-06T13:15:11", "lat": 43.6333722270955, "address": "FACE AU 8 RUE PAUL VERLAINE"}, "type": "Feature"}, {"geometry": {"coordinates": [1.439870900566373, 43.62593095954932], "type": "Point"}, "properties": {"name": "00150 - CURIE CAMPISTRON", "lon": 1.439870900566373, "status": "OPEN", "stands": 4, "bikes": 14, "update": "2016-02-06T13:10:54", "lat": 43.62593095954932, "address": "78 BD PIERRE ET MARIE CURIE"}, "type": "Feature"}, {"geometry": {"coordinates": [1.39711, 43.61948], "type": "Point"}, "properties": {"name": "00271 - ANCELY", "lon": 1.39711, "status": "OPEN", "stands": 15, "bikes": 5, "update": "2016-02-06T13:06:56", "lat": 43.61948, "address": "151 AVENUE DE CASSELARDIT SORTIE VILLE 31000 TOULOUSE"}, "type": "Feature"}, {"geometry": {"coordinates": [1.443570238387108, 43.608568713084686], "type": "Point"}, "properties": {"name": "00033 - BERALDI", "lon": 1.443570238387108, "status": "OPEN", "stands": 4, "bikes": 11, "update": "2016-02-06T13:13:42", "lat": 43.608568713084686, "address": "11 RUE HENRI BERALDI"}, "type": "Feature"}, {"geometry": {"coordinates": [1.461191671613412, 43.642833569777416], "type": "Point"}, "properties": {"name": "00172 - NETWILLER / LAFORGUE", "lon": 1.461191671613412, "status": "OPEN", "stands": 1, "bikes": 18, "update": "2016-02-06T13:12:11", "lat": 43.642833569777416, "address": "RUE HENRI EBELOT"}, "type": "Feature"}, {"geometry": {"coordinates": [1.420545407442975, 43.61035351524297], "type": "Point"}, "properties": {"name": "00120 - PONTS JUMEAUX", "lon": 1.420545407442975, "status": "OPEN", "stands": 5, "bikes": 13, "update": "2016-02-06T13:16:01", "lat": 43.61035351524297, "address": "152 ALL DE BARCELONE"}, "type": "Feature"}, {"geometry": {"coordinates": [1.466442513411802, 43.629671600633195], "type": "Point"}, "properties": {"name": "00217 - AMOUROUX/ ST TROPEZ", "lon": 1.466442513411802, "status": "OPEN", "stands": 6, "bikes": 12, "update": "2016-02-06T13:15:48", "lat": 43.629671600633195, "address": "42 CHE AMOUROUX"}, "type": "Feature"}, {"geometry": {"coordinates": [1.450535969934731, 43.6331828272491], "type": "Point"}, "properties": {"name": "00173 - MAUNOURY / SEGELA", "lon": 1.450535969934731, "status": "OPEN", "stands": 5, "bikes": 13, "update": "2016-02-06T13:10:28", "lat": 43.6331828272491, "address": "25 AV MAURICE BOURGES MAUNOURY"}, "type": "Feature"}, {"geometry": {"coordinates": [1.413431676051568, 43.5813322052426], "type": "Point"}, "properties": {"name": "00143 - DESBALS SAINTONGE", "lon": 1.413431676051568, "status": "OPEN", "stands": 5, "bikes": 15, "update": "2016-02-06T13:16:16", "lat": 43.5813322052426, "address": "145 RUE HENRI DESBALS"}, "type": "Feature"}, {"geometry": {"coordinates": [1.42386687477895, 43.60842211156853], "type": "Point"}, "properties": {"name": "00106 - BRIENNE PASSERELLE", "lon": 1.42386687477895, "status": "OPEN", "stands": 15, "bikes": 6, "update": "2016-02-06T13:07:43", "lat": 43.60842211156853, "address": "99 ALL DE BRIENNE"}, "type": "Feature"}, {"geometry": {"coordinates": [1.43288072066524, 43.61492465117555], "type": "Point"}, "properties": {"name": "00123 - CHAUSSAS EMBOUCHURE", "lon": 1.43288072066524, "status": "OPEN", "stands": 16, "bikes": 7, "update": "2016-02-06T13:13:21", "lat": 43.61492465117555, "address": "1 RUE DE CHAUSSAS"}, "type": "Feature"}, {"geometry": {"coordinates": [1.442101445768934, 43.605203861405954], "type": "Point"}, "properties": {"name": "00006 - LOIS", "lon": 1.442101445768934, "status": "OPEN", "stands": 3, "bikes": 16, "update": "2016-02-06T13:11:25", "lat": 43.605203861405954, "address": "5 RUE DES LOIS"}, "type": "Feature"}, {"geometry": {"coordinates": [1.48346, 43.60086], "type": "Point"}, "properties": {"name": "00257 - CHATEAU DE L'HERS", "lon": 1.48346, "status": "OPEN", "stands": 8, "bikes": 8, "update": "2016-02-06T13:06:46", "lat": 43.60086, "address": "CHEMIN DU CHATEAU DE L'HERS ANGLE CHEMIN FONTANELLES 31000 TOULOUSE"}, "type": "Feature"}, {"geometry": {"coordinates": [1.451476646620887, 43.61243588156053], "type": "Point"}, "properties": {"name": "00097 - RAYMOND IV", "lon": 1.451476646620887, "status": "OPEN", "stands": 0, "bikes": 21, "update": "2016-02-06T13:09:42", "lat": 43.61243588156053, "address": "RUE RAYMOND IV"}, "type": "Feature"}, {"geometry": {"coordinates": [1.415183785619737, 43.58998499389323], "type": "Point"}, "properties": {"name": "00191 - RUE DU 14 JUILLET", "lon": 1.415183785619737, "status": "OPEN", "stands": 8, "bikes": 10, "update": "2016-02-06T13:16:05", "lat": 43.58998499389323, "address": "395 ROUTE DE SAINT SIMON"}, "type": "Feature"}, {"geometry": {"coordinates": [1.449072022617868, 43.60557592007205], "type": "Point"}, "properties": {"name": "00019 - CARNOT PERI", "lon": 1.449072022617868, "status": "OPEN", "stands": 10, "bikes": 14, "update": "2016-02-06T13:13:58", "lat": 43.60557592007205, "address": "62 BD LAZARE CARNOT"}, "type": "Feature"}, {"geometry": {"coordinates": [1.465376125032407, 43.615227374108336], "type": "Point"}, "properties": {"name": "00212 - CHAUMIERE/ CRETES", "lon": 1.465376125032407, "status": "OPEN", "stands": 11, "bikes": 6, "update": "2016-02-06T13:07:55", "lat": 43.615227374108336, "address": "RUE DE LA CHAUMIERE"}, "type": "Feature"}, {"geometry": {"coordinates": [1.473505161008297, 43.61680265241856], "type": "Point"}, "properties": {"name": "00179 - CASSAING PLANA", "lon": 1.473505161008297, "status": "OPEN", "stands": 10, "bikes": 6, "update": "2016-02-06T13:14:23", "lat": 43.61680265241856, "address": "5 CH CASSAING"}, "type": "Feature"}, {"geometry": {"coordinates": [1.463164045792265, 43.58677914294868], "type": "Point"}, "properties": {"name": "00204 - PL. ROGER ARNAUD", "lon": 1.463164045792265, "status": "OPEN", "stands": 18, "bikes": 0, "update": "2016-02-06T13:08:43", "lat": 43.58677914294868, "address": "PL ROGER ARNAUD"}, "type": "Feature"}, {"geometry": {"coordinates": [1.456658754907086, 43.61894094381528], "type": "Point"}, "properties": {"name": "00134 - EGLISE BONNEFOY", "lon": 1.456658754907086, "status": "OPEN", "stands": 11, "bikes": 8, "update": "2016-02-06T13:11:09", "lat": 43.61894094381528, "address": "8 ALLEE DE L EGLISE BONNEFOY"}, "type": "Feature"}, {"geometry": {"coordinates": [1.452936514925397, 43.585266840172814], "type": "Point"}, "properties": {"name": "00112 - PLACE RUSSEL - BRANLY", "lon": 1.452936514925397, "status": "OPEN", "stands": 7, "bikes": 13, "update": "2016-02-06T13:11:25", "lat": 43.585266840172814, "address": "47 ALLEE BRANLY"}, "type": "Feature"}, {"geometry": {"coordinates": [1.424432564672875, 43.574576545136445], "type": "Point"}, "properties": {"name": "00241 - ESPAGNE CHARPENTIER", "lon": 1.424432564672875, "status": "OPEN", "stands": 10, "bikes": 10, "update": "2016-02-06T13:10:04", "lat": 43.574576545136445, "address": "57 Route D'Espagne"}, "type": "Feature"}, {"geometry": {"coordinates": [1.42463077628583, 43.5931301810241], "type": "Point"}, "properties": {"name": "00183 - RUE DE CUGNAUX", "lon": 1.42463077628583, "status": "OPEN", "stands": 4, "bikes": 14, "update": "2016-02-06T13:09:20", "lat": 43.5931301810241, "address": "RUE DE CUGNAUX"}, "type": "Feature"}, {"geometry": {"coordinates": [1.454339701099757, 43.61689063107848], "type": "Point"}, "properties": {"name": "00126 - ECOLE BONNEFOY", "lon": 1.454339701099757, "status": "OPEN", "stands": 6, "bikes": 16, "update": "2016-02-06T13:12:05", "lat": 43.61689063107848, "address": "18 RUE BONNEFOY"}, "type": "Feature"}, {"geometry": {"coordinates": [1.44009, 43.57705], "type": "Point"}, "properties": {"name": "00255 - HENRI SELLIER", "lon": 1.44009, "status": "OPEN", "stands": 10, "bikes": 6, "update": "2016-02-06T13:06:52", "lat": 43.57705, "address": "2 RUE DES MOUETTES ANGLE ALLEES SELLIER 31000 TOULOUSE"}, "type": "Feature"}, {"geometry": {"coordinates": [1.450179100392055, 43.600398667412286], "type": "Point"}, "properties": {"name": "00024 - PLACE SAINT ETIENNE", "lon": 1.450179100392055, "status": "OPEN", "stands": 14, "bikes": 8, "update": "2016-02-06T13:14:23", "lat": 43.600398667412286, "address": "14 PL SAINT ETIENNE"}, "type": "Feature"}, {"geometry": {"coordinates": [1.458048662941769, 43.6017932127447], "type": "Point"}, "properties": {"name": "00196 - GOUJON - GUILHEMERY", "lon": 1.458048662941769, "status": "OPEN", "stands": 16, "bikes": 4, "update": "2016-02-06T13:14:09", "lat": 43.6017932127447, "address": "6 RUE JEAN GOUJON"}, "type": "Feature"}, {"geometry": {"coordinates": [1.44649, 43.57886], "type": "Point"}, "properties": {"name": "281 - NIEL", "lon": 1.44649, "status": "OPEN", "stands": 10, "bikes": 8, "update": "2016-02-06T13:08:36", "lat": 43.57886, "address": "RUE ST ROCH FACE RUE ELVIRE 31000 TOULOUSE"}, "type": "Feature"}, {"geometry": {"coordinates": [1.436875386155235, 43.61814891164924], "type": "Point"}, "properties": {"name": "00124 - EGLISE DES MINIMES", "lon": 1.436875386155235, "status": "OPEN", "stands": 6, "bikes": 12, "update": "2016-02-06T13:14:51", "lat": 43.61814891164924, "address": "27 AV DES MINIMES"}, "type": "Feature"}, {"geometry": {"coordinates": [1.481508972569192, 43.58300698375498], "type": "Point"}, "properties": {"name": "00207 - CHRIST ROI", "lon": 1.481508972569192, "status": "OPEN", "stands": 15, "bikes": 2, "update": "2016-02-06T13:07:49", "lat": 43.58300698375498, "address": "FACE 25 RUE DE L AUDE"}, "type": "Feature"}, {"geometry": {"coordinates": [1.44026, 43.60215], "type": "Point"}, "properties": {"name": "00011 - PLACE DE LA DAURADE", "lon": 1.44026, "status": "OPEN", "stands": 18, "bikes": 5, "update": "2016-02-06T13:16:19", "lat": 43.60215, "address": "2 PL DE LA DAURADE"}, "type": "Feature"}, {"geometry": {"coordinates": [1.41112908179427, 43.5792182218804], "type": "Point"}, "properties": {"name": "00186 - DESBALS BOUALAM", "lon": 1.41112908179427, "status": "OPEN", "stands": 3, "bikes": 15, "update": "2016-02-06T13:13:15", "lat": 43.5792182218804, "address": "1 IMPASSE BACHAGA BOUALAM"}, "type": "Feature"}, {"geometry": {"coordinates": [1.44404, 43.62687], "type": "Point"}, "properties": {"name": "00252 - NEGRENEYS /CASENEUVE", "lon": 1.44404, "status": "OPEN", "stands": 2, "bikes": 15, "update": "2016-02-06T13:10:42", "lat": 43.62687, "address": "161/163 AV DE NEGRENEYS SUR ILOT CENTRAL"}, "type": "Feature"}, {"geometry": {"coordinates": [1.469362217455508, 43.62727712277727], "type": "Point"}, "properties": {"name": "00184 - MICHOUN", "lon": 1.469362217455508, "status": "OPEN", "stands": 2, "bikes": 18, "update": "2016-02-06T13:10:40", "lat": 43.62727712277727, "address": "70 CHEMIN MICHOUN"}, "type": "Feature"}, {"geometry": {"coordinates": [1.454915112024358, 43.57644751100008], "type": "Point"}, "properties": {"name": "00161 - RANGUEIL - BEDOUCE", "lon": 1.454915112024358, "status": "OPEN", "stands": 2, "bikes": 12, "update": "2016-02-06T13:10:02", "lat": 43.57644751100008, "address": "35 AV DE RANGUEIL"}, "type": "Feature"}, {"geometry": {"coordinates": [1.3972, 43.60868], "type": "Point"}, "properties": {"name": "00268 - PLACE BAYLAC", "lon": 1.3972, "status": "OPEN", "stands": 19, "bikes": 3, "update": "2016-02-06T13:10:38", "lat": 43.60868, "address": "avenue des Ar\u00e8nes Romaines, avant place du docteur Baylac 31000 TOULOUSE"}, "type": "Feature"}, {"geometry": {"coordinates": [1.427969819484834, 43.605562378447424], "type": "Point"}, "properties": {"name": "00082 - SEJOURNE CATALANS", "lon": 1.427969819484834, "status": "OPEN", "stands": 18, "bikes": 2, "update": "2016-02-06T13:14:46", "lat": 43.605562378447424, "address": "1 AV PAUL SEJOURNE"}, "type": "Feature"}, {"geometry": {"coordinates": [1.43421, 43.59253], "type": "Point"}, "properties": {"name": "00070 - FER A CHEVAL", "lon": 1.43421, "status": "OPEN", "stands": 8, "bikes": 10, "update": "2016-02-06T13:11:38", "lat": 43.59253, "address": "5 PLACE DU FER A CHEVAL"}, "type": "Feature"}, {"geometry": {"coordinates": [1.418128481713567, 43.587583195522946], "type": "Point"}, "properties": {"name": "00141 - FONTAINE LESTANG", "lon": 1.418128481713567, "status": "OPEN", "stands": 7, "bikes": 10, "update": "2016-02-06T13:13:00", "lat": 43.587583195522946, "address": "237 RUE HENRI DESBALS"}, "type": "Feature"}, {"geometry": {"coordinates": [1.428790629053277, 43.612283701347906], "type": "Point"}, "properties": {"name": "00108 - SEBASTOPOL - RITAY", "lon": 1.428790629053277, "status": "OPEN", "stands": 17, "bikes": 3, "update": "2016-02-06T13:16:13", "lat": 43.612283701347906, "address": "2 BD SEBASTOPOL"}, "type": "Feature"}, {"geometry": {"coordinates": [1.430598716260075, 43.606708008560005], "type": "Point"}, "properties": {"name": "00085 - MARECHAL LECLERC", "lon": 1.430598716260075, "status": "OPEN", "stands": 20, "bikes": 2, "update": "2016-02-06T13:15:16", "lat": 43.606708008560005, "address": "2 BD DU MARECHAL LECLERC"}, "type": "Feature"}, {"geometry": {"coordinates": [1.476002176599847, 43.58166894906154], "type": "Point"}, "properties": {"name": "00202 - ST EX. - COURREGE", "lon": 1.476002176599847, "status": "OPEN", "stands": 12, "bikes": 5, "update": "2016-02-06T13:10:26", "lat": 43.58166894906154, "address": "165 AV ANTOINE DE ST EXUPERY"}, "type": "Feature"}, {"geometry": {"coordinates": [1.453042492588597, 43.593599912488976], "type": "Point"}, "properties": {"name": "00102 -  MISTRAL - FLEURANCE", "lon": 1.453042492588597, "status": "OPEN", "stands": 11, "bikes": 7, "update": "2016-02-06T13:15:56", "lat": 43.593599912488976, "address": "18 ALLEE FREDERIC MISTRAL"}, "type": "Feature"}, {"geometry": {"coordinates": [1.438224999266949, 43.60629527233212], "type": "Point"}, "properties": {"name": "00030 - PLACE ANATOLE FRANCE", "lon": 1.438224999266949, "status": "OPEN", "stands": 21, "bikes": 2, "update": "2016-02-06T13:09:09", "lat": 43.60629527233212, "address": "40 PL ANATOLE FRANCE"}, "type": "Feature"}, {"geometry": {"coordinates": [1.464148138450798, 43.635666512128225], "type": "Point"}, "properties": {"name": "00170 - ROUTE D ALBI   / CUVIER", "lon": 1.464148138450798, "status": "OPEN", "stands": 2, "bikes": 15, "update": "2016-02-06T13:11:37", "lat": 43.635666512128225, "address": "FACE 163 CHEMIN NICOLE"}, "type": "Feature"}, {"geometry": {"coordinates": [1.41954, 43.574], "type": "Point"}, "properties": {"name": "00274 - GALLIENI", "lon": 1.41954, "status": "OPEN", "stands": 8, "bikes": 10, "update": "2016-02-06T13:07:54", "lat": 43.574, "address": "296 route de Seysses"}, "type": "Feature"}, {"geometry": {"coordinates": [1.467514131065815, 43.60075517705335], "type": "Point"}, "properties": {"name": "00213 - PUJOL/ CHAUBET", "lon": 1.467514131065815, "status": "OPEN", "stands": 13, "bikes": 4, "update": "2016-02-06T13:12:21", "lat": 43.60075517705335, "address": "129 AV DE CASTRES"}, "type": "Feature"}, {"geometry": {"coordinates": [1.441434965295236, 43.599589544431005], "type": "Point"}, "properties": {"name": "00049 - COUTELIER - METZ", "lon": 1.441434965295236, "status": "OPEN", "stands": 14, "bikes": 2, "update": "2016-02-06T13:09:06", "lat": 43.599589544431005, "address": "52 RUE DES COUTELIERS"}, "type": "Feature"}, {"geometry": {"coordinates": [1.434650096062823, 43.60864745421513], "type": "Point"}, "properties": {"name": "00052 - DUPORTAL CITE ADMIN.", "lon": 1.434650096062823, "status": "OPEN", "stands": 19, "bikes": 2, "update": "2016-02-06T13:10:25", "lat": 43.60864745421513, "address": "41 BD ARMAND DUPORTAL"}, "type": "Feature"}, {"geometry": {"coordinates": [1.43104, 43.58903], "type": "Point"}, "properties": {"name": "00104 - MURET BARTHERE", "lon": 1.43104, "status": "OPEN", "stands": 13, "bikes": 5, "update": "2016-02-06T13:12:33", "lat": 43.58903, "address": "219 AV DE MURET"}, "type": "Feature"}, {"geometry": {"coordinates": [1.441331077590377, 43.60621318190248], "type": "Point"}, "properties": {"name": "00013 - LOIS ESQUILE", "lon": 1.441331077590377, "status": "OPEN", "stands": 15, "bikes": 0, "update": "2016-02-06T13:15:18", "lat": 43.60621318190248, "address": "1 RUE DE L ESQUILE"}, "type": "Feature"}, {"geometry": {"coordinates": [1.4278, 43.58588], "type": "Point"}, "properties": {"name": "00129 - CROIX DE PIERRE", "lon": 1.4278, "status": "OPEN", "stands": 9, "bikes": 6, "update": "2016-02-06T13:16:11", "lat": 43.58588, "address": "2 BD DEODAT DE SEVERAC"}, "type": "Feature"}, {"geometry": {"coordinates": [1.449135738584587, 43.580795461338795], "type": "Point"}, "properties": {"name": "00158 - URSS ST THOMAS D AQUIN", "lon": 1.449135738584587, "status": "OPEN", "stands": 0, "bikes": 20, "update": "2016-02-06T13:06:34", "lat": 43.580795461338795, "address": "57 AV DE L URSS"}, "type": "Feature"}, {"geometry": {"coordinates": [1.458930207887618, 43.626509813353074], "type": "Point"}, "properties": {"name": "00168 - BILA   /  ROUTE D ALBI", "lon": 1.458930207887618, "status": "OPEN", "stands": 16, "bikes": 4, "update": "2016-02-06T13:13:41", "lat": 43.626509813353074, "address": "RUE CREMON"}, "type": "Feature"}, {"geometry": {"coordinates": [1.46521198710394, 43.63812899582609], "type": "Point"}, "properties": {"name": "00249 - CROIX DAURADE", "lon": 1.46521198710394, "status": "OPEN", "stands": 5, "bikes": 14, "update": "2016-02-06T13:08:30", "lat": 43.63812899582609, "address": "147 RTE D'ALBI"}, "type": "Feature"}, {"geometry": {"coordinates": [1.4565, 43.59642], "type": "Point"}, "properties": {"name": "00015 - PONT MONTAUDRAN", "lon": 1.4565, "status": "OPEN", "stands": 16, "bikes": 4, "update": "2016-02-06T13:15:46", "lat": 43.59642, "address": "face au 20 port st sauveur"}, "type": "Feature"}, {"geometry": {"coordinates": [1.439230135508607, 43.63677495879212], "type": "Point"}, "properties": {"name": "00247 - LAUNAGUET / AUDIBERT", "lon": 1.439230135508607, "status": "OPEN", "stands": 9, "bikes": 8, "update": "2016-02-06T13:08:33", "lat": 43.63677495879212, "address": "ROUTE DE LAUNAGUET ANGLE CHEMIN AUDIBERT"}, "type": "Feature"}, {"geometry": {"coordinates": [1.435181557097925, 43.59849490883457], "type": "Point"}, "properties": {"name": "00076 - REPUBLIQUE PL. OLIVIER", "lon": 1.435181557097925, "status": "OPEN", "stands": 2, "bikes": 20, "update": "2016-02-06T13:11:54", "lat": 43.59849490883457, "address": "34 RUE DE LA REPUBLIQUE"}, "type": "Feature"}, {"geometry": {"coordinates": [1.415377349047291, 43.594849382545554], "type": "Point"}, "properties": {"name": "00193 - LOMBEZ / PETITE VITESSE", "lon": 1.415377349047291, "status": "OPEN", "stands": 6, "bikes": 14, "update": "2016-02-06T13:12:06", "lat": 43.594849382545554, "address": "59 AV DE LOMBEZ"}, "type": "Feature"}, {"geometry": {"coordinates": [1.423916022506519, 43.57827536338912], "type": "Point"}, "properties": {"name": "00190 - ESPAGNE LES OUSTALOUS", "lon": 1.423916022506519, "status": "OPEN", "stands": 1, "bikes": 19, "update": "2016-02-06T13:07:45", "lat": 43.57827536338912, "address": "39 RTE D'Espagne"}, "type": "Feature"}, {"geometry": {"coordinates": [1.43168347755474, 43.6319121122554], "type": "Point"}, "properties": {"name": "00253 - ETATS-UNIS / ROBERT", "lon": 1.43168347755474, "status": "OPEN", "stands": 6, "bikes": 14, "update": "2016-02-06T13:11:41", "lat": 43.6319121122554, "address": "AV DES Etats-Unis FACE AU 68 / 70"}, "type": "Feature"}, {"geometry": {"coordinates": [1.47765639323401, 43.6122515815792], "type": "Point"}, "properties": {"name": "00180 - PLACE SOUPETARD", "lon": 1.47765639323401, "status": "OPEN", "stands": 10, "bikes": 8, "update": "2016-02-06T13:11:16", "lat": 43.6122515815792, "address": "3 Place SOUPETARD"}, "type": "Feature"}, {"geometry": {"coordinates": [1.460094426022393, 43.579725432743686], "type": "Point"}, "properties": {"name": "00164 - BEDOUCE SAOUZELONG", "lon": 1.460094426022393, "status": "OPEN", "stands": 9, "bikes": 11, "update": "2016-02-06T13:14:15", "lat": 43.579725432743686, "address": "AV ALBERT BEDOUCE"}, "type": "Feature"}, {"geometry": {"coordinates": [1.434843235786321, 43.605035688745794], "type": "Point"}, "properties": {"name": "00051 - DUPORTAL BRIENNE", "lon": 1.434843235786321, "status": "OPEN", "stands": 17, "bikes": 1, "update": "2016-02-06T13:08:55", "lat": 43.605035688745794, "address": "1 BD ARMAND DUPORTAL"}, "type": "Feature"}, {"geometry": {"coordinates": [1.4469, 43.60964], "type": "Point"}, "properties": {"name": "00035 - PLACE JEANNE D'ARC", "lon": 1.4469, "status": "OPEN", "stands": 18, "bikes": 7, "update": "2016-02-06T13:14:47", "lat": 43.60964, "address": "1 RUE RAYMOND IV"}, "type": "Feature"}, {"geometry": {"coordinates": [1.45174992410964, 43.59800264157314], "type": "Point"}, "properties": {"name": "00044 - PALAIS NIEL", "lon": 1.45174992410964, "status": "OPEN", "stands": 18, "bikes": 4, "update": "2016-02-06T13:14:06", "lat": 43.59800264157314, "address": "1 ALL FORAIN FRANCOIS VERDIER"}, "type": "Feature"}, {"geometry": {"coordinates": [1.466308391813157, 43.640897350426606], "type": "Point"}, "properties": {"name": "00171 - ROUTE D ALBI / CACTUS", "lon": 1.466308391813157, "status": "OPEN", "stands": 2, "bikes": 16, "update": "2016-02-06T13:11:08", "lat": 43.640897350426606, "address": "191 RTE D'ALBI"}, "type": "Feature"}, {"geometry": {"coordinates": [1.45491780578712, 43.580276538637605], "type": "Point"}, "properties": {"name": "00162 - PLACE D'ITALIE", "lon": 1.45491780578712, "status": "OPEN", "stands": 11, "bikes": 6, "update": "2016-02-06T13:09:11", "lat": 43.580276538637605, "address": "AV D' ITALIE"}, "type": "Feature"}, {"geometry": {"coordinates": [1.43922052825561, 43.60749002329994], "type": "Point"}, "properties": {"name": "00031 - SALENQUES", "lon": 1.43922052825561, "status": "OPEN", "stands": 9, "bikes": 11, "update": "2016-02-06T13:13:56", "lat": 43.60749002329994, "address": "7 RUE DES SALENQUES"}, "type": "Feature"}, {"geometry": {"coordinates": [1.41997369298729, 43.598196214598815], "type": "Point"}, "properties": {"name": "00138 - BARRIERE DE BAYONNE", "lon": 1.41997369298729, "status": "OPEN", "stands": 14, "bikes": 5, "update": "2016-02-06T13:12:23", "lat": 43.598196214598815, "address": "3 BD JEAN BRUNHES"}, "type": "Feature"}, {"geometry": {"coordinates": [1.459836309553229, 43.587677990128874], "type": "Point"}, "properties": {"name": "00098 - PONT DES DEMOISELLES", "lon": 1.459836309553229, "status": "OPEN", "stands": 8, "bikes": 14, "update": "2016-02-06T13:15:26", "lat": 43.587677990128874, "address": "80 ALL DES DEMOISELLES"}, "type": "Feature"}, {"geometry": {"coordinates": [1.446610770547085, 43.60793763027584], "type": "Point"}, "properties": {"name": "00016 - STRASBOURG BAYARD", "lon": 1.446610770547085, "status": "OPEN", "stands": 5, "bikes": 16, "update": "2016-02-06T13:07:56", "lat": 43.60793763027584, "address": "32 BD DE STRASBOURG"}, "type": "Feature"}, {"geometry": {"coordinates": [1.473457600659471, 43.59622771557735], "type": "Point"}, "properties": {"name": "00198 - LAFILAIRE - DELTOUR", "lon": 1.473457600659471, "status": "OPEN", "stands": 20, "bikes": 0, "update": "2016-02-06T13:12:48", "lat": 43.59622771557735, "address": "FACE 25 CHEMIN LAFILAIRE"}, "type": "Feature"}, {"geometry": {"coordinates": [1.442808436675486, 43.609029818757634], "type": "Point"}, "properties": {"name": "00056 - SAINT SERNIN  MERLY", "lon": 1.442808436675486, "status": "OPEN", "stands": 9, "bikes": 6, "update": "2016-02-06T13:07:02", "lat": 43.609029818757634, "address": "1 RUE MERLY"}, "type": "Feature"}, {"geometry": {"coordinates": [1.428493330933498, 43.61541821044434], "type": "Point"}, "properties": {"name": "00146 - SANG DE SERP - DAGNAUX", "lon": 1.428493330933498, "status": "OPEN", "stands": 13, "bikes": 7, "update": "2016-02-06T13:14:20", "lat": 43.61541821044434, "address": "57 CH DU SANG DE SERP"}, "type": "Feature"}, {"geometry": {"coordinates": [1.37764, 43.58996], "type": "Point"}, "properties": {"name": "00269 - PLACE SAUVEGRAIN", "lon": 1.37764, "status": "OPEN", "stands": 1, "bikes": 17, "update": "2016-02-06T13:15:33", "lat": 43.58996, "address": "Place Sauvegrain - angle avenue de Lardenne"}, "type": "Feature"}, {"geometry": {"coordinates": [1.425222752953333, 43.602528105503815], "type": "Point"}, "properties": {"name": "00095 - THEATRE GARONNE", "lon": 1.425222752953333, "status": "OPEN", "stands": 16, "bikes": 6, "update": "2016-02-06T13:11:47", "lat": 43.602528105503815, "address": "4 AVENUE DU CH\u00c2TEAU D'EAU"}, "type": "Feature"}, {"geometry": {"coordinates": [1.441220679302088, 43.61325027179293], "type": "Point"}, "properties": {"name": "00092 - CHALETS", "lon": 1.441220679302088, "status": "OPEN", "stands": 6, "bikes": 8, "update": "2016-02-06T13:14:35", "lat": 43.61325027179293, "address": "31 RUE DES CHALETS"}, "type": "Feature"}, {"geometry": {"coordinates": [1.451651418090918, 43.60754756868432], "type": "Point"}, "properties": {"name": "00038 - JAURES BACHELIER", "lon": 1.451651418090918, "status": "OPEN", "stands": 12, "bikes": 7, "update": "2016-02-06T13:15:55", "lat": 43.60754756868432, "address": "56 ALL JEAN JAURES"}, "type": "Feature"}, {"geometry": {"coordinates": [1.41868, 43.59175], "type": "Point"}, "properties": {"name": "00140 - EMILE MALE", "lon": 1.41868, "status": "OPEN", "stands": 2, "bikes": 27, "update": "2016-02-06T13:07:44", "lat": 43.59175, "address": "PLACE EMILE MALE"}, "type": "Feature"}, {"geometry": {"coordinates": [1.458008846441328, 43.606790468455905], "type": "Point"}, "properties": {"name": "00176 - GENERAL COMPANS", "lon": 1.458008846441328, "status": "OPEN", "stands": 17, "bikes": 1, "update": "2016-02-06T13:06:26", "lat": 43.606790468455905, "address": "1 RUE DU GENERAL COMPANS"}, "type": "Feature"}, {"geometry": {"coordinates": [1.479772209704475, 43.56361464501064], "type": "Point"}, "properties": {"name": "00237 - CNRS", "lon": 1.479772209704475, "status": "OPEN", "stands": 20, "bikes": 0, "update": "2016-02-06T13:06:40", "lat": 43.56361464501064, "address": "AVENUE EDOUARD BELIN FACE CNRS"}, "type": "Feature"}, {"geometry": {"coordinates": [1.464668419108617, 43.594341505924845], "type": "Point"}, "properties": {"name": "00206 - LEYGUE/ RIEUX", "lon": 1.464668419108617, "status": "OPEN", "stands": 11, "bikes": 7, "update": "2016-02-06T13:11:37", "lat": 43.594341505924845, "address": "20 AV ARMAND LEYGUE"}, "type": "Feature"}, {"geometry": {"coordinates": [1.435070094381549, 43.610250914040755], "type": "Point"}, "properties": {"name": "00088 - DUPORTAL LASCROSSES", "lon": 1.435070094381549, "status": "OPEN", "stands": 13, "bikes": 12, "update": "2016-02-06T13:12:13", "lat": 43.610250914040755, "address": "17T BD LASCROSSES"}, "type": "Feature"}, {"geometry": {"coordinates": [1.436628759028233, 43.611036915218165], "type": "Point"}, "properties": {"name": "00089 - ESP COMPANS CAFFARELLI", "lon": 1.436628759028233, "status": "OPEN", "stands": 18, "bikes": 5, "update": "2016-02-06T13:07:47", "lat": 43.611036915218165, "address": "1 ESP COMPANS CAFFARELLI"}, "type": "Feature"}, {"geometry": {"coordinates": [1.455674042776099, 43.59697406705044], "type": "Point"}, "properties": {"name": "00100 - PORT ST SAUVEUR", "lon": 1.455674042776099, "status": "OPEN", "stands": 6, "bikes": 13, "update": "2016-02-06T13:11:09", "lat": 43.59697406705044, "address": "16 ALL PAUL SABATIER"}, "type": "Feature"}, {"geometry": {"coordinates": [1.475849028782433, 43.623814424096544], "type": "Point"}, "properties": {"name": "00215 - METRO ARGOULETS", "lon": 1.475849028782433, "status": "OPEN", "stands": 14, "bikes": 6, "update": "2016-02-06T13:11:56", "lat": 43.623814424096544, "address": "FACE 8 RUE DE GAILLAC"}, "type": "Feature"}, {"geometry": {"coordinates": [1.439762556768512, 43.60842033750804], "type": "Point"}, "properties": {"name": "00054 - CHAINE", "lon": 1.439762556768512, "status": "OPEN", "stands": 12, "bikes": 5, "update": "2016-02-06T13:06:38", "lat": 43.60842033750804, "address": "10 RUE DE LA CHAINE"}, "type": "Feature"}, {"geometry": {"coordinates": [1.448047137954633, 43.60307769477977], "type": "Point"}, "properties": {"name": "00008 - ESPACE SAINT GEORGES", "lon": 1.448047137954633, "status": "OPEN", "stands": 18, "bikes": 6, "update": "2016-02-06T13:12:27", "lat": 43.60307769477977, "address": "19 RUE PAUL VIDAL"}, "type": "Feature"}, {"geometry": {"coordinates": [1.37708, 43.58549], "type": "Point"}, "properties": {"name": "00277 - ZAMENHOF", "lon": 1.37708, "status": "OPEN", "stands": 8, "bikes": 10, "update": "2016-02-06T13:11:11", "lat": 43.58549, "address": "10/12 rue zamenhof - 31000 TOuLOUSE"}, "type": "Feature"}, {"geometry": {"coordinates": [1.473660631896838, 43.600795440313355], "type": "Point"}, "properties": {"name": "00214 - CASTRES/ ACHIARY", "lon": 1.473660631896838, "status": "OPEN", "stands": 10, "bikes": 7, "update": "2016-02-06T13:07:32", "lat": 43.600795440313355, "address": "48 AV DE CASTRES"}, "type": "Feature"}, {"geometry": {"coordinates": [1.458007861390548, 43.59239101222708], "type": "Point"}, "properties": {"name": "00114 - BD MONTPLAISIR - CANAL", "lon": 1.458007861390548, "status": "OPEN", "stands": 8, "bikes": 12, "update": "2016-02-06T13:07:26", "lat": 43.59239101222708, "address": "8 BD MONPLAISIR"}, "type": "Feature"}, {"geometry": {"coordinates": [1.445285876671779, 43.60485265221502], "type": "Point"}, "properties": {"name": "00002 - LAFAYETTE", "lon": 1.445285876671779, "status": "OPEN", "stands": 1, "bikes": 23, "update": "2016-02-06T13:16:00", "lat": 43.60485265221502, "address": "21 RUE LAFAYETTE"}, "type": "Feature"}, {"geometry": {"coordinates": [1.470276283956405, 43.591528310013615], "type": "Point"}, "properties": {"name": "00199 - DELTOUR - RIEUX", "lon": 1.470276283956405, "status": "OPEN", "stands": 21, "bikes": 1, "update": "2016-02-06T13:10:11", "lat": 43.591528310013615, "address": "4 BD DELTOUR"}, "type": "Feature"}, {"geometry": {"coordinates": [1.478340741030179, 43.565104300575406], "type": "Point"}, "properties": {"name": "00223 - ENAC", "lon": 1.478340741030179, "status": "OPEN", "stands": 22, "bikes": 0, "update": "2016-02-06T13:12:17", "lat": 43.565104300575406, "address": "AVENUE EDOUARD BELIN ANGLE AV ROCHE"}, "type": "Feature"}, {"geometry": {"coordinates": [1.44544233356215, 43.6003776908545], "type": "Point"}, "properties": {"name": "00010 - PLACE ESQUIROL", "lon": 1.44544233356215, "status": "OPEN", "stands": 4, "bikes": 29, "update": "2016-02-06T13:15:30", "lat": 43.6003776908545, "address": "15 PL ETIENNE ESQUIROL"}, "type": "Feature"}, {"geometry": {"coordinates": [1.414428635946386, 43.593097534292575], "type": "Point"}, "properties": {"name": "00250 - 11 NOVEMBRE", "lon": 1.414428635946386, "status": "OPEN", "stands": 7, "bikes": 10, "update": "2016-02-06T13:14:07", "lat": 43.593097534292575, "address": "RUE DU 11 NOVEMBRE"}, "type": "Feature"}, {"geometry": {"coordinates": [1.447014394243565, 43.596327873693475], "type": "Point"}, "properties": {"name": "00045 - OZENNE", "lon": 1.447014394243565, "status": "OPEN", "stands": 14, "bikes": 2, "update": "2016-02-06T13:13:55", "lat": 43.596327873693475, "address": "10 RUE THEODORE OZENNE"}, "type": "Feature"}, {"geometry": {"coordinates": [1.428253851896989, 43.6055917312578], "type": "Point"}, "properties": {"name": "00083 - SEJOURNE AMIDONNIERS", "lon": 1.428253851896989, "status": "OPEN", "stands": 12, "bikes": 5, "update": "2016-02-06T13:12:06", "lat": 43.6055917312578, "address": "2 AV PAUL SEJOURNE"}, "type": "Feature"}, {"geometry": {"coordinates": [1.445531445171338, 43.59546175758775], "type": "Point"}, "properties": {"name": "00047 - NAZARETH LANGUEDOC", "lon": 1.445531445171338, "status": "OPEN", "stands": 17, "bikes": 8, "update": "2016-02-06T13:06:58", "lat": 43.59546175758775, "address": "12 RUE DU LANGUEDOC"}, "type": "Feature"}, {"geometry": {"coordinates": [1.465370657992508, 43.557243695153005], "type": "Point"}, "properties": {"name": "00231 - NARBONNE MARFAING", "lon": 1.465370657992508, "status": "OPEN", "stands": 16, "bikes": 4, "update": "2016-02-06T13:15:12", "lat": 43.557243695153005, "address": "RANGUEIL / CL ROCHE"}, "type": "Feature"}, {"geometry": {"coordinates": [1.474057401308612, 43.622829380921075], "type": "Point"}, "properties": {"name": "00216 - ARGOULETS HOUDON", "lon": 1.474057401308612, "status": "OPEN", "stands": 14, "bikes": 3, "update": "2016-02-06T13:13:30", "lat": 43.622829380921075, "address": "3 RUE JEAN HOUDON"}, "type": "Feature"}, {"geometry": {"coordinates": [1.410651114174017, 43.594206765269206], "type": "Point"}, "properties": {"name": "00194 - LOMBEZ / HIPPODROME", "lon": 1.410651114174017, "status": "OPEN", "stands": 6, "bikes": 14, "update": "2016-02-06T13:08:19", "lat": 43.594206765269206, "address": "138 AV DE LOMBEZ"}, "type": "Feature"}, {"geometry": {"coordinates": [1.39867, 43.58444], "type": "Point"}, "properties": {"name": "00263 - LYCEE POLYVALENT", "lon": 1.39867, "status": "OPEN", "stands": 13, "bikes": 5, "update": "2016-02-06T13:08:48", "lat": 43.58444, "address": "87 AVENUE JEAN BAYLET ANGLE CHEMIN CEPIERES"}, "type": "Feature"}, {"geometry": {"coordinates": [1.462248097516892, 43.63124672931264], "type": "Point"}, "properties": {"name": "00169 - ALBI  / JAFFARY", "lon": 1.462248097516892, "status": "OPEN", "stands": 3, "bikes": 14, "update": "2016-02-06T13:13:55", "lat": 43.63124672931264, "address": "65 RTE D'ALBI"}, "type": "Feature"}, {"geometry": {"coordinates": [1.452939708828422, 43.60583232118379], "type": "Point"}, "properties": {"name": "00039 - PLACE DAMLOUP", "lon": 1.452939708828422, "status": "OPEN", "stands": 14, "bikes": 5, "update": "2016-02-06T13:11:09", "lat": 43.60583232118379, "address": "9 PL DE DAMLOUP"}, "type": "Feature"}, {"geometry": {"coordinates": [1.48049587613679, 43.57965532664315], "type": "Point"}, "properties": {"name": "00201 - POTEZ -ST EXUPERY", "lon": 1.48049587613679, "status": "OPEN", "stands": 17, "bikes": 1, "update": "2016-02-06T13:15:20", "lat": 43.57965532664315, "address": "256 AV ANTOINE DE ST EXUPERY"}, "type": "Feature"}, {"geometry": {"coordinates": [1.456321836591291, 43.59426485044087], "type": "Point"}, "properties": {"name": "00101 - CAPT PORT ST SAUVEUR", "lon": 1.456321836591291, "status": "OPEN", "stands": 16, "bikes": 4, "update": "2016-02-06T13:15:23", "lat": 43.59426485044087, "address": "5 PORT SAINT SAUVEUR"}, "type": "Feature"}, {"geometry": {"coordinates": [1.47643, 43.62957], "type": "Point"}, "properties": {"name": "00258 - CAMBARD", "lon": 1.47643, "status": "OPEN", "stands": 13, "bikes": 5, "update": "2016-02-06T13:06:39", "lat": 43.62957, "address": "Boulevard Atlanta / Cambard"}, "type": "Feature"}, {"geometry": {"coordinates": [1.450284083376377, 43.5785038852904], "type": "Point"}, "properties": {"name": "00159 - U.R.S.S DEVIC", "lon": 1.450284083376377, "status": "OPEN", "stands": 6, "bikes": 14, "update": "2016-02-06T13:12:18", "lat": 43.5785038852904, "address": "96 AV JULES JULIEN"}, "type": "Feature"}, {"geometry": {"coordinates": [1.432688307877285, 43.59504949175626], "type": "Point"}, "properties": {"name": "00072 - FITTE CUGNAUX", "lon": 1.432688307877285, "status": "OPEN", "stands": 13, "bikes": 7, "update": "2016-02-06T13:13:34", "lat": 43.59504949175626, "address": "23 ALL CHARLES DE FITTE"}, "type": "Feature"}, {"geometry": {"coordinates": [1.4401, 43.64066], "type": "Point"}, "properties": {"name": "00261 - VAN DYCK - LAUNAGUET", "lon": 1.4401, "status": "OPEN", "stands": 16, "bikes": 2, "update": "2016-02-06T13:10:00", "lat": 43.64066, "address": "Devant le N\u00b06 rue Van Dyck avant angle rue Raphael - 31000 TOULOUSE"}, "type": "Feature"}, {"geometry": {"coordinates": [1.443059611732516, 43.62459108857192], "type": "Point"}, "properties": {"name": "00151 - CURIE - NEGRENEYS", "lon": 1.443059611732516, "status": "OPEN", "stands": 5, "bikes": 19, "update": "2016-02-06T13:10:08", "lat": 43.62459108857192, "address": "27 BD PIERRE ET MARIE CURIE"}, "type": "Feature"}, {"geometry": {"coordinates": [1.473118127213999, 43.579425835630786], "type": "Point"}, "properties": {"name": "00238 - HERBETTES / BUTTE", "lon": 1.473118127213999, "status": "OPEN", "stands": 14, "bikes": 3, "update": "2016-02-06T13:14:48", "lat": 43.579425835630786, "address": "AVENUE DES HERBETTES"}, "type": "Feature"}, {"geometry": {"coordinates": [1.429275168509917, 43.59970386767416], "type": "Point"}, "properties": {"name": "00080 - FITTE VARSI", "lon": 1.429275168509917, "status": "OPEN", "stands": 14, "bikes": 9, "update": "2016-02-06T13:07:18", "lat": 43.59970386767416, "address": "89B ALL CHARLES DE FITTE"}, "type": "Feature"}, {"geometry": {"coordinates": [1.4431072280246, 43.610488427425665], "type": "Point"}, "properties": {"name": "00057 - MERLY ARCOLE", "lon": 1.4431072280246, "status": "OPEN", "stands": 15, "bikes": 0, "update": "2016-02-06T13:11:19", "lat": 43.610488427425665, "address": "15 RUE MERLY"}, "type": "Feature"}, {"geometry": {"coordinates": [1.443637125697445, 43.6106186453129], "type": "Point"}, "properties": {"name": "00058 - CONCORDE ARCOLE", "lon": 1.443637125697445, "status": "OPEN", "stands": 13, "bikes": 12, "update": "2016-02-06T13:16:02", "lat": 43.6106186453129, "address": "4 RUE DE LA CONCORDE"}, "type": "Feature"}, {"geometry": {"coordinates": [1.47297, 43.63539], "type": "Point"}, "properties": {"name": "00272 - ANDRE VASSEUR", "lon": 1.47297, "status": "OPEN", "stands": 5, "bikes": 12, "update": "2016-02-06T13:08:44", "lat": 43.63539, "address": "Boulevard Atlanta / apr\u00e8s angle rue vasseur - 31000 TOULOUSE"}, "type": "Feature"}, {"geometry": {"coordinates": [1.47517386253435, 43.5628140764194], "type": "Point"}, "properties": {"name": "00222 - CAMBOU / ROCHE", "lon": 1.47517386253435, "status": "OPEN", "stands": 19, "bikes": 1, "update": "2016-02-06T13:06:25", "lat": 43.5628140764194, "address": "AVENUE DU COLONEL ROCHE"}, "type": "Feature"}, {"geometry": {"coordinates": [1.442047437838665, 43.60233609279122], "type": "Point"}, "properties": {"name": "00004 - STE URSULE", "lon": 1.442047437838665, "status": "OPEN", "stands": 14, "bikes": 6, "update": "2016-02-06T13:10:25", "lat": 43.60233609279122, "address": "15 RUE SAINTE URSULE"}, "type": "Feature"}, {"geometry": {"coordinates": [1.414531359571464, 43.602050919601446], "type": "Point"}, "properties": {"name": "00136 - FONTAINES", "lon": 1.414531359571464, "status": "OPEN", "stands": 8, "bikes": 7, "update": "2016-02-06T13:08:26", "lat": 43.602050919601446, "address": "RUE DES FONTAINES"}, "type": "Feature"}, {"geometry": {"coordinates": [1.42438, 43.58807], "type": "Point"}, "properties": {"name": "00142 - SEVERAC", "lon": 1.42438, "status": "OPEN", "stands": 7, "bikes": 12, "update": "2016-02-06T13:15:50", "lat": 43.58807, "address": "BD DEODAT DE SEVERAC"}, "type": "Feature"}, {"geometry": {"coordinates": [1.481957162051808, 43.60593083247726], "type": "Point"}, "properties": {"name": "00182 - CHAUBET", "lon": 1.481957162051808, "status": "OPEN", "stands": 11, "bikes": 9, "update": "2016-02-06T13:11:24", "lat": 43.60593083247726, "address": "AV JEAN CHAUBET"}, "type": "Feature"}, {"geometry": {"coordinates": [1.451479779266325, 43.613829128033615], "type": "Point"}, "properties": {"name": "00094 - SEMARD GARE ROUTIERE", "lon": 1.451479779266325, "status": "OPEN", "stands": 3, "bikes": 19, "update": "2016-02-06T13:15:35", "lat": 43.613829128033615, "address": "73 BD PIERRE SEMARD"}, "type": "Feature"}, {"geometry": {"coordinates": [1.455945448109943, 43.589803552331645], "type": "Point"}, "properties": {"name": "00127 - BEGUE - DEMOISELLES", "lon": 1.455945448109943, "status": "OPEN", "stands": 4, "bikes": 9, "update": "2016-02-06T13:15:50", "lat": 43.589803552331645, "address": "1 RUE BEGUE"}, "type": "Feature"}, {"geometry": {"coordinates": [1.40142, 43.61354], "type": "Point"}, "properties": {"name": "00279 - GUY ESPAGNO", "lon": 1.40142, "status": "OPEN", "stands": 16, "bikes": 2, "update": "2016-02-06T13:06:37", "lat": 43.61354, "address": "229 AVENUE DE CASSELARDIT CROISEMENT ESPAGNO / CASSELARDIT 31000 TOULOUSE"}, "type": "Feature"}, {"geometry": {"coordinates": [1.4616307898919, 43.614208387732], "type": "Point"}, "properties": {"name": "00251 - BLUM / JOUHAUX", "lon": 1.4616307898919, "status": "OPEN", "stands": 14, "bikes": 6, "update": "2016-02-06T13:15:15", "lat": 43.614208387732, "address": "26 AVENUE LEON BLUM ANGLE RUE LEON JOUHAUX"}, "type": "Feature"}, {"geometry": {"coordinates": [1.407211289929025, 43.60419040838992], "type": "Point"}, "properties": {"name": "00226 - FONTAINES /CASSELARDIT", "lon": 1.407211289929025, "status": "OPEN", "stands": 10, "bikes": 7, "update": "2016-02-06T13:13:32", "lat": 43.60419040838992, "address": "292 RUE DES FONTAINES"}, "type": "Feature"}, {"geometry": {"coordinates": [1.430120187266013, 43.613472358330974], "type": "Point"}, "properties": {"name": "00122 - PASSERELLE HAEDENS", "lon": 1.430120187266013, "status": "OPEN", "stands": 18, "bikes": 1, "update": "2016-02-06T13:15:59", "lat": 43.613472358330974, "address": "57 BD DE L EMBOUCHURE"}, "type": "Feature"}, {"geometry": {"coordinates": [1.443005133993703, 43.59804753924319], "type": "Point"}, "properties": {"name": "00026 - DALBADE - DE GORSSE", "lon": 1.443005133993703, "status": "OPEN", "stands": 21, "bikes": 1, "update": "2016-02-06T13:08:52", "lat": 43.59804753924319, "address": "9 RUE HENRY DE GORSSE"}, "type": "Feature"}, {"geometry": {"coordinates": [1.467678323560475, 43.567221153708445], "type": "Point"}, "properties": {"name": "00230 - RANGUEIL TRIPODE B", "lon": 1.467678323560475, "status": "OPEN", "stands": 20, "bikes": 0, "update": "2016-02-06T13:09:19", "lat": 43.567221153708445, "address": "141 AV DE RANGUEIL"}, "type": "Feature"}, {"geometry": {"coordinates": [1.456048100267833, 43.601588174955744], "type": "Point"}, "properties": {"name": "00042 - DAURIAC ESCANDE", "lon": 1.456048100267833, "status": "OPEN", "stands": 19, "bikes": 0, "update": "2016-02-06T13:06:55", "lat": 43.601588174955744, "address": "3 BD PR LEOPOLD ESCANDE"}, "type": "Feature"}, {"geometry": {"coordinates": [1.411359591750251, 43.614589794633694], "type": "Point"}, "properties": {"name": "00219 - PUCCINI/ BLAGNAC", "lon": 1.411359591750251, "status": "OPEN", "stands": 4, "bikes": 14, "update": "2016-02-06T13:08:20", "lat": 43.614589794633694, "address": "35 RUE PUCCINI"}, "type": "Feature"}, {"geometry": {"coordinates": [1.462194464667426, 43.581459211587536], "type": "Point"}, "properties": {"name": "00163 - BEDOUCE / MIDI", "lon": 1.462194464667426, "status": "OPEN", "stands": 4, "bikes": 16, "update": "2016-02-06T13:15:27", "lat": 43.581459211587536, "address": "115 AV ALBERT BEDOUCE"}, "type": "Feature"}, {"geometry": {"coordinates": [1.435597311467436, 43.620735968782895], "type": "Point"}, "properties": {"name": "00133 - MARCHE AUX COCHONS", "lon": 1.435597311467436, "status": "OPEN", "stands": 6, "bikes": 16, "update": "2016-02-06T13:15:07", "lat": 43.620735968782895, "address": "71 AV DES MINIMES"}, "type": "Feature"}, {"geometry": {"coordinates": [1.47508540800772, 43.58588613821349], "type": "Point"}, "properties": {"name": "00205 - COTTAGE/ RIEUX", "lon": 1.47508540800772, "status": "OPEN", "stands": 14, "bikes": 4, "update": "2016-02-06T13:06:29", "lat": 43.58588613821349, "address": "58 AV DES COTTAGES"}, "type": "Feature"}, {"geometry": {"coordinates": [1.428450231443648, 43.60802027853654], "type": "Point"}, "properties": {"name": "00086 - HERACLES - BEARNAIS", "lon": 1.428450231443648, "status": "OPEN", "stands": 13, "bikes": 7, "update": "2016-02-06T13:15:17", "lat": 43.60802027853654, "address": "23 RUE DU BEARNAIS"}, "type": "Feature"}, {"geometry": {"coordinates": [1.451093339873272, 43.596478222107635], "type": "Point"}, "properties": {"name": "00066 - JARDIN ROYAL", "lon": 1.451093339873272, "status": "OPEN", "stands": 16, "bikes": 7, "update": "2016-02-06T13:15:20", "lat": 43.596478222107635, "address": "HUIT MAI 1945"}, "type": "Feature"}, {"geometry": {"coordinates": [1.408124460028565, 43.6172496485261], "type": "Point"}, "properties": {"name": "00240 - RTE DE BLAGNAC / JOB", "lon": 1.408124460028565, "status": "OPEN", "stands": 9, "bikes": 9, "update": "2016-02-06T13:14:42", "lat": 43.6172496485261, "address": "FACE 103 BIS ROUTE DE BLAGNAC"}, "type": "Feature"}, {"geometry": {"coordinates": [1.41476, 43.60614], "type": "Point"}, "properties": {"name": "282 - RICHARD WAGNER", "lon": 1.41476, "status": "OPEN", "stands": 6, "bikes": 12, "update": "2016-02-06T13:12:55", "lat": 43.60614, "address": "BD RICHARD WAGNER / ANGLE A.VIVALDI 31000 TOULOUSE"}, "type": "Feature"}, {"geometry": {"coordinates": [1.448244408330328, 43.60629718770727], "type": "Point"}, "properties": {"name": "00018 - STRASBOURG JEAN JAURES", "lon": 1.448244408330328, "status": "OPEN", "stands": 15, "bikes": 10, "update": "2016-02-06T13:16:09", "lat": 43.60629718770727, "address": "4 BD DE STRASBOURG"}, "type": "Feature"}, {"geometry": {"coordinates": [1.44002, 43.60459], "type": "Point"}, "properties": {"name": "00012 - PARGAMINIERES", "lon": 1.44002, "status": "OPEN", "stands": 0, "bikes": 11, "update": "2016-02-06T13:14:27", "lat": 43.60459, "address": "66 RUE PARGAMINIERES"}, "type": "Feature"}, {"geometry": {"coordinates": [1.425882273289917, 43.596852956620715], "type": "Point"}, "properties": {"name": "00117 - BILLIERES -POSTE", "lon": 1.425882273289917, "status": "OPEN", "stands": 6, "bikes": 14, "update": "2016-02-06T13:16:16", "lat": 43.596852956620715, "address": "39 AVENUE ETIENNE BILLIERES"}, "type": "Feature"}, {"geometry": {"coordinates": [1.454093824286969, 43.599990271041186], "type": "Point"}, "properties": {"name": "00043 - DUPUY", "lon": 1.454093824286969, "status": "OPEN", "stands": 15, "bikes": 7, "update": "2016-02-06T13:16:14", "lat": 43.599990271041186, "address": "14 PL DOMINIQUE MARTIN DUPUY"}, "type": "Feature"}, {"geometry": {"coordinates": [1.452455826571967, 43.61071810091073], "type": "Point"}, "properties": {"name": "00061 - BONREPOS", "lon": 1.452455826571967, "status": "OPEN", "stands": 2, "bikes": 25, "update": "2016-02-06T13:14:58", "lat": 43.61071810091073, "address": "8T BD DE BONREPOS"}, "type": "Feature"}, {"geometry": {"coordinates": [1.460187742067113, 43.57686792022356], "type": "Point"}, "properties": {"name": "00165 - PLACE DES AVIONS", "lon": 1.460187742067113, "status": "OPEN", "stands": 7, "bikes": 8, "update": "2016-02-06T13:08:52", "lat": 43.57686792022356, "address": "33 AVENUE DES AVIONS"}, "type": "Feature"}, {"geometry": {"coordinates": [1.42778, 43.62413], "type": "Point"}, "properties": {"name": "00270 - SILVIO TRENTIN", "lon": 1.42778, "status": "OPEN", "stands": 0, "bikes": 16, "update": "2016-02-06T13:15:14", "lat": 43.62413, "address": "Rue Jules Verne angle Boulevard Silvio Trentin - 31000 TOULOUSE"}, "type": "Feature"}, {"geometry": {"coordinates": [1.445174430937582, 43.590605082277605], "type": "Point"}, "properties": {"name": "00103 - ST MICHEL ST CATHERINE", "lon": 1.445174430937582, "status": "OPEN", "stands": 14, "bikes": 5, "update": "2016-02-06T13:12:41", "lat": 43.590605082277605, "address": "139 GRANDE RUE ST MICHEL"}, "type": "Feature"}, {"geometry": {"coordinates": [1.448061825303155, 43.60610692889793], "type": "Point"}, "properties": {"name": "00017 - STRASBOURG SARDANE", "lon": 1.448061825303155, "status": "OPEN", "stands": 14, "bikes": 9, "update": "2016-02-06T13:16:13", "lat": 43.60610692889793, "address": "7 BD DE STRASBOURG"}, "type": "Feature"}, {"geometry": {"coordinates": [1.445315649331453, 43.597401475499026], "type": "Point"}, "properties": {"name": "00046 - PLACE DES CARMES", "lon": 1.445315649331453, "status": "OPEN", "stands": 4, "bikes": 16, "update": "2016-02-06T13:13:03", "lat": 43.597401475499026, "address": "1 PL DES CARMES"}, "type": "Feature"}, {"geometry": {"coordinates": [1.461907953641387, 43.627603587351345], "type": "Point"}, "properties": {"name": "00218 - AMOUROUX /STE AUGUSTINE", "lon": 1.461907953641387, "status": "OPEN", "stands": 14, "bikes": 4, "update": "2016-02-06T13:15:47", "lat": 43.627603587351345, "address": "24 BIS CHE AMOUROUX"}, "type": "Feature"}, {"geometry": {"coordinates": [1.470077844843929, 43.5834192540153], "type": "Point"}, "properties": {"name": "00203 - ST EX. - PETIT PRINCE", "lon": 1.470077844843929, "status": "OPEN", "stands": 7, "bikes": 13, "update": "2016-02-06T13:14:46", "lat": 43.5834192540153, "address": "2 AV ANTOINE DE ST EXUPERY"}, "type": "Feature"}, {"geometry": {"coordinates": [1.441209573825458, 43.60765033417208], "type": "Point"}, "properties": {"name": "00032 - MUSEE ST RAYMOND", "lon": 1.441209573825458, "status": "OPEN", "stands": 11, "bikes": 1, "update": "2016-02-06T13:15:49", "lat": 43.60765033417208, "address": "8 RUE DES TROIS RENARDS"}, "type": "Feature"}, {"geometry": {"coordinates": [1.45752, 43.61184], "type": "Point"}, "properties": {"name": "00005 - LEDUC", "lon": 1.45752, "status": "OPEN", "stands": 17, "bikes": 2, "update": "2016-02-06T13:10:29", "lat": 43.61184, "address": "5 RUE LEDUC"}, "type": "Feature"}, {"geometry": {"coordinates": [1.432075106068745, 43.59628476386365], "type": "Point"}, "properties": {"name": "00073 - FITTE TEINTURIERS", "lon": 1.432075106068745, "status": "OPEN", "stands": 3, "bikes": 13, "update": "2016-02-06T13:15:05", "lat": 43.59628476386365, "address": "40 ALL CHARLES DE FITTE"}, "type": "Feature"}, {"geometry": {"coordinates": [1.440920059367141, 43.594569737633854], "type": "Point"}, "properties": {"name": "00050 - GARONNETTE", "lon": 1.440920059367141, "status": "OPEN", "stands": 10, "bikes": 13, "update": "2016-02-06T13:11:34", "lat": 43.594569737633854, "address": "1 AV MAURICE HAURIOU"}, "type": "Feature"}, {"geometry": {"coordinates": [1.449629619920856, 43.604717604204446], "type": "Point"}, "properties": {"name": "00020 - CARNOT TROIS JOURNEES", "lon": 1.449629619920856, "status": "OPEN", "stands": 2, "bikes": 25, "update": "2016-02-06T13:13:05", "lat": 43.604717604204446, "address": "69 BD LAZARE CARNOT"}, "type": "Feature"}, {"geometry": {"coordinates": [1.443635078857447, 43.58386908499996], "type": "Point"}, "properties": {"name": "00155 - RECOLLETS", "lon": 1.443635078857447, "status": "OPEN", "stands": 12, "bikes": 8, "update": "2016-02-06T13:12:30", "lat": 43.58386908499996, "address": "34 BD DES RECOLLETS"}, "type": "Feature"}, {"geometry": {"coordinates": [1.41028, 43.56507], "type": "Point"}, "properties": {"name": "00264 - LAFOURGUETTE", "lon": 1.41028, "status": "OPEN", "stands": 7, "bikes": 11, "update": "2016-02-06T13:07:09", "lat": 43.56507, "address": "Place des Gli\u00e8res"}, "type": "Feature"}, {"geometry": {"coordinates": [1.4842, 43.59666], "type": "Point"}, "properties": {"name": "00256 - PLACE DE LA RONTONDE", "lon": 1.4842, "status": "OPEN", "stands": 12, "bikes": 6, "update": "2016-02-06T13:07:44", "lat": 43.59666, "address": "FACE 175 ROUTE DE CASTRES ANGLE RUE CARCASSONNE"}, "type": "Feature"}, {"geometry": {"coordinates": [1.439737579879722, 43.611584087589904], "type": "Point"}, "properties": {"name": "00091 - ARCOLE BALANCE", "lon": 1.439737579879722, "status": "OPEN", "stands": 21, "bikes": 0, "update": "2016-02-06T13:14:13", "lat": 43.611584087589904, "address": "48 BD D ARCOLE"}, "type": "Feature"}, {"geometry": {"coordinates": [1.465517338373819, 43.62704846650827], "type": "Point"}, "properties": {"name": "00185 - ROUBICHOU ARLES", "lon": 1.465517338373819, "status": "OPEN", "stands": 14, "bikes": 1, "update": "2016-02-06T13:06:32", "lat": 43.62704846650827, "address": "30 RUE ROUBICHOU"}, "type": "Feature"}, {"geometry": {"coordinates": [1.440461106405702, 43.59938372814817], "type": "Point"}, "properties": {"name": "00027 - QUAI DE TOUNIS", "lon": 1.440461106405702, "status": "OPEN", "stands": 21, "bikes": 2, "update": "2016-02-06T13:06:37", "lat": 43.59938372814817, "address": "QUAI DE TOUNIS"}, "type": "Feature"}, {"geometry": {"coordinates": [1.478914286004687, 43.589466982143435], "type": "Point"}, "properties": {"name": "00209 - BAROUX/ DARASSE", "lon": 1.478914286004687, "status": "OPEN", "stands": 17, "bikes": 1, "update": "2016-02-06T13:06:44", "lat": 43.589466982143435, "address": "4 AV LUCIEN BAROUX"}, "type": "Feature"}, {"geometry": {"coordinates": [1.40230245215212, 43.574612132702526], "type": "Point"}, "properties": {"name": "00220 - TABAR /UNIVERSITE", "lon": 1.40230245215212, "status": "OPEN", "stands": 16, "bikes": 3, "update": "2016-02-06T13:10:10", "lat": 43.574612132702526, "address": "3 RUE DE L'UNIVERSITE"}, "type": "Feature"}, {"geometry": {"coordinates": [1.431415230750123, 43.59812186858788], "type": "Point"}, "properties": {"name": "00078 - PLACE INT ST CYP. DARRE", "lon": 1.431415230750123, "status": "OPEN", "stands": 5, "bikes": 12, "update": "2016-02-06T13:16:13", "lat": 43.59812186858788, "address": "14 PL INTERIEURE ST CYPRIEN"}, "type": "Feature"}, {"geometry": {"coordinates": [1.448486709552681, 43.615368584913504], "type": "Point"}, "properties": {"name": "00149 - RAISIN MINIMES", "lon": 1.448486709552681, "status": "OPEN", "stands": 18, "bikes": 4, "update": "2016-02-06T13:15:03", "lat": 43.615368584913504, "address": "CH DU RAISIN"}, "type": "Feature"}, {"geometry": {"coordinates": [1.446485498451865, 43.613590372531775], "type": "Point"}, "properties": {"name": "00059 - CONCORDE", "lon": 1.446485498451865, "status": "OPEN", "stands": 14, "bikes": 5, "update": "2016-02-06T10:58:34", "lat": 43.613590372531775, "address": "61 RUE DE LA CONCORDE"}, "type": "Feature"}, {"geometry": {"coordinates": [1.430389555237135, 43.609753361824794], "type": "Point"}, "properties": {"name": "00107 - SEBASTOPOL", "lon": 1.430389555237135, "status": "OPEN", "stands": 0, "bikes": 27, "update": "2016-02-06T13:14:59", "lat": 43.609753361824794, "address": "1 RUE DE SEBASTOPOL"}, "type": "Feature"}, {"geometry": {"coordinates": [1.420141760360439, 43.60390532418828], "type": "Point"}, "properties": {"name": "00246 - WAGNER / JEAN BRUNHES", "lon": 1.420141760360439, "status": "OPEN", "stands": 3, "bikes": 17, "update": "2016-02-06T13:14:18", "lat": 43.60390532418828, "address": "29 BOULEVARD RICHARD WAGNER ANG BD JEAN BRUNHES"}, "type": "Feature"}, {"geometry": {"coordinates": [1.450654849861206, 43.60082502483391], "type": "Point"}, "properties": {"name": "00099 - REMPART ST ETIENNE", "lon": 1.450654849861206, "status": "OPEN", "stands": 14, "bikes": 2, "update": "2016-02-06T13:08:54", "lat": 43.60082502483391, "address": "7 RUE DU REMPART ST ETIENNE"}, "type": "Feature"}, {"geometry": {"coordinates": [1.48278, 43.57452], "type": "Point"}, "properties": {"name": "00267 - GONIN", "lon": 1.48278, "status": "OPEN", "stands": 8, "bikes": 8, "update": "2016-02-06T13:12:25", "lat": 43.57452, "address": "RUE GONIN ANGLE GENIN 31000 TOULOUSE"}, "type": "Feature"}, {"geometry": {"coordinates": [1.449215732146181, 43.592355124495455], "type": "Point"}, "properties": {"name": "00113 - MUSEUM LAMARCK", "lon": 1.449215732146181, "status": "OPEN", "stands": 15, "bikes": 4, "update": "2016-02-06T13:11:24", "lat": 43.592355124495455, "address": "FACE 58 RUE DUMERIL"}, "type": "Feature"}, {"geometry": {"coordinates": [1.444528167445985, 43.61692696530316], "type": "Point"}, "properties": {"name": "00148 - COLLIGNON", "lon": 1.444528167445985, "status": "OPEN", "stands": 11, "bikes": 8, "update": "2016-02-06T13:15:21", "lat": 43.61692696530316, "address": "5 AV DE COLLIGNON"}, "type": "Feature"}, {"geometry": {"coordinates": [1.454698517821249, 43.62409340165932], "type": "Point"}, "properties": {"name": "00167 - LAPUJADE-FLANDRES", "lon": 1.454698517821249, "status": "OPEN", "stands": 5, "bikes": 13, "update": "2016-02-06T13:15:54", "lat": 43.62409340165932, "address": "RUE LAPUJADE ANGLE RUE DES FLANDRES"}, "type": "Feature"}, {"geometry": {"coordinates": [1.41325, 43.56793], "type": "Point"}, "properties": {"name": "00265 - PASSAGE BORDELONGUE", "lon": 1.41325, "status": "OPEN", "stands": 12, "bikes": 6, "update": "2016-02-06T13:07:47", "lat": 43.56793, "address": "Face N\u00b0251 route de Seysses"}, "type": "Feature"}, {"geometry": {"coordinates": [1.446483165667178, 43.588359791103294], "type": "Point"}, "properties": {"name": "00116 - ST MICHEL NOTRE DAME", "lon": 1.446483165667178, "status": "OPEN", "stands": 15, "bikes": 0, "update": "2016-02-06T13:09:10", "lat": 43.588359791103294, "address": "50 GRANDE RUE ST MICHEL"}, "type": "Feature"}, {"geometry": {"coordinates": [1.446076879873296, 43.609650036285025], "type": "Point"}, "properties": {"name": "00034 - SAINT LAZARE", "lon": 1.446076879873296, "status": "OPEN", "stands": 0, "bikes": 19, "update": "2016-02-06T13:06:25", "lat": 43.609650036285025, "address": "2 PETITE RUE SAINT LAZARE"}, "type": "Feature"}, {"geometry": {"coordinates": [1.419524853208122, 43.609967343094006], "type": "Point"}, "properties": {"name": "00119 - CHAPOU", "lon": 1.419524853208122, "status": "OPEN", "stands": 9, "bikes": 15, "update": "2016-02-06T13:07:40", "lat": 43.609967343094006, "address": "129 ALL DE BRIENNE"}, "type": "Feature"}, {"geometry": {"coordinates": [1.38887, 43.58171], "type": "Point"}, "properties": {"name": "00275 - PLACE DES PRADETTES", "lon": 1.38887, "status": "OPEN", "stands": 17, "bikes": 0, "update": "2016-02-06T13:08:34", "lat": 43.58171, "address": "Place des Pradettes / rue Arthur Huc"}, "type": "Feature"}, {"geometry": {"coordinates": [1.451999386383253, 43.573924940202886], "type": "Point"}, "properties": {"name": "00160 - THEATRE JULES JULIEN", "lon": 1.451999386383253, "status": "OPEN", "stands": 7, "bikes": 10, "update": "2016-02-06T13:14:06", "lat": 43.573924940202886, "address": "21 AV DES ECOLES JULES JULIEN"}, "type": "Feature"}, {"geometry": {"coordinates": [1.456086445970436, 43.569437251134566], "type": "Point"}, "properties": {"name": "00232 - NARBONNE/ MIROUSE", "lon": 1.456086445970436, "status": "OPEN", "stands": 9, "bikes": 6, "update": "2016-02-06T13:10:46", "lat": 43.569437251134566, "address": "64 RTE DE NARBONNE"}, "type": "Feature"}, {"geometry": {"coordinates": [1.48781984362323, 43.58350615923425], "type": "Point"}, "properties": {"name": "00211 - LE DORMEUR/ LA TERRASSE", "lon": 1.48781984362323, "status": "OPEN", "stands": 10, "bikes": 8, "update": "2016-02-06T13:12:08", "lat": 43.58350615923425, "address": "9 RUE LE DORMEUR"}, "type": "Feature"}, {"geometry": {"coordinates": [1.39709, 43.6142], "type": "Point"}, "properties": {"name": "00278 - ARENES ROMAINE", "lon": 1.39709, "status": "OPEN", "stands": 13, "bikes": 4, "update": "2016-02-06T13:13:41", "lat": 43.6142, "address": "AVENUE DES ARENES ROMAINES / GUY ESPAGNO DANS ROND POINT 31000 TOULOUSE"}, "type": "Feature"}, {"geometry": {"coordinates": [1.434473692188769, 43.62293779541603], "type": "Point"}, "properties": {"name": "00132 - MINIMES BILARD", "lon": 1.434473692188769, "status": "OPEN", "stands": 7, "bikes": 12, "update": "2016-02-06T13:09:20", "lat": 43.62293779541603, "address": "101 AVENUES DES MINIMES"}, "type": "Feature"}, {"geometry": {"coordinates": [1.424941224096277, 43.61395913175851], "type": "Point"}, "properties": {"name": "00145 - GOUNOD - GARROS", "lon": 1.424941224096277, "status": "OPEN", "stands": 12, "bikes": 8, "update": "2016-02-06T13:08:33", "lat": 43.61395913175851, "address": "29 RUE ROLAND GARROS"}, "type": "Feature"}, {"geometry": {"coordinates": [1.438157046235524, 43.61375517689823], "type": "Point"}, "properties": {"name": "00110 - CABANEL - SERRES", "lon": 1.438157046235524, "status": "OPEN", "stands": 8, "bikes": 10, "update": "2016-02-06T13:09:29", "lat": 43.61375517689823, "address": "16 RUE ALEXANDRE CABANEL"}, "type": "Feature"}, {"geometry": {"coordinates": [1.434225150757254, 43.6269176821576], "type": "Point"}, "properties": {"name": "00125 - BARRI\u00c8RE DE PARIS", "lon": 1.434225150757254, "status": "OPEN", "stands": 5, "bikes": 19, "update": "2016-02-06T13:07:47", "lat": 43.6269176821576, "address": "BARRI\u00c8RE DE PARIS"}, "type": "Feature"}, {"geometry": {"coordinates": [1.454189017923435, 43.607433487401345], "type": "Point"}, "properties": {"name": "00063 - PISCINE LEO LAGRANGE", "lon": 1.454189017923435, "status": "OPEN", "stands": 8, "bikes": 14, "update": "2016-02-06T13:14:44", "lat": 43.607433487401345, "address": "54 RUE DES SEPT TROUBADOURS"}, "type": "Feature"}, {"geometry": {"coordinates": [1.46539185105244, 43.61743867816197], "type": "Point"}, "properties": {"name": "00177 - BAILLAUD BRUNAUD", "lon": 1.46539185105244, "status": "OPEN", "stands": 19, "bikes": 0, "update": "2016-02-06T13:14:55", "lat": 43.61743867816197, "address": "64 RUE BAILLAUD"}, "type": "Feature"}, {"geometry": {"coordinates": [1.483669775054849, 43.57906922965151], "type": "Point"}, "properties": {"name": "00200 - PLACE DE L'ORMEAU", "lon": 1.483669775054849, "status": "OPEN", "stands": 14, "bikes": 3, "update": "2016-02-06T13:12:33", "lat": 43.57906922965151, "address": "FACE 345 AV JEAN RIEUX"}, "type": "Feature"}, {"geometry": {"coordinates": [1.444269620551324, 43.60735205357881], "type": "Point"}, "properties": {"name": "00014 - PERIGORD", "lon": 1.444269620551324, "status": "OPEN", "stands": 12, "bikes": 4, "update": "2016-02-06T13:10:52", "lat": 43.60735205357881, "address": "26 RUE DE PERIGORD"}, "type": "Feature"}, {"geometry": {"coordinates": [1.4795004816774, 43.610549420565], "type": "Point"}, "properties": {"name": "00181 - PLANA GARNIER", "lon": 1.4795004816774, "status": "OPEN", "stands": 11, "bikes": 6, "update": "2016-02-06T13:15:47", "lat": 43.610549420565, "address": "27 Avenue Louis PLANA"}, "type": "Feature"}, {"geometry": {"coordinates": [1.4429, 43.59253], "type": "Point"}, "properties": {"name": "00069 - FEUGA", "lon": 1.4429, "status": "OPEN", "stands": 10, "bikes": 8, "update": "2016-02-06T13:14:52", "lat": 43.59253, "address": "11 ALL PAUL FEUGA"}, "type": "Feature"}, {"geometry": {"coordinates": [1.448634234326797, 43.582831686768735], "type": "Point"}, "properties": {"name": "00157 - U.R.S.S  PEYROUSET", "lon": 1.448634234326797, "status": "OPEN", "stands": 3, "bikes": 16, "update": "2016-02-06T13:07:04", "lat": 43.582831686768735, "address": "16 AV DE L'U.R.S.S"}, "type": "Feature"}, {"geometry": {"coordinates": [1.425325828280708, 43.581352282638655], "type": "Point"}, "properties": {"name": "00189 - MURET BOUTINON", "lon": 1.425325828280708, "status": "OPEN", "stands": 7, "bikes": 13, "update": "2016-02-06T13:12:12", "lat": 43.581352282638655, "address": "44 AVENUE DE MURET"}, "type": "Feature"}], "type": "FeatureCollection"}