{"type": "FeatureCollection", "features": [{"type": "Feature", "properties": {"status": "OPEN", "lon": 1.441003598726198, "address": "2 RUE GATIEN ARNOULT", "name": "00055 - ST SERNIN G. ARNOULT", "bikes": 1, "lat": 43.608951960496405, "stands": 14, "update": "2016-02-06T17:45:39"}, "geometry": {"type": "Point", "coordinates": [1.441003598726198, 43.608951960496405]}}, {"type": "Feature", "properties": {"status": "OPEN", "lon": 1.45907112459247, "address": "FACE 15 RUE PIERRE LAROUSSE", "name": "00195 - LARROUSSE -RIEUX", "bikes": 2, "lat": 43.59723540303583, "stands": 15, "update": "2016-02-06T17:46:10"}, "geometry": {"type": "Point", "coordinates": [1.45907112459247, 43.59723540303583]}}, {"type": "Feature", "properties": {"status": "OPEN", "lon": 1.46278065695466, "address": "129 AV DE RANGUEIL", "name": "00229 - IUT RANGUEIL", "bikes": 0, "lat": 43.571433064051334, "stands": 17, "update": "2016-02-06T17:45:20"}, "geometry": {"type": "Point", "coordinates": [1.46278065695466, 43.571433064051334]}}, {"type": "Feature", "properties": {"status": "OPEN", "lon": 1.452605307400692, "address": "2 ALL FORAIN FRANCOIS VERDIER", "name": "00065 - VERDIER - GRAND ROND", "bikes": 17, "lat": 43.597074846780274, "stands": 10, "update": "2016-02-06T17:49:05"}, "geometry": {"type": "Point", "coordinates": [1.452605307400692, 43.597074846780274]}}, {"type": "Feature", "properties": {"status": "OPEN", "lon": 1.45195665819857, "address": "24 BD LAZARE CARNOT", "name": "00022 - CARNOT ROLAND", "bikes": 3, "lat": 43.60221990815785, "stands": 17, "update": "2016-02-06T17:48:52"}, "geometry": {"type": "Point", "coordinates": [1.45195665819857, 43.60221990815785]}}, {"type": "Feature", "properties": {"status": "OPEN", "lon": 1.403872948950036, "address": "RUE DE L'ABBE JULES LEMIRE", "name": "00236 - TOEC / LEMIRE", "bikes": 4, "lat": 43.59729443895585, "stands": 16, "update": "2016-02-06T17:52:20"}, "geometry": {"type": "Point", "coordinates": [1.403872948950036, 43.59729443895585]}}, {"type": "Feature", "properties": {"status": "OPEN", "lon": 1.442921175845342, "address": "38B BD DES MINIMES", "name": "00111 - MINIMES PASSERELLE", "bikes": 13, "lat": 43.615259799224134, "stands": 14, "update": "2016-02-06T17:54:51"}, "geometry": {"type": "Point", "coordinates": [1.442921175845342, 43.615259799224134]}}, {"type": "Feature", "properties": {"status": "OPEN", "lon": 1.43180804154469, "address": "96 av des Etats-Unis angle rue Jules Ferry", "name": "00243 - ETATS-UNIS / FERRY", "bikes": 11, "lat": 43.632641237523, "stands": 6, "update": "2016-02-06T17:51:36"}, "geometry": {"type": "Point", "coordinates": [1.43180804154469, 43.632641237523]}}, {"type": "Feature", "properties": {"status": "OPEN", "lon": 1.452693250180783, "address": "41 AV MAURICE BOURGES MAUNOURY", "name": "00174 - MAUNOURY / MELA", "bikes": 10, "lat": 43.63692179179762, "stands": 8, "update": "2016-02-06T17:49:03"}, "geometry": {"type": "Point", "coordinates": [1.452693250180783, 43.63692179179762]}}, {"type": "Feature", "properties": {"status": "OPEN", "lon": 1.420275802412521, "address": "47 BD JEAN BRUNHES", "name": "00137 - BRUNHES-FONTAINES", "bikes": 7, "lat": 43.60094924792523, "stands": 13, "update": "2016-02-06T17:48:56"}, "geometry": {"type": "Point", "coordinates": [1.420275802412521, 43.60094924792523]}}, {"type": "Feature", "properties": {"status": "OPEN", "lon": 1.421715694303944, "address": "62 BD DE SUISSE", "name": "00144 - SUISSE - LAUSANE", "bikes": 10, "lat": 43.61606217398145, "stands": 10, "update": "2016-02-06T17:52:04"}, "geometry": {"type": "Point", "coordinates": [1.421715694303944, 43.61606217398145]}}, {"type": "Feature", "properties": {"status": "OPEN", "lon": 1.453588691746783, "address": "41 RUE DE LA COLOMBETTE", "name": "00040 - COLOMBETTE", "bikes": 8, "lat": 43.604660136134775, "stands": 8, "update": "2016-02-06T17:47:58"}, "geometry": {"type": "Point", "coordinates": [1.453588691746783, 43.604660136134775]}}, {"type": "Feature", "properties": {"status": "OPEN", "lon": 1.445569311598848, "address": "62 RUE DE LA POMME", "name": "00003 - POMME", "bikes": 16, "lat": 43.60333593826575, "stands": 0, "update": "2016-02-06T17:54:57"}, "geometry": {"type": "Point", "coordinates": [1.445569311598848, 43.60333593826575]}}, {"type": "Feature", "properties": {"status": "OPEN", "lon": 1.418420510391943, "address": "39 BIS AV DE LOMBEZ", "name": "00139 - BARRIERE DE LOMBEZ", "bikes": 23, "lat": 43.5955673906372, "stands": 2, "update": "2016-02-06T17:52:02"}, "geometry": {"type": "Point", "coordinates": [1.418420510391943, 43.5955673906372]}}, {"type": "Feature", "properties": {"status": "OPEN", "lon": 1.44361404386217, "address": "57 RUE DU PRINTEMPS", "name": "00093 - PRINTEMPS", "bikes": 2, "lat": 43.614465544425535, "stands": 15, "update": "2016-02-06T17:55:19"}, "geometry": {"type": "Point", "coordinates": [1.44361404386217, 43.614465544425535]}}, {"type": "Feature", "properties": {"status": "OPEN", "lon": 1.429556601823956, "address": "ALL CHARLES DE FITTE", "name": "00081 - JARDIN RAYMOND VI", "bikes": 24, "lat": 43.59989498759688, "stands": 9, "update": "2016-02-06T17:49:09"}, "geometry": {"type": "Point", "coordinates": [1.429556601823956, 43.59989498759688]}}, {"type": "Feature", "properties": {"status": "OPEN", "lon": 1.449039275575635, "address": "RUE DES BOUQUETINS ANGLE RUE EDMOND ROSTAND", "name": "00248 - BOUQUETINS/E. ROSTAND", "bikes": 14, "lat": 43.64108958806659, "stands": 6, "update": "2016-02-06T17:49:54"}, "geometry": {"type": "Point", "coordinates": [1.449039275575635, 43.64108958806659]}}, {"type": "Feature", "properties": {"status": "OPEN", "lon": 1.437631489341106, "address": "PL SAINT JULIEN", "name": "00053 - PLACE SAINT JULIEN", "bikes": 1, "lat": 43.60863633636605, "stands": 24, "update": "2016-02-06T17:48:52"}, "geometry": {"type": "Point", "coordinates": [1.437631489341106, 43.60863633636605]}}, {"type": "Feature", "properties": {"status": "OPEN", "lon": 1.432335729928681, "address": "47 BD LASCROSSES", "name": "00087 - LASCROSSES LECLERC", "bikes": 15, "lat": 43.609500004240715, "stands": 9, "update": "2016-02-06T17:46:26"}, "geometry": {"type": "Point", "coordinates": [1.432335729928681, 43.609500004240715]}}, {"type": "Feature", "properties": {"status": "OPEN", "lon": 1.438340345212284, "address": "33 AV HONRE SERRES", "name": "00121 - SERRES - A. BERNARD", "bikes": 5, "lat": 43.612327522628846, "stands": 11, "update": "2016-02-06T17:50:17"}, "geometry": {"type": "Point", "coordinates": [1.438340345212284, 43.612327522628846]}}, {"type": "Feature", "properties": {"status": "OPEN", "lon": 1.469393836823441, "address": "FACE AU 127 AVENUE DE LESPINET", "name": "00239 - LESPINET / HERBETTES", "bikes": 8, "lat": 43.577166917623245, "stands": 12, "update": "2016-02-06T17:46:07"}, "geometry": {"type": "Point", "coordinates": [1.469393836823441, 43.577166917623245]}}, {"type": "Feature", "properties": {"status": "OPEN", "lon": 1.445420780739279, "address": "12 RUE DU POIDS DE L'HUILE", "name": "00001 - POIDS DE L'HUILE", "bikes": 14, "lat": 43.604134687021045, "stands": 5, "update": "2016-02-06T17:54:59"}, "geometry": {"type": "Point", "coordinates": [1.445420780739279, 43.604134687021045]}}, {"type": "Feature", "properties": {"status": "OPEN", "lon": 1.446593812218414, "address": "6 RUE DU REMPART VILLENEUVE", "name": "00007 - PLACE VICTOR HUGO", "bikes": 23, "lat": 43.605852162177925, "stands": 1, "update": "2016-02-06T17:48:49"}, "geometry": {"type": "Point", "coordinates": [1.446593812218414, 43.605852162177925]}}, {"type": "Feature", "properties": {"status": "OPEN", "lon": 1.43298, "address": "Place Riche / Lalande - 31000 TOULOUSE", "name": "00259 - PLACE RICHE", "bikes": 16, "lat": 43.64751, "stands": 3, "update": "2016-02-06T17:48:26"}, "geometry": {"type": "Point", "coordinates": [1.43298, 43.64751]}}, {"type": "Feature", "properties": {"status": "OPEN", "lon": 1.451330504561275, "address": "RUE LOIN 100M AVT RAYNAL", "name": "00234 - LOIN / RAYNAL", "bikes": 10, "lat": 43.628236592839514, "stands": 5, "update": "2016-02-06T17:51:31"}, "geometry": {"type": "Point", "coordinates": [1.451330504561275, 43.628236592839514]}}, {"type": "Feature", "properties": {"status": "OPEN", "lon": 1.409162125552512, "address": "355 route de saint-Simon", "name": "00192 - RTE DE ST SIMON/PRADO", "bikes": 1, "lat": 43.587659413053814, "stands": 18, "update": "2016-02-06T17:49:34"}, "geometry": {"type": "Point", "coordinates": [1.409162125552512, 43.587659413053814]}}, {"type": "Feature", "properties": {"status": "OPEN", "lon": 1.444132711268797, "address": "18 PL DU SALIN", "name": "00048 - PLACE DU SALIN", "bikes": 1, "lat": 43.59474911973265, "stands": 21, "update": "2016-02-06T17:49:43"}, "geometry": {"type": "Point", "coordinates": [1.444132711268797, 43.59474911973265]}}, {"type": "Feature", "properties": {"status": "OPEN", "lon": 1.45256734914219, "address": "Avenue Maurice BOURGES MAUNOURY", "name": "00175 - METRO MAUNOURY", "bikes": 6, "lat": 43.6394555737186, "stands": 24, "update": "2016-02-06T17:49:55"}, "geometry": {"type": "Point", "coordinates": [1.45256734914219, 43.6394555737186]}}, {"type": "Feature", "properties": {"status": "OPEN", "lon": 1.462031097914686, "address": "23 RUE GUYOU", "name": "00166 - RANGUEIL GUYOU", "bikes": 7, "lat": 43.574366149048714, "stands": 13, "update": "2016-02-06T17:49:06"}, "geometry": {"type": "Point", "coordinates": [1.462031097914686, 43.574366149048714]}}, {"type": "Feature", "properties": {"status": "OPEN", "lon": 1.458585739964361, "address": "183 RUE DU FB  BONNEFOY", "name": "00135 - BONNEFOY   LEMAITRE", "bikes": 12, "lat": 43.62316326019301, "stands": 6, "update": "2016-02-06T17:52:10"}, "geometry": {"type": "Point", "coordinates": [1.458585739964361, 43.62316326019301]}}, {"type": "Feature", "properties": {"status": "OPEN", "lon": 1.453805825078145, "address": "8 ALL DES DEMOISELLES", "name": "00115 - DEMOISELLES MISTRAL", "bikes": 2, "lat": 43.590622011025665, "stands": 14, "update": "2016-02-06T17:48:51"}, "geometry": {"type": "Point", "coordinates": [1.453805825078145, 43.590622011025665]}}, {"type": "Feature", "properties": {"status": "OPEN", "lon": 1.44938, "address": "35 ALL JULES GUESDE", "name": "00067 - MUSEUM", "bikes": 6, "lat": 43.59468, "stands": 14, "update": "2016-02-06T17:54:49"}, "geometry": {"type": "Point", "coordinates": [1.44938, 43.59468]}}, {"type": "Feature", "properties": {"status": "OPEN", "lon": 1.427517107421507, "address": "121 AVENUE DE MURET", "name": "00188 - MURET/LAFAGE", "bikes": 8, "lat": 43.584282965328995, "stands": 10, "update": "2016-02-06T17:51:51"}, "geometry": {"type": "Point", "coordinates": [1.427517107421507, 43.584282965328995]}}, {"type": "Feature", "properties": {"status": "OPEN", "lon": 1.468753766918999, "address": "AVENUE YVES BRUNAUD", "name": "00178 - BRUNAUD / PLANA", "bikes": 6, "lat": 43.619281402937425, "stands": 14, "update": "2016-02-06T17:52:38"}, "geometry": {"type": "Point", "coordinates": [1.468753766918999, 43.619281402937425]}}, {"type": "Feature", "properties": {"status": "OPEN", "lon": 1.454436078796189, "address": "1 RUE CHARLES CAMICHEL", "name": "00041 - ST AUBIN CAMICHEL", "bikes": 7, "lat": 43.60265364232074, "stands": 14, "update": "2016-02-06T17:46:33"}, "geometry": {"type": "Point", "coordinates": [1.454436078796189, 43.60265364232074]}}, {"type": "Feature", "properties": {"status": "OPEN", "lon": 1.437871385550754, "address": "3B BD LASCROSSES", "name": "00090 - LASCROSSES- A. BERNARD", "bikes": 8, "lat": 43.61146971436288, "stands": 17, "update": "2016-02-06T17:54:40"}, "geometry": {"type": "Point", "coordinates": [1.437871385550754, 43.61146971436288]}}, {"type": "Feature", "properties": {"status": "OPEN", "lon": 1.434707777421923, "address": "1 BD DE LA MARQUETTE", "name": "00109 - METRO CANAL DU MIDI", "bikes": 7, "lat": 43.615173611788045, "stands": 18, "update": "2016-02-06T17:54:55"}, "geometry": {"type": "Point", "coordinates": [1.434707777421923, 43.615173611788045]}}, {"type": "Feature", "properties": {"status": "OPEN", "lon": 1.464093716152017, "address": "6 AV LOUIS BLERIOT", "name": "00197 - CASERNE PERIGNON", "bikes": 0, "lat": 43.60038605818475, "stands": 20, "update": "2016-02-06T17:48:50"}, "geometry": {"type": "Point", "coordinates": [1.464093716152017, 43.60038605818475]}}, {"type": "Feature", "properties": {"status": "OPEN", "lon": 1.452057713684133, "address": "6 BD LAZARE CARNOT", "name": "00023 - COMBATTANTS", "bikes": 22, "lat": 43.60128593726337, "stands": 4, "update": "2016-02-06T17:52:25"}, "geometry": {"type": "Point", "coordinates": [1.452057713684133, 43.60128593726337]}}, {"type": "Feature", "properties": {"status": "OPEN", "lon": 1.39262, "address": "ROND POINT DES IZARD ANGLEPASSERIEU ET ROUTE ST SIMON", "name": "00273 - PASSERIEU - ST SIMON", "bikes": 5, "lat": 43.5792, "stands": 13, "update": "2016-02-06T17:47:31"}, "geometry": {"type": "Point", "coordinates": [1.39262, 43.5792]}}, {"type": "Feature", "properties": {"status": "OPEN", "lon": 1.437032051956223, "address": "31 RUE VALADE", "name": "00029 - VALADE", "bikes": 13, "lat": 43.605071904633625, "stands": 6, "update": "2016-02-06T17:54:27"}, "geometry": {"type": "Point", "coordinates": [1.437032051956223, 43.605071904633625]}}, {"type": "Feature", "properties": {"status": "OPEN", "lon": 1.44871, "address": "RUE DE LA CHARBONNIERE ANGLE RUE DES PALMIERS 31000 TOULOUSE", "name": "280 - CHARBONNIERE", "bikes": 10, "lat": 43.57383, "stands": 8, "update": "2016-02-06T17:51:28"}, "geometry": {"type": "Point", "coordinates": [1.44871, 43.57383]}}, {"type": "Feature", "properties": {"status": "OPEN", "lon": 1.441783289134449, "address": "38 AV JEAN MOULIN FACE DEBOUCHE RUE DE CANNES", "name": "00156 - METRO EMPALOT", "bikes": 2, "lat": 43.579737115748195, "stands": 17, "update": "2016-02-06T17:48:49"}, "geometry": {"type": "Point", "coordinates": [1.441783289134449, 43.579737115748195]}}, {"type": "Feature", "properties": {"status": "OPEN", "lon": 1.437493796200118, "address": "RUE RAIMBAUD ANGLE RUE COLETTE", "name": "00242 -  RAIMBAUD / COLETTE", "bikes": 14, "lat": 43.633866178151905, "stands": 2, "update": "2016-02-06T17:50:17"}, "geometry": {"type": "Point", "coordinates": [1.437493796200118, 43.633866178151905]}}, {"type": "Feature", "properties": {"status": "OPEN", "lon": 1.474881961695726, "address": "AVENUE EDOUARD BELIN FACE CH\u00c2TEAU DU CREPS", "name": "00224 - CAMPUS SUPAERO", "bikes": 2, "lat": 43.566595761363736, "stands": 18, "update": "2016-02-06T17:52:54"}, "geometry": {"type": "Point", "coordinates": [1.474881961695726, 43.566595761363736]}}, {"type": "Feature", "properties": {"status": "OPEN", "lon": 1.4420311550308, "address": "RUE DES GALLOIS", "name": "00154 - GALLOIS", "bikes": 14, "lat": 43.58995890864312, "stands": 6, "update": "2016-02-06T17:48:18"}, "geometry": {"type": "Point", "coordinates": [1.4420311550308, 43.58995890864312]}}, {"type": "Feature", "properties": {"status": "OPEN", "lon": 1.455204795385279, "address": "50 RUE DU GENERAL COMPANS", "name": "00096 - MEDIATHEQUE", "bikes": 3, "lat": 43.60974282737991, "stands": 21, "update": "2016-02-06T17:55:02"}, "geometry": {"type": "Point", "coordinates": [1.455204795385279, 43.60974282737991]}}, {"type": "Feature", "properties": {"status": "OPEN", "lon": 1.438302180907754, "address": "10 AV DES MAZADES", "name": "00152 - MAZADES", "bikes": 7, "lat": 43.624183134252704, "stands": 13, "update": "2016-02-06T17:49:28"}, "geometry": {"type": "Point", "coordinates": [1.438302180907754, 43.624183134252704]}}, {"type": "Feature", "properties": {"status": "OPEN", "lon": 1.37975, "address": "chemin du Marin angle chemin du Reboul", "name": "00276 - MARIN REBOUL", "bikes": 14, "lat": 43.58132, "stands": 4, "update": "2016-02-06T17:48:36"}, "geometry": {"type": "Point", "coordinates": [1.37975, 43.58132]}}, {"type": "Feature", "properties": {"status": "OPEN", "lon": 1.431605284631358, "address": "2 PL INTERIEURE ST CYPRIEN", "name": "00077 - PLACE INT SAINT CYPRIEN", "bikes": 1, "lat": 43.597835830061406, "stands": 12, "update": "2016-02-06T17:54:32"}, "geometry": {"type": "Point", "coordinates": [1.431605284631358, 43.597835830061406]}}, {"type": "Feature", "properties": {"status": "OPEN", "lon": 1.445580732388259, "address": "1 RUE DES TOURNEURS", "name": "00025 - PLACE ROUAIX", "bikes": 8, "lat": 43.599435045967155, "stands": 9, "update": "2016-02-06T17:54:07"}, "geometry": {"type": "Point", "coordinates": [1.445580732388259, 43.599435045967155]}}, {"type": "Feature", "properties": {"status": "OPEN", "lon": 1.436175197009508, "address": "37 RUE LAGANNE", "name": "00074 - LAGANNE TEINTURIERS", "bikes": 5, "lat": 43.596660562935625, "stands": 13, "update": "2016-02-06T17:51:09"}, "geometry": {"type": "Point", "coordinates": [1.436175197009508, 43.596660562935625]}}, {"type": "Feature", "properties": {"status": "OPEN", "lon": 1.434894328349442, "address": "3 RUE LAGANNE", "name": "00071 - COURS DILLON", "bikes": 5, "lat": 43.59318934283672, "stands": 17, "update": "2016-02-06T17:53:07"}, "geometry": {"type": "Point", "coordinates": [1.434894328349442, 43.59318934283672]}}, {"type": "Feature", "properties": {"status": "OPEN", "lon": 1.428862699237109, "address": "12  AV  ETIENNE  BILLIERES", "name": "00105 - BILLIERE -CHAMPETRE", "bikes": 12, "lat": 43.59764204883991, "stands": 7, "update": "2016-02-06T17:53:57"}, "geometry": {"type": "Point", "coordinates": [1.428862699237109, 43.59764204883991]}}, {"type": "Feature", "properties": {"status": "OPEN", "lon": 1.454987798766018, "address": "0030 RUE GABRIEL PERI", "name": "00064 - PERI MERCADIER", "bikes": 5, "lat": 43.60617263070887, "stands": 19, "update": "2016-02-06T17:51:37"}, "geometry": {"type": "Point", "coordinates": [1.454987798766018, 43.60617263070887]}}, {"type": "Feature", "properties": {"status": "OPEN", "lon": 1.448541598385468, "address": "32 PL ROQUELAINE", "name": "00060 - ROQUELAINE", "bikes": 13, "lat": 43.61263652233987, "stands": 11, "update": "2016-02-06T17:47:12"}, "geometry": {"type": "Point", "coordinates": [1.448541598385468, 43.61263652233987]}}, {"type": "Feature", "properties": {"status": "OPEN", "lon": 1.449367822982907, "address": "5 PL ROBERT SCHUMAN", "name": "00036 - PLACE SCHUMAN", "bikes": 3, "lat": 43.609623167283914, "stands": 21, "update": "2016-02-06T17:54:19"}, "geometry": {"type": "Point", "coordinates": [1.449367822982907, 43.609623167283914]}}, {"type": "Feature", "properties": {"status": "OPEN", "lon": 1.462869145576551, "address": "118  RTE DE NARBONNE", "name": "00227 - METRO UPS", "bikes": 1, "lat": 43.56160969546884, "stands": 19, "update": "2016-02-06T17:47:50"}, "geometry": {"type": "Point", "coordinates": [1.462869145576551, 43.56160969546884]}}, {"type": "Feature", "properties": {"status": "OPEN", "lon": 1.415543960373121, "address": "187 RUE HENRI DESBALS", "name": "00187 - DESBALS MONTDORE", "bikes": 10, "lat": 43.584523123495174, "stands": 6, "update": "2016-02-06T17:46:33"}, "geometry": {"type": "Point", "coordinates": [1.415543960373121, 43.584523123495174]}}, {"type": "Feature", "properties": {"status": "OPEN", "lon": 1.473268554354084, "address": "AVENUE EDOUARD BELIN DEVANT ONERA", "name": "00225 - BELIN ONERA", "bikes": 1, "lat": 43.56947707206279, "stands": 19, "update": "2016-02-06T17:54:34"}, "geometry": {"type": "Point", "coordinates": [1.473268554354084, 43.56947707206279]}}, {"type": "Feature", "properties": {"status": "OPEN", "lon": 1.432687682718845, "address": "19T ALL DE BRIENNE", "name": "00084 - BRIENNE MANUFACTURE", "bikes": 12, "lat": 43.60524239596951, "stands": 11, "update": "2016-02-06T17:48:32"}, "geometry": {"type": "Point", "coordinates": [1.432687682718845, 43.60524239596951]}}, {"type": "Feature", "properties": {"status": "OPEN", "lon": 1.480087483756261, "address": "ALL DE LIMAYRAC", "name": "00208 - LIMAYRAC/ DARASSE", "bikes": 8, "lat": 43.59122002356995, "stands": 10, "update": "2016-02-06T17:54:28"}, "geometry": {"type": "Point", "coordinates": [1.480087483756261, 43.59122002356995]}}, {"type": "Feature", "properties": {"status": "OPEN", "lon": 1.414597471267562, "address": "15 RUE PAUL BERNIES", "name": "00131 - BERNIES", "bikes": 10, "lat": 43.61174111564092, "stands": 8, "update": "2016-02-06T17:50:29"}, "geometry": {"type": "Point", "coordinates": [1.414597471267562, 43.61174111564092]}}, {"type": "Feature", "properties": {"status": "OPEN", "lon": 1.429880706043356, "address": "53 RUE STE LUCIE", "name": "00037 - STE LUCIE", "bikes": 1, "lat": 43.593506929037055, "stands": 17, "update": "2016-02-06T17:46:15"}, "geometry": {"type": "Point", "coordinates": [1.429880706043356, 43.593506929037055]}}, {"type": "Feature", "properties": {"status": "OPEN", "lon": 1.41398, "address": "38 RUE DE LA TOURAINE ANGLE RUE D AUVERGNE 31000 TOULOUSE", "name": "00266 - TOURAINE", "bikes": 4, "lat": 43.57375, "stands": 15, "update": "2016-02-06T17:52:21"}, "geometry": {"type": "Point", "coordinates": [1.41398, 43.57375]}}, {"type": "Feature", "properties": {"status": "OPEN", "lon": 1.434138106708093, "address": "1 PL LANGE", "name": "00079 - PLACE LANGE", "bikes": 0, "lat": 43.60112880561738, "stands": 19, "update": "2016-02-06T17:55:10"}, "geometry": {"type": "Point", "coordinates": [1.434138106708093, 43.60112880561738]}}, {"type": "Feature", "properties": {"status": "OPEN", "lon": 1.483021040946601, "address": "FACE 42 CHE DE LA TERRASSE", "name": "00210 - TERRASSE/ CENTRE CO.", "bikes": 3, "lat": 43.586074956653995, "stands": 15, "update": "2016-02-06T17:53:37"}, "geometry": {"type": "Point", "coordinates": [1.483021040946601, 43.586074956653995]}}, {"type": "Feature", "properties": {"status": "OPEN", "lon": 1.436590757220506, "address": "12 PL LAGANNE", "name": "00075 - CHATEAU D EAU", "bikes": 15, "lat": 43.598542607102175, "stands": 6, "update": "2016-02-06T17:54:41"}, "geometry": {"type": "Point", "coordinates": [1.436590757220506, 43.598542607102175]}}, {"type": "Feature", "properties": {"status": "OPEN", "lon": 1.406488768851485, "address": "FACE 85 RUE VAUQUELIN", "name": "00221 - VAUQUELIN", "bikes": 9, "lat": 43.57641895477528, "stands": 11, "update": "2016-02-06T17:45:33"}, "geometry": {"type": "Point", "coordinates": [1.406488768851485, 43.57641895477528]}}, {"type": "Feature", "properties": {"status": "OPEN", "lon": 1.447411881616044, "address": "18 B GRANDE RUE ST MICHEL", "name": "00128 - PRISON ST MICHEL", "bikes": 5, "lat": 43.58589564207925, "stands": 18, "update": "2016-02-06T17:55:15"}, "geometry": {"type": "Point", "coordinates": [1.447411881616044, 43.58589564207925]}}, {"type": "Feature", "properties": {"status": "OPEN", "lon": 1.450764528471522, "address": "2 PLACE DU BUSCA", "name": "00118 - PLACE DU BUSCA", "bikes": 7, "lat": 43.58817925392077, "stands": 10, "update": "2016-02-06T17:54:57"}, "geometry": {"type": "Point", "coordinates": [1.450764528471522, 43.58817925392077]}}, {"type": "Feature", "properties": {"status": "OPEN", "lon": 1.44455, "address": "1 BIS ALLEE JULES GUESDE", "name": "00068 - METRO - PALAIS DE JUSTICE", "bikes": 4, "lat": 43.59265, "stands": 12, "update": "2016-02-06T17:53:50"}, "geometry": {"type": "Point", "coordinates": [1.44455, 43.59265]}}, {"type": "Feature", "properties": {"status": "OPEN", "lon": 1.428966282419491, "address": "96 RUE DE CHAUSSAS", "name": "00147 - CHAUSSAS - DAUDET", "bikes": 12, "lat": 43.61990748467363, "stands": 8, "update": "2016-02-06T17:52:10"}, "geometry": {"type": "Point", "coordinates": [1.428966282419491, 43.61990748467363]}}, {"type": "Feature", "properties": {"status": "OPEN", "lon": 1.447936286895422, "address": "12 AV BOURGES MAUNOURY", "name": "00153 - BOURGES MAUNOURY", "bikes": 10, "lat": 43.628469420497346, "stands": 8, "update": "2016-02-06T17:53:34"}, "geometry": {"type": "Point", "coordinates": [1.447936286895422, 43.628469420497346]}}, {"type": "Feature", "properties": {"status": "OPEN", "lon": 1.45632, "address": "Devant N\u00b026 Chemin de Borderouge", "name": "00262 - ROND POINT CHEMIN DE BORDEROUGE", "bikes": 1, "lat": 43.64265, "stands": 17, "update": "2016-02-06T17:46:42"}, "geometry": {"type": "Point", "coordinates": [1.45632, 43.64265]}}, {"type": "Feature", "properties": {"status": "OPEN", "lon": 1.458852500499583, "address": "105 RTE DE NARBONNE", "name": "00233 - NARBONNE /SAHUQUE", "bikes": 9, "lat": 43.56641276350635, "stands": 11, "update": "2016-02-06T17:50:45"}, "geometry": {"type": "Point", "coordinates": [1.458852500499583, 43.56641276350635]}}, {"type": "Feature", "properties": {"status": "OPEN", "lon": 1.450245130369442, "address": "63 BD LAZARE CARNOT", "name": "00021 - CARNOT LABEDA", "bikes": 18, "lat": 43.60411143798555, "stands": 7, "update": "2016-02-06T17:54:11"}, "geometry": {"type": "Point", "coordinates": [1.450245130369442, 43.60411143798555]}}, {"type": "Feature", "properties": {"status": "OPEN", "lon": 1.45336004007864, "address": "71 ALL JEAN JAURES", "name": "00062 - JAURES STALINGRAD", "bikes": 1, "lat": 43.609044644058145, "stands": 20, "update": "2016-02-06T17:51:28"}, "geometry": {"type": "Point", "coordinates": [1.45336004007864, 43.609044644058145]}}, {"type": "Feature", "properties": {"status": "OPEN", "lon": 1.443751822397876, "address": "93 RUE ERNEST RENAN ANGLE RUE VITRY", "name": "00244 - RENAN / VITRY", "bikes": 11, "lat": 43.635706776069696, "stands": 7, "update": "2016-02-06T17:50:22"}, "geometry": {"type": "Point", "coordinates": [1.443751822397876, 43.635706776069696]}}, {"type": "Feature", "properties": {"status": "OPEN", "lon": 1.41518438915584, "address": "103 BIS AVENUE DE GRANDE BRETAGNE ANGLE RUE BADIOU", "name": "00245 - GRANDE BRETAGNE / BADIOU", "bikes": 3, "lat": 43.59990824072129, "stands": 16, "update": "2016-02-06T17:51:05"}, "geometry": {"type": "Point", "coordinates": [1.41518438915584, 43.59990824072129]}}, {"type": "Feature", "properties": {"status": "OPEN", "lon": 1.43379, "address": "Avenue duclos angle Avenue de Fronton", "name": "00260 - DUCLOS - FRONTON", "bikes": 13, "lat": 43.64495, "stands": 5, "update": "2016-02-06T17:47:52"}, "geometry": {"type": "Point", "coordinates": [1.43379, 43.64495]}}, {"type": "Feature", "properties": {"status": "OPEN", "lon": 1.464456852027628, "address": "FACE 35 CHEMIN DES MARAICHERS", "name": "00228 - METRO PHARMACIE", "bikes": 0, "lat": 43.567716505871594, "stands": 18, "update": "2016-02-06T17:49:59"}, "geometry": {"type": "Point", "coordinates": [1.464456852027628, 43.567716505871594]}}, {"type": "Feature", "properties": {"status": "OPEN", "lon": 1.43538536091475, "address": "FACE AU 8 RUE PAUL VERLAINE", "name": "00235 - PAUL VERLAINE", "bikes": 12, "lat": 43.6333722270955, "stands": 7, "update": "2016-02-06T17:46:26"}, "geometry": {"type": "Point", "coordinates": [1.43538536091475, 43.6333722270955]}}, {"type": "Feature", "properties": {"status": "OPEN", "lon": 1.439870900566373, "address": "78 BD PIERRE ET MARIE CURIE", "name": "00150 - CURIE CAMPISTRON", "bikes": 15, "lat": 43.62593095954932, "stands": 3, "update": "2016-02-06T17:50:18"}, "geometry": {"type": "Point", "coordinates": [1.439870900566373, 43.62593095954932]}}, {"type": "Feature", "properties": {"status": "OPEN", "lon": 1.39711, "address": "151 AVENUE DE CASSELARDIT SORTIE VILLE 31000 TOULOUSE", "name": "00271 - ANCELY", "bikes": 6, "lat": 43.61948, "stands": 14, "update": "2016-02-06T17:55:13"}, "geometry": {"type": "Point", "coordinates": [1.39711, 43.61948]}}, {"type": "Feature", "properties": {"status": "OPEN", "lon": 1.443570238387108, "address": "11 RUE HENRI BERALDI", "name": "00033 - BERALDI", "bikes": 13, "lat": 43.608568713084686, "stands": 2, "update": "2016-02-06T17:51:34"}, "geometry": {"type": "Point", "coordinates": [1.443570238387108, 43.608568713084686]}}, {"type": "Feature", "properties": {"status": "OPEN", "lon": 1.461191671613412, "address": "RUE HENRI EBELOT", "name": "00172 - NETWILLER / LAFORGUE", "bikes": 13, "lat": 43.642833569777416, "stands": 6, "update": "2016-02-06T17:45:20"}, "geometry": {"type": "Point", "coordinates": [1.461191671613412, 43.642833569777416]}}, {"type": "Feature", "properties": {"status": "OPEN", "lon": 1.420545407442975, "address": "152 ALL DE BARCELONE", "name": "00120 - PONTS JUMEAUX", "bikes": 5, "lat": 43.61035351524297, "stands": 13, "update": "2016-02-06T17:53:43"}, "geometry": {"type": "Point", "coordinates": [1.420545407442975, 43.61035351524297]}}, {"type": "Feature", "properties": {"status": "OPEN", "lon": 1.466442513411802, "address": "42 CHE AMOUROUX", "name": "00217 - AMOUROUX/ ST TROPEZ", "bikes": 12, "lat": 43.629671600633195, "stands": 6, "update": "2016-02-06T17:47:37"}, "geometry": {"type": "Point", "coordinates": [1.466442513411802, 43.629671600633195]}}, {"type": "Feature", "properties": {"status": "OPEN", "lon": 1.450535969934731, "address": "25 AV MAURICE BOURGES MAUNOURY", "name": "00173 - MAUNOURY / SEGELA", "bikes": 11, "lat": 43.6331828272491, "stands": 7, "update": "2016-02-06T17:47:32"}, "geometry": {"type": "Point", "coordinates": [1.450535969934731, 43.6331828272491]}}, {"type": "Feature", "properties": {"status": "OPEN", "lon": 1.413431676051568, "address": "145 RUE HENRI DESBALS", "name": "00143 - DESBALS SAINTONGE", "bikes": 15, "lat": 43.5813322052426, "stands": 5, "update": "2016-02-06T17:54:34"}, "geometry": {"type": "Point", "coordinates": [1.413431676051568, 43.5813322052426]}}, {"type": "Feature", "properties": {"status": "OPEN", "lon": 1.42386687477895, "address": "99 ALL DE BRIENNE", "name": "00106 - BRIENNE PASSERELLE", "bikes": 15, "lat": 43.60842211156853, "stands": 6, "update": "2016-02-06T17:54:06"}, "geometry": {"type": "Point", "coordinates": [1.42386687477895, 43.60842211156853]}}, {"type": "Feature", "properties": {"status": "OPEN", "lon": 1.43288072066524, "address": "1 RUE DE CHAUSSAS", "name": "00123 - CHAUSSAS EMBOUCHURE", "bikes": 9, "lat": 43.61492465117555, "stands": 14, "update": "2016-02-06T17:45:26"}, "geometry": {"type": "Point", "coordinates": [1.43288072066524, 43.61492465117555]}}, {"type": "Feature", "properties": {"status": "OPEN", "lon": 1.442101445768934, "address": "5 RUE DES LOIS", "name": "00006 - LOIS", "bikes": 7, "lat": 43.605203861405954, "stands": 12, "update": "2016-02-06T17:54:49"}, "geometry": {"type": "Point", "coordinates": [1.442101445768934, 43.605203861405954]}}, {"type": "Feature", "properties": {"status": "OPEN", "lon": 1.48346, "address": "CHEMIN DU CHATEAU DE L'HERS ANGLE CHEMIN FONTANELLES 31000 TOULOUSE", "name": "00257 - CHATEAU DE L'HERS", "bikes": 10, "lat": 43.60086, "stands": 6, "update": "2016-02-06T17:47:04"}, "geometry": {"type": "Point", "coordinates": [1.48346, 43.60086]}}, {"type": "Feature", "properties": {"status": "OPEN", "lon": 1.451476646620887, "address": "RUE RAYMOND IV", "name": "00097 - RAYMOND IV", "bikes": 13, "lat": 43.61243588156053, "stands": 8, "update": "2016-02-06T17:55:02"}, "geometry": {"type": "Point", "coordinates": [1.451476646620887, 43.61243588156053]}}, {"type": "Feature", "properties": {"status": "OPEN", "lon": 1.415183785619737, "address": "395 ROUTE DE SAINT SIMON", "name": "00191 - RUE DU 14 JUILLET", "bikes": 3, "lat": 43.58998499389323, "stands": 15, "update": "2016-02-06T17:54:01"}, "geometry": {"type": "Point", "coordinates": [1.415183785619737, 43.58998499389323]}}, {"type": "Feature", "properties": {"status": "OPEN", "lon": 1.449072022617868, "address": "62 BD LAZARE CARNOT", "name": "00019 - CARNOT PERI", "bikes": 24, "lat": 43.60557592007205, "stands": 0, "update": "2016-02-06T17:45:43"}, "geometry": {"type": "Point", "coordinates": [1.449072022617868, 43.60557592007205]}}, {"type": "Feature", "properties": {"status": "OPEN", "lon": 1.465376125032407, "address": "RUE DE LA CHAUMIERE", "name": "00212 - CHAUMIERE/ CRETES", "bikes": 3, "lat": 43.615227374108336, "stands": 14, "update": "2016-02-06T17:51:08"}, "geometry": {"type": "Point", "coordinates": [1.465376125032407, 43.615227374108336]}}, {"type": "Feature", "properties": {"status": "OPEN", "lon": 1.473505161008297, "address": "5 CH CASSAING", "name": "00179 - CASSAING PLANA", "bikes": 10, "lat": 43.61680265241856, "stands": 6, "update": "2016-02-06T17:46:29"}, "geometry": {"type": "Point", "coordinates": [1.473505161008297, 43.61680265241856]}}, {"type": "Feature", "properties": {"status": "OPEN", "lon": 1.463164045792265, "address": "PL ROGER ARNAUD", "name": "00204 - PL. ROGER ARNAUD", "bikes": 3, "lat": 43.58677914294868, "stands": 15, "update": "2016-02-06T17:52:43"}, "geometry": {"type": "Point", "coordinates": [1.463164045792265, 43.58677914294868]}}, {"type": "Feature", "properties": {"status": "OPEN", "lon": 1.456658754907086, "address": "8 ALLEE DE L EGLISE BONNEFOY", "name": "00134 - EGLISE BONNEFOY", "bikes": 4, "lat": 43.61894094381528, "stands": 15, "update": "2016-02-06T17:55:18"}, "geometry": {"type": "Point", "coordinates": [1.456658754907086, 43.61894094381528]}}, {"type": "Feature", "properties": {"status": "OPEN", "lon": 1.452936514925397, "address": "47 ALLEE BRANLY", "name": "00112 - PLACE RUSSEL - BRANLY", "bikes": 10, "lat": 43.585266840172814, "stands": 10, "update": "2016-02-06T17:47:13"}, "geometry": {"type": "Point", "coordinates": [1.452936514925397, 43.585266840172814]}}, {"type": "Feature", "properties": {"status": "OPEN", "lon": 1.424432564672875, "address": "57 Route D'Espagne", "name": "00241 - ESPAGNE CHARPENTIER", "bikes": 12, "lat": 43.574576545136445, "stands": 8, "update": "2016-02-06T17:54:32"}, "geometry": {"type": "Point", "coordinates": [1.424432564672875, 43.574576545136445]}}, {"type": "Feature", "properties": {"status": "OPEN", "lon": 1.42463077628583, "address": "RUE DE CUGNAUX", "name": "00183 - RUE DE CUGNAUX", "bikes": 11, "lat": 43.5931301810241, "stands": 7, "update": "2016-02-06T17:55:03"}, "geometry": {"type": "Point", "coordinates": [1.42463077628583, 43.5931301810241]}}, {"type": "Feature", "properties": {"status": "OPEN", "lon": 1.454339701099757, "address": "18 RUE BONNEFOY", "name": "00126 - ECOLE BONNEFOY", "bikes": 9, "lat": 43.61689063107848, "stands": 13, "update": "2016-02-06T17:49:54"}, "geometry": {"type": "Point", "coordinates": [1.454339701099757, 43.61689063107848]}}, {"type": "Feature", "properties": {"status": "OPEN", "lon": 1.44009, "address": "2 RUE DES MOUETTES ANGLE ALLEES SELLIER 31000 TOULOUSE", "name": "00255 - HENRI SELLIER", "bikes": 9, "lat": 43.57705, "stands": 7, "update": "2016-02-06T17:54:55"}, "geometry": {"type": "Point", "coordinates": [1.44009, 43.57705]}}, {"type": "Feature", "properties": {"status": "OPEN", "lon": 1.450179100392055, "address": "14 PL SAINT ETIENNE", "name": "00024 - PLACE SAINT ETIENNE", "bikes": 17, "lat": 43.600398667412286, "stands": 5, "update": "2016-02-06T17:53:27"}, "geometry": {"type": "Point", "coordinates": [1.450179100392055, 43.600398667412286]}}, {"type": "Feature", "properties": {"status": "OPEN", "lon": 1.458048662941769, "address": "6 RUE JEAN GOUJON", "name": "00196 - GOUJON - GUILHEMERY", "bikes": 2, "lat": 43.6017932127447, "stands": 18, "update": "2016-02-06T17:50:12"}, "geometry": {"type": "Point", "coordinates": [1.458048662941769, 43.6017932127447]}}, {"type": "Feature", "properties": {"status": "OPEN", "lon": 1.44649, "address": "RUE ST ROCH FACE RUE ELVIRE 31000 TOULOUSE", "name": "281 - NIEL", "bikes": 10, "lat": 43.57886, "stands": 8, "update": "2016-02-06T17:50:36"}, "geometry": {"type": "Point", "coordinates": [1.44649, 43.57886]}}, {"type": "Feature", "properties": {"status": "OPEN", "lon": 1.436875386155235, "address": "27 AV DES MINIMES", "name": "00124 - EGLISE DES MINIMES", "bikes": 6, "lat": 43.61814891164924, "stands": 11, "update": "2016-02-06T17:54:10"}, "geometry": {"type": "Point", "coordinates": [1.436875386155235, 43.61814891164924]}}, {"type": "Feature", "properties": {"status": "OPEN", "lon": 1.481508972569192, "address": "FACE 25 RUE DE L AUDE", "name": "00207 - CHRIST ROI", "bikes": 2, "lat": 43.58300698375498, "stands": 15, "update": "2016-02-06T17:49:34"}, "geometry": {"type": "Point", "coordinates": [1.481508972569192, 43.58300698375498]}}, {"type": "Feature", "properties": {"status": "OPEN", "lon": 1.44026, "address": "2 PL DE LA DAURADE", "name": "00011 - PLACE DE LA DAURADE", "bikes": 9, "lat": 43.60215, "stands": 14, "update": "2016-02-06T17:54:45"}, "geometry": {"type": "Point", "coordinates": [1.44026, 43.60215]}}, {"type": "Feature", "properties": {"status": "OPEN", "lon": 1.41112908179427, "address": "1 IMPASSE BACHAGA BOUALAM", "name": "00186 - DESBALS BOUALAM", "bikes": 15, "lat": 43.5792182218804, "stands": 3, "update": "2016-02-06T17:53:18"}, "geometry": {"type": "Point", "coordinates": [1.41112908179427, 43.5792182218804]}}, {"type": "Feature", "properties": {"status": "OPEN", "lon": 1.44404, "address": "161/163 AV DE NEGRENEYS SUR ILOT CENTRAL", "name": "00252 - NEGRENEYS /CASENEUVE", "bikes": 14, "lat": 43.62687, "stands": 3, "update": "2016-02-06T17:49:10"}, "geometry": {"type": "Point", "coordinates": [1.44404, 43.62687]}}, {"type": "Feature", "properties": {"status": "OPEN", "lon": 1.469362217455508, "address": "70 CHEMIN MICHOUN", "name": "00184 - MICHOUN", "bikes": 16, "lat": 43.62727712277727, "stands": 4, "update": "2016-02-06T17:47:40"}, "geometry": {"type": "Point", "coordinates": [1.469362217455508, 43.62727712277727]}}, {"type": "Feature", "properties": {"status": "OPEN", "lon": 1.454915112024358, "address": "35 AV DE RANGUEIL", "name": "00161 - RANGUEIL - BEDOUCE", "bikes": 13, "lat": 43.57644751100008, "stands": 1, "update": "2016-02-06T17:54:28"}, "geometry": {"type": "Point", "coordinates": [1.454915112024358, 43.57644751100008]}}, {"type": "Feature", "properties": {"status": "OPEN", "lon": 1.3972, "address": "avenue des Ar\u00e8nes Romaines, avant place du docteur Baylac 31000 TOULOUSE", "name": "00268 - PLACE BAYLAC", "bikes": 1, "lat": 43.60868, "stands": 21, "update": "2016-02-06T17:45:27"}, "geometry": {"type": "Point", "coordinates": [1.3972, 43.60868]}}, {"type": "Feature", "properties": {"status": "OPEN", "lon": 1.427969819484834, "address": "1 AV PAUL SEJOURNE", "name": "00082 - SEJOURNE CATALANS", "bikes": 4, "lat": 43.605562378447424, "stands": 16, "update": "2016-02-06T17:54:57"}, "geometry": {"type": "Point", "coordinates": [1.427969819484834, 43.605562378447424]}}, {"type": "Feature", "properties": {"status": "OPEN", "lon": 1.43421, "address": "5 PLACE DU FER A CHEVAL", "name": "00070 - FER A CHEVAL", "bikes": 13, "lat": 43.59253, "stands": 5, "update": "2016-02-06T17:47:58"}, "geometry": {"type": "Point", "coordinates": [1.43421, 43.59253]}}, {"type": "Feature", "properties": {"status": "OPEN", "lon": 1.418128481713567, "address": "237 RUE HENRI DESBALS", "name": "00141 - FONTAINE LESTANG", "bikes": 10, "lat": 43.587583195522946, "stands": 7, "update": "2016-02-06T17:47:34"}, "geometry": {"type": "Point", "coordinates": [1.418128481713567, 43.587583195522946]}}, {"type": "Feature", "properties": {"status": "OPEN", "lon": 1.428790629053277, "address": "2 BD SEBASTOPOL", "name": "00108 - SEBASTOPOL - RITAY", "bikes": 5, "lat": 43.612283701347906, "stands": 15, "update": "2016-02-06T17:48:16"}, "geometry": {"type": "Point", "coordinates": [1.428790629053277, 43.612283701347906]}}, {"type": "Feature", "properties": {"status": "OPEN", "lon": 1.430598716260075, "address": "2 BD DU MARECHAL LECLERC", "name": "00085 - MARECHAL LECLERC", "bikes": 1, "lat": 43.606708008560005, "stands": 21, "update": "2016-02-06T17:47:06"}, "geometry": {"type": "Point", "coordinates": [1.430598716260075, 43.606708008560005]}}, {"type": "Feature", "properties": {"status": "OPEN", "lon": 1.476002176599847, "address": "165 AV ANTOINE DE ST EXUPERY", "name": "00202 - ST EX. - COURREGE", "bikes": 0, "lat": 43.58166894906154, "stands": 17, "update": "2016-02-06T17:47:27"}, "geometry": {"type": "Point", "coordinates": [1.476002176599847, 43.58166894906154]}}, {"type": "Feature", "properties": {"status": "OPEN", "lon": 1.453042492588597, "address": "18 ALLEE FREDERIC MISTRAL", "name": "00102 -  MISTRAL - FLEURANCE", "bikes": 7, "lat": 43.593599912488976, "stands": 11, "update": "2016-02-06T17:45:36"}, "geometry": {"type": "Point", "coordinates": [1.453042492588597, 43.593599912488976]}}, {"type": "Feature", "properties": {"status": "OPEN", "lon": 1.438224999266949, "address": "40 PL ANATOLE FRANCE", "name": "00030 - PLACE ANATOLE FRANCE", "bikes": 2, "lat": 43.60629527233212, "stands": 21, "update": "2016-02-06T17:52:43"}, "geometry": {"type": "Point", "coordinates": [1.438224999266949, 43.60629527233212]}}, {"type": "Feature", "properties": {"status": "OPEN", "lon": 1.464148138450798, "address": "FACE 163 CHEMIN NICOLE", "name": "00170 - ROUTE D ALBI   / CUVIER", "bikes": 14, "lat": 43.635666512128225, "stands": 3, "update": "2016-02-06T17:55:18"}, "geometry": {"type": "Point", "coordinates": [1.464148138450798, 43.635666512128225]}}, {"type": "Feature", "properties": {"status": "OPEN", "lon": 1.41954, "address": "296 route de Seysses", "name": "00274 - GALLIENI", "bikes": 10, "lat": 43.574, "stands": 8, "update": "2016-02-06T17:48:24"}, "geometry": {"type": "Point", "coordinates": [1.41954, 43.574]}}, {"type": "Feature", "properties": {"status": "OPEN", "lon": 1.467514131065815, "address": "129 AV DE CASTRES", "name": "00213 - PUJOL/ CHAUBET", "bikes": 0, "lat": 43.60075517705335, "stands": 17, "update": "2016-02-06T17:48:54"}, "geometry": {"type": "Point", "coordinates": [1.467514131065815, 43.60075517705335]}}, {"type": "Feature", "properties": {"status": "OPEN", "lon": 1.441434965295236, "address": "52 RUE DES COUTELIERS", "name": "00049 - COUTELIER - METZ", "bikes": 15, "lat": 43.599589544431005, "stands": 1, "update": "2016-02-06T17:54:03"}, "geometry": {"type": "Point", "coordinates": [1.441434965295236, 43.599589544431005]}}, {"type": "Feature", "properties": {"status": "OPEN", "lon": 1.434650096062823, "address": "41 BD ARMAND DUPORTAL", "name": "00052 - DUPORTAL CITE ADMIN.", "bikes": 2, "lat": 43.60864745421513, "stands": 19, "update": "2016-02-06T17:52:29"}, "geometry": {"type": "Point", "coordinates": [1.434650096062823, 43.60864745421513]}}, {"type": "Feature", "properties": {"status": "OPEN", "lon": 1.43104, "address": "219 AV DE MURET", "name": "00104 - MURET BARTHERE", "bikes": 5, "lat": 43.58903, "stands": 13, "update": "2016-02-06T17:54:32"}, "geometry": {"type": "Point", "coordinates": [1.43104, 43.58903]}}, {"type": "Feature", "properties": {"status": "OPEN", "lon": 1.441331077590377, "address": "1 RUE DE L ESQUILE", "name": "00013 - LOIS ESQUILE", "bikes": 5, "lat": 43.60621318190248, "stands": 10, "update": "2016-02-06T17:52:54"}, "geometry": {"type": "Point", "coordinates": [1.441331077590377, 43.60621318190248]}}, {"type": "Feature", "properties": {"status": "OPEN", "lon": 1.4278, "address": "2 BD DEODAT DE SEVERAC", "name": "00129 - CROIX DE PIERRE", "bikes": 2, "lat": 43.58588, "stands": 14, "update": "2016-02-06T17:54:18"}, "geometry": {"type": "Point", "coordinates": [1.4278, 43.58588]}}, {"type": "Feature", "properties": {"status": "OPEN", "lon": 1.449135738584587, "address": "57 AV DE L URSS", "name": "00158 - URSS ST THOMAS D AQUIN", "bikes": 10, "lat": 43.580795461338795, "stands": 10, "update": "2016-02-06T17:53:05"}, "geometry": {"type": "Point", "coordinates": [1.449135738584587, 43.580795461338795]}}, {"type": "Feature", "properties": {"status": "OPEN", "lon": 1.458930207887618, "address": "RUE CREMON", "name": "00168 - BILA   /  ROUTE D ALBI", "bikes": 1, "lat": 43.626509813353074, "stands": 19, "update": "2016-02-06T17:47:20"}, "geometry": {"type": "Point", "coordinates": [1.458930207887618, 43.626509813353074]}}, {"type": "Feature", "properties": {"status": "OPEN", "lon": 1.46521198710394, "address": "147 RTE D'ALBI", "name": "00249 - CROIX DAURADE", "bikes": 17, "lat": 43.63812899582609, "stands": 2, "update": "2016-02-06T17:45:29"}, "geometry": {"type": "Point", "coordinates": [1.46521198710394, 43.63812899582609]}}, {"type": "Feature", "properties": {"status": "OPEN", "lon": 1.4565, "address": "face au 20 port st sauveur", "name": "00015 - PONT MONTAUDRAN", "bikes": 6, "lat": 43.59642, "stands": 14, "update": "2016-02-06T17:55:18"}, "geometry": {"type": "Point", "coordinates": [1.4565, 43.59642]}}, {"type": "Feature", "properties": {"status": "OPEN", "lon": 1.439230135508607, "address": "ROUTE DE LAUNAGUET ANGLE CHEMIN AUDIBERT", "name": "00247 - LAUNAGUET / AUDIBERT", "bikes": 8, "lat": 43.63677495879212, "stands": 9, "update": "2016-02-06T17:49:52"}, "geometry": {"type": "Point", "coordinates": [1.439230135508607, 43.63677495879212]}}, {"type": "Feature", "properties": {"status": "OPEN", "lon": 1.435181557097925, "address": "34 RUE DE LA REPUBLIQUE", "name": "00076 - REPUBLIQUE PL. OLIVIER", "bikes": 22, "lat": 43.59849490883457, "stands": 0, "update": "2016-02-06T17:54:20"}, "geometry": {"type": "Point", "coordinates": [1.435181557097925, 43.59849490883457]}}, {"type": "Feature", "properties": {"status": "OPEN", "lon": 1.415377349047291, "address": "59 AV DE LOMBEZ", "name": "00193 - LOMBEZ / PETITE VITESSE", "bikes": 2, "lat": 43.594849382545554, "stands": 18, "update": "2016-02-06T17:49:05"}, "geometry": {"type": "Point", "coordinates": [1.415377349047291, 43.594849382545554]}}, {"type": "Feature", "properties": {"status": "OPEN", "lon": 1.423916022506519, "address": "39 RTE D'Espagne", "name": "00190 - ESPAGNE LES OUSTALOUS", "bikes": 15, "lat": 43.57827536338912, "stands": 5, "update": "2016-02-06T17:53:33"}, "geometry": {"type": "Point", "coordinates": [1.423916022506519, 43.57827536338912]}}, {"type": "Feature", "properties": {"status": "OPEN", "lon": 1.43168347755474, "address": "AV DES Etats-Unis FACE AU 68 / 70", "name": "00253 - ETATS-UNIS / ROBERT", "bikes": 13, "lat": 43.6319121122554, "stands": 7, "update": "2016-02-06T17:53:25"}, "geometry": {"type": "Point", "coordinates": [1.43168347755474, 43.6319121122554]}}, {"type": "Feature", "properties": {"status": "OPEN", "lon": 1.47765639323401, "address": "3 Place SOUPETARD", "name": "00180 - PLACE SOUPETARD", "bikes": 7, "lat": 43.6122515815792, "stands": 11, "update": "2016-02-06T17:54:29"}, "geometry": {"type": "Point", "coordinates": [1.47765639323401, 43.6122515815792]}}, {"type": "Feature", "properties": {"status": "OPEN", "lon": 1.460094426022393, "address": "AV ALBERT BEDOUCE", "name": "00164 - BEDOUCE SAOUZELONG", "bikes": 4, "lat": 43.579725432743686, "stands": 16, "update": "2016-02-06T17:54:59"}, "geometry": {"type": "Point", "coordinates": [1.460094426022393, 43.579725432743686]}}, {"type": "Feature", "properties": {"status": "OPEN", "lon": 1.434843235786321, "address": "1 BD ARMAND DUPORTAL", "name": "00051 - DUPORTAL BRIENNE", "bikes": 3, "lat": 43.605035688745794, "stands": 15, "update": "2016-02-06T17:53:24"}, "geometry": {"type": "Point", "coordinates": [1.434843235786321, 43.605035688745794]}}, {"type": "Feature", "properties": {"status": "OPEN", "lon": 1.4469, "address": "1 RUE RAYMOND IV", "name": "00035 - PLACE JEANNE D'ARC", "bikes": 4, "lat": 43.60964, "stands": 21, "update": "2016-02-06T17:48:12"}, "geometry": {"type": "Point", "coordinates": [1.4469, 43.60964]}}, {"type": "Feature", "properties": {"status": "OPEN", "lon": 1.45174992410964, "address": "1 ALL FORAIN FRANCOIS VERDIER", "name": "00044 - PALAIS NIEL", "bikes": 9, "lat": 43.59800264157314, "stands": 13, "update": "2016-02-06T17:51:11"}, "geometry": {"type": "Point", "coordinates": [1.45174992410964, 43.59800264157314]}}, {"type": "Feature", "properties": {"status": "OPEN", "lon": 1.466308391813157, "address": "191 RTE D'ALBI", "name": "00171 - ROUTE D ALBI / CACTUS", "bikes": 14, "lat": 43.640897350426606, "stands": 4, "update": "2016-02-06T17:47:08"}, "geometry": {"type": "Point", "coordinates": [1.466308391813157, 43.640897350426606]}}, {"type": "Feature", "properties": {"status": "OPEN", "lon": 1.45491780578712, "address": "AV D' ITALIE", "name": "00162 - PLACE D'ITALIE", "bikes": 2, "lat": 43.580276538637605, "stands": 15, "update": "2016-02-06T17:51:15"}, "geometry": {"type": "Point", "coordinates": [1.45491780578712, 43.580276538637605]}}, {"type": "Feature", "properties": {"status": "OPEN", "lon": 1.43922052825561, "address": "7 RUE DES SALENQUES", "name": "00031 - SALENQUES", "bikes": 3, "lat": 43.60749002329994, "stands": 17, "update": "2016-02-06T17:47:36"}, "geometry": {"type": "Point", "coordinates": [1.43922052825561, 43.60749002329994]}}, {"type": "Feature", "properties": {"status": "OPEN", "lon": 1.41997369298729, "address": "3 BD JEAN BRUNHES", "name": "00138 - BARRIERE DE BAYONNE", "bikes": 1, "lat": 43.598196214598815, "stands": 18, "update": "2016-02-06T17:45:42"}, "geometry": {"type": "Point", "coordinates": [1.41997369298729, 43.598196214598815]}}, {"type": "Feature", "properties": {"status": "OPEN", "lon": 1.459836309553229, "address": "80 ALL DES DEMOISELLES", "name": "00098 - PONT DES DEMOISELLES", "bikes": 6, "lat": 43.587677990128874, "stands": 16, "update": "2016-02-06T17:54:27"}, "geometry": {"type": "Point", "coordinates": [1.459836309553229, 43.587677990128874]}}, {"type": "Feature", "properties": {"status": "OPEN", "lon": 1.446610770547085, "address": "32 BD DE STRASBOURG", "name": "00016 - STRASBOURG BAYARD", "bikes": 10, "lat": 43.60793763027584, "stands": 10, "update": "2016-02-06T17:51:45"}, "geometry": {"type": "Point", "coordinates": [1.446610770547085, 43.60793763027584]}}, {"type": "Feature", "properties": {"status": "OPEN", "lon": 1.473457600659471, "address": "FACE 25 CHEMIN LAFILAIRE", "name": "00198 - LAFILAIRE - DELTOUR", "bikes": 0, "lat": 43.59622771557735, "stands": 20, "update": "2016-02-06T17:54:33"}, "geometry": {"type": "Point", "coordinates": [1.473457600659471, 43.59622771557735]}}, {"type": "Feature", "properties": {"status": "OPEN", "lon": 1.442808436675486, "address": "1 RUE MERLY", "name": "00056 - SAINT SERNIN  MERLY", "bikes": 6, "lat": 43.609029818757634, "stands": 9, "update": "2016-02-06T17:49:12"}, "geometry": {"type": "Point", "coordinates": [1.442808436675486, 43.609029818757634]}}, {"type": "Feature", "properties": {"status": "OPEN", "lon": 1.428493330933498, "address": "57 CH DU SANG DE SERP", "name": "00146 - SANG DE SERP - DAGNAUX", "bikes": 9, "lat": 43.61541821044434, "stands": 11, "update": "2016-02-06T17:47:07"}, "geometry": {"type": "Point", "coordinates": [1.428493330933498, 43.61541821044434]}}, {"type": "Feature", "properties": {"status": "OPEN", "lon": 1.37764, "address": "Place Sauvegrain - angle avenue de Lardenne", "name": "00269 - PLACE SAUVEGRAIN", "bikes": 17, "lat": 43.58996, "stands": 1, "update": "2016-02-06T17:49:44"}, "geometry": {"type": "Point", "coordinates": [1.37764, 43.58996]}}, {"type": "Feature", "properties": {"status": "OPEN", "lon": 1.425222752953333, "address": "4 AVENUE DU CH\u00c2TEAU D'EAU", "name": "00095 - THEATRE GARONNE", "bikes": 4, "lat": 43.602528105503815, "stands": 18, "update": "2016-02-06T17:48:51"}, "geometry": {"type": "Point", "coordinates": [1.425222752953333, 43.602528105503815]}}, {"type": "Feature", "properties": {"status": "OPEN", "lon": 1.441220679302088, "address": "31 RUE DES CHALETS", "name": "00092 - CHALETS", "bikes": 1, "lat": 43.61325027179293, "stands": 12, "update": "2016-02-06T17:46:15"}, "geometry": {"type": "Point", "coordinates": [1.441220679302088, 43.61325027179293]}}, {"type": "Feature", "properties": {"status": "OPEN", "lon": 1.451651418090918, "address": "56 ALL JEAN JAURES", "name": "00038 - JAURES BACHELIER", "bikes": 3, "lat": 43.60754756868432, "stands": 16, "update": "2016-02-06T17:50:40"}, "geometry": {"type": "Point", "coordinates": [1.451651418090918, 43.60754756868432]}}, {"type": "Feature", "properties": {"status": "OPEN", "lon": 1.41868, "address": "PLACE EMILE MALE", "name": "00140 - EMILE MALE", "bikes": 18, "lat": 43.59175, "stands": 10, "update": "2016-02-06T17:54:21"}, "geometry": {"type": "Point", "coordinates": [1.41868, 43.59175]}}, {"type": "Feature", "properties": {"status": "OPEN", "lon": 1.458008846441328, "address": "1 RUE DU GENERAL COMPANS", "name": "00176 - GENERAL COMPANS", "bikes": 0, "lat": 43.606790468455905, "stands": 18, "update": "2016-02-06T17:51:27"}, "geometry": {"type": "Point", "coordinates": [1.458008846441328, 43.606790468455905]}}, {"type": "Feature", "properties": {"status": "OPEN", "lon": 1.479772209704475, "address": "AVENUE EDOUARD BELIN FACE CNRS", "name": "00237 - CNRS", "bikes": 1, "lat": 43.56361464501064, "stands": 19, "update": "2016-02-06T17:45:24"}, "geometry": {"type": "Point", "coordinates": [1.479772209704475, 43.56361464501064]}}, {"type": "Feature", "properties": {"status": "OPEN", "lon": 1.464668419108617, "address": "20 AV ARMAND LEYGUE", "name": "00206 - LEYGUE/ RIEUX", "bikes": 3, "lat": 43.594341505924845, "stands": 15, "update": "2016-02-06T17:49:45"}, "geometry": {"type": "Point", "coordinates": [1.464668419108617, 43.594341505924845]}}, {"type": "Feature", "properties": {"status": "OPEN", "lon": 1.435070094381549, "address": "17T BD LASCROSSES", "name": "00088 - DUPORTAL LASCROSSES", "bikes": 23, "lat": 43.610250914040755, "stands": 2, "update": "2016-02-06T17:55:07"}, "geometry": {"type": "Point", "coordinates": [1.435070094381549, 43.610250914040755]}}, {"type": "Feature", "properties": {"status": "OPEN", "lon": 1.436628759028233, "address": "1 ESP COMPANS CAFFARELLI", "name": "00089 - ESP COMPANS CAFFARELLI", "bikes": 2, "lat": 43.611036915218165, "stands": 21, "update": "2016-02-06T17:55:11"}, "geometry": {"type": "Point", "coordinates": [1.436628759028233, 43.611036915218165]}}, {"type": "Feature", "properties": {"status": "OPEN", "lon": 1.455674042776099, "address": "16 ALL PAUL SABATIER", "name": "00100 - PORT ST SAUVEUR", "bikes": 8, "lat": 43.59697406705044, "stands": 11, "update": "2016-02-06T17:53:18"}, "geometry": {"type": "Point", "coordinates": [1.455674042776099, 43.59697406705044]}}, {"type": "Feature", "properties": {"status": "OPEN", "lon": 1.475849028782433, "address": "FACE 8 RUE DE GAILLAC", "name": "00215 - METRO ARGOULETS", "bikes": 3, "lat": 43.623814424096544, "stands": 17, "update": "2016-02-06T17:52:33"}, "geometry": {"type": "Point", "coordinates": [1.475849028782433, 43.623814424096544]}}, {"type": "Feature", "properties": {"status": "OPEN", "lon": 1.439762556768512, "address": "10 RUE DE LA CHAINE", "name": "00054 - CHAINE", "bikes": 3, "lat": 43.60842033750804, "stands": 14, "update": "2016-02-06T17:45:22"}, "geometry": {"type": "Point", "coordinates": [1.439762556768512, 43.60842033750804]}}, {"type": "Feature", "properties": {"status": "OPEN", "lon": 1.448047137954633, "address": "19 RUE PAUL VIDAL", "name": "00008 - ESPACE SAINT GEORGES", "bikes": 19, "lat": 43.60307769477977, "stands": 5, "update": "2016-02-06T17:51:40"}, "geometry": {"type": "Point", "coordinates": [1.448047137954633, 43.60307769477977]}}, {"type": "Feature", "properties": {"status": "OPEN", "lon": 1.37708, "address": "10/12 rue zamenhof - 31000 TOuLOUSE", "name": "00277 - ZAMENHOF", "bikes": 9, "lat": 43.58549, "stands": 9, "update": "2016-02-06T17:55:16"}, "geometry": {"type": "Point", "coordinates": [1.37708, 43.58549]}}, {"type": "Feature", "properties": {"status": "OPEN", "lon": 1.473660631896838, "address": "48 AV DE CASTRES", "name": "00214 - CASTRES/ ACHIARY", "bikes": 0, "lat": 43.600795440313355, "stands": 17, "update": "2016-02-06T17:45:20"}, "geometry": {"type": "Point", "coordinates": [1.473660631896838, 43.600795440313355]}}, {"type": "Feature", "properties": {"status": "OPEN", "lon": 1.458007861390548, "address": "8 BD MONPLAISIR", "name": "00114 - BD MONTPLAISIR - CANAL", "bikes": 9, "lat": 43.59239101222708, "stands": 11, "update": "2016-02-06T17:53:48"}, "geometry": {"type": "Point", "coordinates": [1.458007861390548, 43.59239101222708]}}, {"type": "Feature", "properties": {"status": "OPEN", "lon": 1.445285876671779, "address": "21 RUE LAFAYETTE", "name": "00002 - LAFAYETTE", "bikes": 24, "lat": 43.60485265221502, "stands": 0, "update": "2016-02-06T17:51:50"}, "geometry": {"type": "Point", "coordinates": [1.445285876671779, 43.60485265221502]}}, {"type": "Feature", "properties": {"status": "OPEN", "lon": 1.470276283956405, "address": "4 BD DELTOUR", "name": "00199 - DELTOUR - RIEUX", "bikes": 0, "lat": 43.591528310013615, "stands": 22, "update": "2016-02-06T17:55:19"}, "geometry": {"type": "Point", "coordinates": [1.470276283956405, 43.591528310013615]}}, {"type": "Feature", "properties": {"status": "OPEN", "lon": 1.478340741030179, "address": "AVENUE EDOUARD BELIN ANGLE AV ROCHE", "name": "00223 - ENAC", "bikes": 2, "lat": 43.565104300575406, "stands": 20, "update": "2016-02-06T17:54:51"}, "geometry": {"type": "Point", "coordinates": [1.478340741030179, 43.565104300575406]}}, {"type": "Feature", "properties": {"status": "OPEN", "lon": 1.44544233356215, "address": "15 PL ETIENNE ESQUIROL", "name": "00010 - PLACE ESQUIROL", "bikes": 33, "lat": 43.6003776908545, "stands": 0, "update": "2016-02-06T17:55:13"}, "geometry": {"type": "Point", "coordinates": [1.44544233356215, 43.6003776908545]}}, {"type": "Feature", "properties": {"status": "OPEN", "lon": 1.414428635946386, "address": "RUE DU 11 NOVEMBRE", "name": "00250 - 11 NOVEMBRE", "bikes": 11, "lat": 43.593097534292575, "stands": 6, "update": "2016-02-06T17:54:40"}, "geometry": {"type": "Point", "coordinates": [1.414428635946386, 43.593097534292575]}}, {"type": "Feature", "properties": {"status": "OPEN", "lon": 1.447014394243565, "address": "10 RUE THEODORE OZENNE", "name": "00045 - OZENNE", "bikes": 3, "lat": 43.596327873693475, "stands": 13, "update": "2016-02-06T17:52:27"}, "geometry": {"type": "Point", "coordinates": [1.447014394243565, 43.596327873693475]}}, {"type": "Feature", "properties": {"status": "OPEN", "lon": 1.428253851896989, "address": "2 AV PAUL SEJOURNE", "name": "00083 - SEJOURNE AMIDONNIERS", "bikes": 0, "lat": 43.6055917312578, "stands": 17, "update": "2016-02-06T17:55:08"}, "geometry": {"type": "Point", "coordinates": [1.428253851896989, 43.6055917312578]}}, {"type": "Feature", "properties": {"status": "OPEN", "lon": 1.445531445171338, "address": "12 RUE DU LANGUEDOC", "name": "00047 - NAZARETH LANGUEDOC", "bikes": 11, "lat": 43.59546175758775, "stands": 14, "update": "2016-02-06T17:46:45"}, "geometry": {"type": "Point", "coordinates": [1.445531445171338, 43.59546175758775]}}, {"type": "Feature", "properties": {"status": "OPEN", "lon": 1.465370657992508, "address": "RANGUEIL / CL ROCHE", "name": "00231 - NARBONNE MARFAING", "bikes": 5, "lat": 43.557243695153005, "stands": 15, "update": "2016-02-06T17:45:54"}, "geometry": {"type": "Point", "coordinates": [1.465370657992508, 43.557243695153005]}}, {"type": "Feature", "properties": {"status": "OPEN", "lon": 1.474057401308612, "address": "3 RUE JEAN HOUDON", "name": "00216 - ARGOULETS HOUDON", "bikes": 3, "lat": 43.622829380921075, "stands": 14, "update": "2016-02-06T17:45:20"}, "geometry": {"type": "Point", "coordinates": [1.474057401308612, 43.622829380921075]}}, {"type": "Feature", "properties": {"status": "OPEN", "lon": 1.410651114174017, "address": "138 AV DE LOMBEZ", "name": "00194 - LOMBEZ / HIPPODROME", "bikes": 10, "lat": 43.594206765269206, "stands": 10, "update": "2016-02-06T17:54:28"}, "geometry": {"type": "Point", "coordinates": [1.410651114174017, 43.594206765269206]}}, {"type": "Feature", "properties": {"status": "OPEN", "lon": 1.39867, "address": "87 AVENUE JEAN BAYLET ANGLE CHEMIN CEPIERES", "name": "00263 - LYCEE POLYVALENT", "bikes": 5, "lat": 43.58444, "stands": 13, "update": "2016-02-06T17:49:48"}, "geometry": {"type": "Point", "coordinates": [1.39867, 43.58444]}}, {"type": "Feature", "properties": {"status": "OPEN", "lon": 1.462248097516892, "address": "65 RTE D'ALBI", "name": "00169 - ALBI  / JAFFARY", "bikes": 15, "lat": 43.63124672931264, "stands": 2, "update": "2016-02-06T17:52:55"}, "geometry": {"type": "Point", "coordinates": [1.462248097516892, 43.63124672931264]}}, {"type": "Feature", "properties": {"status": "OPEN", "lon": 1.452939708828422, "address": "9 PL DE DAMLOUP", "name": "00039 - PLACE DAMLOUP", "bikes": 5, "lat": 43.60583232118379, "stands": 14, "update": "2016-02-06T17:47:17"}, "geometry": {"type": "Point", "coordinates": [1.452939708828422, 43.60583232118379]}}, {"type": "Feature", "properties": {"status": "OPEN", "lon": 1.48049587613679, "address": "256 AV ANTOINE DE ST EXUPERY", "name": "00201 - POTEZ -ST EXUPERY", "bikes": 1, "lat": 43.57965532664315, "stands": 17, "update": "2016-02-06T17:49:15"}, "geometry": {"type": "Point", "coordinates": [1.48049587613679, 43.57965532664315]}}, {"type": "Feature", "properties": {"status": "OPEN", "lon": 1.456321836591291, "address": "5 PORT SAINT SAUVEUR", "name": "00101 - CAPT PORT ST SAUVEUR", "bikes": 7, "lat": 43.59426485044087, "stands": 13, "update": "2016-02-06T17:54:06"}, "geometry": {"type": "Point", "coordinates": [1.456321836591291, 43.59426485044087]}}, {"type": "Feature", "properties": {"status": "OPEN", "lon": 1.47643, "address": "Boulevard Atlanta / Cambard", "name": "00258 - CAMBARD", "bikes": 3, "lat": 43.62957, "stands": 15, "update": "2016-02-06T17:51:10"}, "geometry": {"type": "Point", "coordinates": [1.47643, 43.62957]}}, {"type": "Feature", "properties": {"status": "OPEN", "lon": 1.450284083376377, "address": "96 AV JULES JULIEN", "name": "00159 - U.R.S.S DEVIC", "bikes": 17, "lat": 43.5785038852904, "stands": 3, "update": "2016-02-06T17:55:16"}, "geometry": {"type": "Point", "coordinates": [1.450284083376377, 43.5785038852904]}}, {"type": "Feature", "properties": {"status": "OPEN", "lon": 1.432688307877285, "address": "23 ALL CHARLES DE FITTE", "name": "00072 - FITTE CUGNAUX", "bikes": 7, "lat": 43.59504949175626, "stands": 13, "update": "2016-02-06T17:54:32"}, "geometry": {"type": "Point", "coordinates": [1.432688307877285, 43.59504949175626]}}, {"type": "Feature", "properties": {"status": "OPEN", "lon": 1.4401, "address": "Devant le N\u00b06 rue Van Dyck avant angle rue Raphael - 31000 TOULOUSE", "name": "00261 - VAN DYCK - LAUNAGUET", "bikes": 2, "lat": 43.64066, "stands": 16, "update": "2016-02-06T17:51:47"}, "geometry": {"type": "Point", "coordinates": [1.4401, 43.64066]}}, {"type": "Feature", "properties": {"status": "OPEN", "lon": 1.443059611732516, "address": "27 BD PIERRE ET MARIE CURIE", "name": "00151 - CURIE - NEGRENEYS", "bikes": 17, "lat": 43.62459108857192, "stands": 7, "update": "2016-02-06T17:47:28"}, "geometry": {"type": "Point", "coordinates": [1.443059611732516, 43.62459108857192]}}, {"type": "Feature", "properties": {"status": "OPEN", "lon": 1.473118127213999, "address": "AVENUE DES HERBETTES", "name": "00238 - HERBETTES / BUTTE", "bikes": 3, "lat": 43.579425835630786, "stands": 14, "update": "2016-02-06T17:45:39"}, "geometry": {"type": "Point", "coordinates": [1.473118127213999, 43.579425835630786]}}, {"type": "Feature", "properties": {"status": "OPEN", "lon": 1.429275168509917, "address": "89B ALL CHARLES DE FITTE", "name": "00080 - FITTE VARSI", "bikes": 6, "lat": 43.59970386767416, "stands": 17, "update": "2016-02-06T17:51:47"}, "geometry": {"type": "Point", "coordinates": [1.429275168509917, 43.59970386767416]}}, {"type": "Feature", "properties": {"status": "OPEN", "lon": 1.4431072280246, "address": "15 RUE MERLY", "name": "00057 - MERLY ARCOLE", "bikes": 9, "lat": 43.610488427425665, "stands": 6, "update": "2016-02-06T17:54:56"}, "geometry": {"type": "Point", "coordinates": [1.4431072280246, 43.610488427425665]}}, {"type": "Feature", "properties": {"status": "OPEN", "lon": 1.443637125697445, "address": "4 RUE DE LA CONCORDE", "name": "00058 - CONCORDE ARCOLE", "bikes": 2, "lat": 43.6106186453129, "stands": 23, "update": "2016-02-06T17:55:04"}, "geometry": {"type": "Point", "coordinates": [1.443637125697445, 43.6106186453129]}}, {"type": "Feature", "properties": {"status": "OPEN", "lon": 1.47297, "address": "Boulevard Atlanta / apr\u00e8s angle rue vasseur - 31000 TOULOUSE", "name": "00272 - ANDRE VASSEUR", "bikes": 10, "lat": 43.63539, "stands": 7, "update": "2016-02-06T17:48:52"}, "geometry": {"type": "Point", "coordinates": [1.47297, 43.63539]}}, {"type": "Feature", "properties": {"status": "OPEN", "lon": 1.47517386253435, "address": "AVENUE DU COLONEL ROCHE", "name": "00222 - CAMBOU / ROCHE", "bikes": 5, "lat": 43.5628140764194, "stands": 15, "update": "2016-02-06T17:53:30"}, "geometry": {"type": "Point", "coordinates": [1.47517386253435, 43.5628140764194]}}, {"type": "Feature", "properties": {"status": "OPEN", "lon": 1.442047437838665, "address": "15 RUE SAINTE URSULE", "name": "00004 - STE URSULE", "bikes": 16, "lat": 43.60233609279122, "stands": 4, "update": "2016-02-06T17:49:43"}, "geometry": {"type": "Point", "coordinates": [1.442047437838665, 43.60233609279122]}}, {"type": "Feature", "properties": {"status": "OPEN", "lon": 1.414531359571464, "address": "RUE DES FONTAINES", "name": "00136 - FONTAINES", "bikes": 4, "lat": 43.602050919601446, "stands": 11, "update": "2016-02-06T17:48:51"}, "geometry": {"type": "Point", "coordinates": [1.414531359571464, 43.602050919601446]}}, {"type": "Feature", "properties": {"status": "OPEN", "lon": 1.42438, "address": "BD DEODAT DE SEVERAC", "name": "00142 - SEVERAC", "bikes": 8, "lat": 43.58807, "stands": 11, "update": "2016-02-06T17:48:13"}, "geometry": {"type": "Point", "coordinates": [1.42438, 43.58807]}}, {"type": "Feature", "properties": {"status": "OPEN", "lon": 1.481957162051808, "address": "AV JEAN CHAUBET", "name": "00182 - CHAUBET", "bikes": 10, "lat": 43.60593083247726, "stands": 10, "update": "2016-02-06T17:51:52"}, "geometry": {"type": "Point", "coordinates": [1.481957162051808, 43.60593083247726]}}, {"type": "Feature", "properties": {"status": "OPEN", "lon": 1.451479779266325, "address": "73 BD PIERRE SEMARD", "name": "00094 - SEMARD GARE ROUTIERE", "bikes": 19, "lat": 43.613829128033615, "stands": 3, "update": "2016-02-06T17:52:11"}, "geometry": {"type": "Point", "coordinates": [1.451479779266325, 43.613829128033615]}}, {"type": "Feature", "properties": {"status": "OPEN", "lon": 1.455945448109943, "address": "1 RUE BEGUE", "name": "00127 - BEGUE - DEMOISELLES", "bikes": 5, "lat": 43.589803552331645, "stands": 8, "update": "2016-02-06T17:53:23"}, "geometry": {"type": "Point", "coordinates": [1.455945448109943, 43.589803552331645]}}, {"type": "Feature", "properties": {"status": "OPEN", "lon": 1.40142, "address": "229 AVENUE DE CASSELARDIT CROISEMENT ESPAGNO / CASSELARDIT 31000 TOULOUSE", "name": "00279 - GUY ESPAGNO", "bikes": 3, "lat": 43.61354, "stands": 15, "update": "2016-02-06T17:54:42"}, "geometry": {"type": "Point", "coordinates": [1.40142, 43.61354]}}, {"type": "Feature", "properties": {"status": "OPEN", "lon": 1.4616307898919, "address": "26 AVENUE LEON BLUM ANGLE RUE LEON JOUHAUX", "name": "00251 - BLUM / JOUHAUX", "bikes": 2, "lat": 43.614208387732, "stands": 18, "update": "2016-02-06T17:45:52"}, "geometry": {"type": "Point", "coordinates": [1.4616307898919, 43.614208387732]}}, {"type": "Feature", "properties": {"status": "OPEN", "lon": 1.407211289929025, "address": "292 RUE DES FONTAINES", "name": "00226 - FONTAINES /CASSELARDIT", "bikes": 8, "lat": 43.60419040838992, "stands": 9, "update": "2016-02-06T17:49:57"}, "geometry": {"type": "Point", "coordinates": [1.407211289929025, 43.60419040838992]}}, {"type": "Feature", "properties": {"status": "OPEN", "lon": 1.430120187266013, "address": "57 BD DE L EMBOUCHURE", "name": "00122 - PASSERELLE HAEDENS", "bikes": 2, "lat": 43.613472358330974, "stands": 17, "update": "2016-02-06T17:55:17"}, "geometry": {"type": "Point", "coordinates": [1.430120187266013, 43.613472358330974]}}, {"type": "Feature", "properties": {"status": "OPEN", "lon": 1.443005133993703, "address": "9 RUE HENRY DE GORSSE", "name": "00026 - DALBADE - DE GORSSE", "bikes": 0, "lat": 43.59804753924319, "stands": 22, "update": "2016-02-06T17:52:14"}, "geometry": {"type": "Point", "coordinates": [1.443005133993703, 43.59804753924319]}}, {"type": "Feature", "properties": {"status": "OPEN", "lon": 1.467678323560475, "address": "141 AV DE RANGUEIL", "name": "00230 - RANGUEIL TRIPODE B", "bikes": 0, "lat": 43.567221153708445, "stands": 20, "update": "2016-02-06T17:52:26"}, "geometry": {"type": "Point", "coordinates": [1.467678323560475, 43.567221153708445]}}, {"type": "Feature", "properties": {"status": "OPEN", "lon": 1.456048100267833, "address": "3 BD PR LEOPOLD ESCANDE", "name": "00042 - DAURIAC ESCANDE", "bikes": 3, "lat": 43.601588174955744, "stands": 17, "update": "2016-02-06T17:55:10"}, "geometry": {"type": "Point", "coordinates": [1.456048100267833, 43.601588174955744]}}, {"type": "Feature", "properties": {"status": "OPEN", "lon": 1.411359591750251, "address": "35 RUE PUCCINI", "name": "00219 - PUCCINI/ BLAGNAC", "bikes": 13, "lat": 43.614589794633694, "stands": 5, "update": "2016-02-06T17:50:22"}, "geometry": {"type": "Point", "coordinates": [1.411359591750251, 43.614589794633694]}}, {"type": "Feature", "properties": {"status": "OPEN", "lon": 1.462194464667426, "address": "115 AV ALBERT BEDOUCE", "name": "00163 - BEDOUCE / MIDI", "bikes": 4, "lat": 43.581459211587536, "stands": 16, "update": "2016-02-06T17:51:24"}, "geometry": {"type": "Point", "coordinates": [1.462194464667426, 43.581459211587536]}}, {"type": "Feature", "properties": {"status": "OPEN", "lon": 1.435597311467436, "address": "71 AV DES MINIMES", "name": "00133 - MARCHE AUX COCHONS", "bikes": 13, "lat": 43.620735968782895, "stands": 9, "update": "2016-02-06T17:50:56"}, "geometry": {"type": "Point", "coordinates": [1.435597311467436, 43.620735968782895]}}, {"type": "Feature", "properties": {"status": "OPEN", "lon": 1.47508540800772, "address": "58 AV DES COTTAGES", "name": "00205 - COTTAGE/ RIEUX", "bikes": 6, "lat": 43.58588613821349, "stands": 12, "update": "2016-02-06T17:53:02"}, "geometry": {"type": "Point", "coordinates": [1.47508540800772, 43.58588613821349]}}, {"type": "Feature", "properties": {"status": "OPEN", "lon": 1.428450231443648, "address": "23 RUE DU BEARNAIS", "name": "00086 - HERACLES - BEARNAIS", "bikes": 1, "lat": 43.60802027853654, "stands": 19, "update": "2016-02-06T17:55:13"}, "geometry": {"type": "Point", "coordinates": [1.428450231443648, 43.60802027853654]}}, {"type": "Feature", "properties": {"status": "OPEN", "lon": 1.451093339873272, "address": "HUIT MAI 1945", "name": "00066 - JARDIN ROYAL", "bikes": 8, "lat": 43.596478222107635, "stands": 15, "update": "2016-02-06T17:53:57"}, "geometry": {"type": "Point", "coordinates": [1.451093339873272, 43.596478222107635]}}, {"type": "Feature", "properties": {"status": "OPEN", "lon": 1.408124460028565, "address": "FACE 103 BIS ROUTE DE BLAGNAC", "name": "00240 - RTE DE BLAGNAC / JOB", "bikes": 17, "lat": 43.6172496485261, "stands": 1, "update": "2016-02-06T17:50:30"}, "geometry": {"type": "Point", "coordinates": [1.408124460028565, 43.6172496485261]}}, {"type": "Feature", "properties": {"status": "OPEN", "lon": 1.41476, "address": "BD RICHARD WAGNER / ANGLE A.VIVALDI 31000 TOULOUSE", "name": "282 - RICHARD WAGNER", "bikes": 14, "lat": 43.60614, "stands": 4, "update": "2016-02-06T17:50:48"}, "geometry": {"type": "Point", "coordinates": [1.41476, 43.60614]}}, {"type": "Feature", "properties": {"status": "OPEN", "lon": 1.448244408330328, "address": "4 BD DE STRASBOURG", "name": "00018 - STRASBOURG JEAN JAURES", "bikes": 21, "lat": 43.60629718770727, "stands": 4, "update": "2016-02-06T17:53:39"}, "geometry": {"type": "Point", "coordinates": [1.448244408330328, 43.60629718770727]}}, {"type": "Feature", "properties": {"status": "OPEN", "lon": 1.44002, "address": "66 RUE PARGAMINIERES", "name": "00012 - PARGAMINIERES", "bikes": 11, "lat": 43.60459, "stands": 0, "update": "2016-02-06T17:53:45"}, "geometry": {"type": "Point", "coordinates": [1.44002, 43.60459]}}, {"type": "Feature", "properties": {"status": "OPEN", "lon": 1.425882273289917, "address": "39 AVENUE ETIENNE BILLIERES", "name": "00117 - BILLIERES -POSTE", "bikes": 15, "lat": 43.596852956620715, "stands": 5, "update": "2016-02-06T17:52:27"}, "geometry": {"type": "Point", "coordinates": [1.425882273289917, 43.596852956620715]}}, {"type": "Feature", "properties": {"status": "OPEN", "lon": 1.454093824286969, "address": "14 PL DOMINIQUE MARTIN DUPUY", "name": "00043 - DUPUY", "bikes": 10, "lat": 43.599990271041186, "stands": 12, "update": "2016-02-06T15:53:13"}, "geometry": {"type": "Point", "coordinates": [1.454093824286969, 43.599990271041186]}}, {"type": "Feature", "properties": {"status": "OPEN", "lon": 1.452455826571967, "address": "8T BD DE BONREPOS", "name": "00061 - BONREPOS", "bikes": 13, "lat": 43.61071810091073, "stands": 15, "update": "2016-02-06T17:50:24"}, "geometry": {"type": "Point", "coordinates": [1.452455826571967, 43.61071810091073]}}, {"type": "Feature", "properties": {"status": "OPEN", "lon": 1.460187742067113, "address": "33 AVENUE DES AVIONS", "name": "00165 - PLACE DES AVIONS", "bikes": 8, "lat": 43.57686792022356, "stands": 7, "update": "2016-02-06T17:46:30"}, "geometry": {"type": "Point", "coordinates": [1.460187742067113, 43.57686792022356]}}, {"type": "Feature", "properties": {"status": "OPEN", "lon": 1.42778, "address": "Rue Jules Verne angle Boulevard Silvio Trentin - 31000 TOULOUSE", "name": "00270 - SILVIO TRENTIN", "bikes": 14, "lat": 43.62413, "stands": 2, "update": "2016-02-06T17:46:10"}, "geometry": {"type": "Point", "coordinates": [1.42778, 43.62413]}}, {"type": "Feature", "properties": {"status": "OPEN", "lon": 1.445174430937582, "address": "139 GRANDE RUE ST MICHEL", "name": "00103 - ST MICHEL ST CATHERINE", "bikes": 3, "lat": 43.590605082277605, "stands": 16, "update": "2016-02-06T17:54:27"}, "geometry": {"type": "Point", "coordinates": [1.445174430937582, 43.590605082277605]}}, {"type": "Feature", "properties": {"status": "OPEN", "lon": 1.448061825303155, "address": "7 BD DE STRASBOURG", "name": "00017 - STRASBOURG SARDANE", "bikes": 19, "lat": 43.60610692889793, "stands": 4, "update": "2016-02-06T17:54:37"}, "geometry": {"type": "Point", "coordinates": [1.448061825303155, 43.60610692889793]}}, {"type": "Feature", "properties": {"status": "OPEN", "lon": 1.445315649331453, "address": "1 PL DES CARMES", "name": "00046 - PLACE DES CARMES", "bikes": 12, "lat": 43.597401475499026, "stands": 8, "update": "2016-02-06T17:53:50"}, "geometry": {"type": "Point", "coordinates": [1.445315649331453, 43.597401475499026]}}, {"type": "Feature", "properties": {"status": "OPEN", "lon": 1.461907953641387, "address": "24 BIS CHE AMOUROUX", "name": "00218 - AMOUROUX /STE AUGUSTINE", "bikes": 5, "lat": 43.627603587351345, "stands": 13, "update": "2016-02-06T17:52:02"}, "geometry": {"type": "Point", "coordinates": [1.461907953641387, 43.627603587351345]}}, {"type": "Feature", "properties": {"status": "OPEN", "lon": 1.470077844843929, "address": "2 AV ANTOINE DE ST EXUPERY", "name": "00203 - ST EX. - PETIT PRINCE", "bikes": 18, "lat": 43.5834192540153, "stands": 2, "update": "2016-02-06T17:51:27"}, "geometry": {"type": "Point", "coordinates": [1.470077844843929, 43.5834192540153]}}, {"type": "Feature", "properties": {"status": "OPEN", "lon": 1.441209573825458, "address": "8 RUE DES TROIS RENARDS", "name": "00032 - MUSEE ST RAYMOND", "bikes": 1, "lat": 43.60765033417208, "stands": 11, "update": "2016-02-06T17:51:42"}, "geometry": {"type": "Point", "coordinates": [1.441209573825458, 43.60765033417208]}}, {"type": "Feature", "properties": {"status": "OPEN", "lon": 1.45752, "address": "5 RUE LEDUC", "name": "00005 - LEDUC", "bikes": 1, "lat": 43.61184, "stands": 18, "update": "2016-02-06T17:52:44"}, "geometry": {"type": "Point", "coordinates": [1.45752, 43.61184]}}, {"type": "Feature", "properties": {"status": "OPEN", "lon": 1.432075106068745, "address": "40 ALL CHARLES DE FITTE", "name": "00073 - FITTE TEINTURIERS", "bikes": 13, "lat": 43.59628476386365, "stands": 3, "update": "2016-02-06T17:48:56"}, "geometry": {"type": "Point", "coordinates": [1.432075106068745, 43.59628476386365]}}, {"type": "Feature", "properties": {"status": "OPEN", "lon": 1.440920059367141, "address": "1 AV MAURICE HAURIOU", "name": "00050 - GARONNETTE", "bikes": 11, "lat": 43.594569737633854, "stands": 12, "update": "2016-02-06T17:54:39"}, "geometry": {"type": "Point", "coordinates": [1.440920059367141, 43.594569737633854]}}, {"type": "Feature", "properties": {"status": "OPEN", "lon": 1.449629619920856, "address": "69 BD LAZARE CARNOT", "name": "00020 - CARNOT TROIS JOURNEES", "bikes": 27, "lat": 43.604717604204446, "stands": 0, "update": "2016-02-06T17:51:10"}, "geometry": {"type": "Point", "coordinates": [1.449629619920856, 43.604717604204446]}}, {"type": "Feature", "properties": {"status": "OPEN", "lon": 1.443635078857447, "address": "34 BD DES RECOLLETS", "name": "00155 - RECOLLETS", "bikes": 6, "lat": 43.58386908499996, "stands": 14, "update": "2016-02-06T17:49:06"}, "geometry": {"type": "Point", "coordinates": [1.443635078857447, 43.58386908499996]}}, {"type": "Feature", "properties": {"status": "OPEN", "lon": 1.41028, "address": "Place des Gli\u00e8res", "name": "00264 - LAFOURGUETTE", "bikes": 13, "lat": 43.56507, "stands": 5, "update": "2016-02-06T17:53:20"}, "geometry": {"type": "Point", "coordinates": [1.41028, 43.56507]}}, {"type": "Feature", "properties": {"status": "OPEN", "lon": 1.4842, "address": "FACE 175 ROUTE DE CASTRES ANGLE RUE CARCASSONNE", "name": "00256 - PLACE DE LA RONTONDE", "bikes": 6, "lat": 43.59666, "stands": 12, "update": "2016-02-06T17:48:50"}, "geometry": {"type": "Point", "coordinates": [1.4842, 43.59666]}}, {"type": "Feature", "properties": {"status": "OPEN", "lon": 1.439737579879722, "address": "48 BD D ARCOLE", "name": "00091 - ARCOLE BALANCE", "bikes": 1, "lat": 43.611584087589904, "stands": 20, "update": "2016-02-06T17:48:29"}, "geometry": {"type": "Point", "coordinates": [1.439737579879722, 43.611584087589904]}}, {"type": "Feature", "properties": {"status": "OPEN", "lon": 1.465517338373819, "address": "30 RUE ROUBICHOU", "name": "00185 - ROUBICHOU ARLES", "bikes": 0, "lat": 43.62704846650827, "stands": 15, "update": "2016-02-06T17:49:40"}, "geometry": {"type": "Point", "coordinates": [1.465517338373819, 43.62704846650827]}}, {"type": "Feature", "properties": {"status": "OPEN", "lon": 1.440461106405702, "address": "QUAI DE TOUNIS", "name": "00027 - QUAI DE TOUNIS", "bikes": 19, "lat": 43.59938372814817, "stands": 4, "update": "2016-02-06T17:52:48"}, "geometry": {"type": "Point", "coordinates": [1.440461106405702, 43.59938372814817]}}, {"type": "Feature", "properties": {"status": "OPEN", "lon": 1.478914286004687, "address": "4 AV LUCIEN BAROUX", "name": "00209 - BAROUX/ DARASSE", "bikes": 1, "lat": 43.589466982143435, "stands": 17, "update": "2016-02-06T17:50:01"}, "geometry": {"type": "Point", "coordinates": [1.478914286004687, 43.589466982143435]}}, {"type": "Feature", "properties": {"status": "OPEN", "lon": 1.40230245215212, "address": "3 RUE DE L'UNIVERSITE", "name": "00220 - TABAR /UNIVERSITE", "bikes": 1, "lat": 43.574612132702526, "stands": 18, "update": "2016-02-06T17:51:15"}, "geometry": {"type": "Point", "coordinates": [1.40230245215212, 43.574612132702526]}}, {"type": "Feature", "properties": {"status": "OPEN", "lon": 1.431415230750123, "address": "14 PL INTERIEURE ST CYPRIEN", "name": "00078 - PLACE INT ST CYP. DARRE", "bikes": 17, "lat": 43.59812186858788, "stands": 0, "update": "2016-02-06T17:54:47"}, "geometry": {"type": "Point", "coordinates": [1.431415230750123, 43.59812186858788]}}, {"type": "Feature", "properties": {"status": "OPEN", "lon": 1.448486709552681, "address": "CH DU RAISIN", "name": "00149 - RAISIN MINIMES", "bikes": 8, "lat": 43.615368584913504, "stands": 14, "update": "2016-02-06T17:49:41"}, "geometry": {"type": "Point", "coordinates": [1.448486709552681, 43.615368584913504]}}, {"type": "Feature", "properties": {"status": "OPEN", "lon": 1.446485498451865, "address": "61 RUE DE LA CONCORDE", "name": "00059 - CONCORDE", "bikes": 5, "lat": 43.613590372531775, "stands": 14, "update": "2016-02-06T17:54:49"}, "geometry": {"type": "Point", "coordinates": [1.446485498451865, 43.613590372531775]}}, {"type": "Feature", "properties": {"status": "OPEN", "lon": 1.430389555237135, "address": "1 RUE DE SEBASTOPOL", "name": "00107 - SEBASTOPOL", "bikes": 5, "lat": 43.609753361824794, "stands": 22, "update": "2016-02-06T17:50:42"}, "geometry": {"type": "Point", "coordinates": [1.430389555237135, 43.609753361824794]}}, {"type": "Feature", "properties": {"status": "OPEN", "lon": 1.420141760360439, "address": "29 BOULEVARD RICHARD WAGNER ANG BD JEAN BRUNHES", "name": "00246 - WAGNER / JEAN BRUNHES", "bikes": 9, "lat": 43.60390532418828, "stands": 11, "update": "2016-02-06T17:53:46"}, "geometry": {"type": "Point", "coordinates": [1.420141760360439, 43.60390532418828]}}, {"type": "Feature", "properties": {"status": "OPEN", "lon": 1.450654849861206, "address": "7 RUE DU REMPART ST ETIENNE", "name": "00099 - REMPART ST ETIENNE", "bikes": 7, "lat": 43.60082502483391, "stands": 8, "update": "2016-02-06T17:54:45"}, "geometry": {"type": "Point", "coordinates": [1.450654849861206, 43.60082502483391]}}, {"type": "Feature", "properties": {"status": "OPEN", "lon": 1.48278, "address": "RUE GONIN ANGLE GENIN 31000 TOULOUSE", "name": "00267 - GONIN", "bikes": 8, "lat": 43.57452, "stands": 8, "update": "2016-02-06T17:47:12"}, "geometry": {"type": "Point", "coordinates": [1.48278, 43.57452]}}, {"type": "Feature", "properties": {"status": "OPEN", "lon": 1.449215732146181, "address": "FACE 58 RUE DUMERIL", "name": "00113 - MUSEUM LAMARCK", "bikes": 4, "lat": 43.592355124495455, "stands": 15, "update": "2016-02-06T17:53:24"}, "geometry": {"type": "Point", "coordinates": [1.449215732146181, 43.592355124495455]}}, {"type": "Feature", "properties": {"status": "OPEN", "lon": 1.444528167445985, "address": "5 AV DE COLLIGNON", "name": "00148 - COLLIGNON", "bikes": 0, "lat": 43.61692696530316, "stands": 19, "update": "2016-02-06T17:50:41"}, "geometry": {"type": "Point", "coordinates": [1.444528167445985, 43.61692696530316]}}, {"type": "Feature", "properties": {"status": "OPEN", "lon": 1.454698517821249, "address": "RUE LAPUJADE ANGLE RUE DES FLANDRES", "name": "00167 - LAPUJADE-FLANDRES", "bikes": 13, "lat": 43.62409340165932, "stands": 5, "update": "2016-02-06T17:54:56"}, "geometry": {"type": "Point", "coordinates": [1.454698517821249, 43.62409340165932]}}, {"type": "Feature", "properties": {"status": "OPEN", "lon": 1.41325, "address": "Face N\u00b0251 route de Seysses", "name": "00265 - PASSAGE BORDELONGUE", "bikes": 6, "lat": 43.56793, "stands": 12, "update": "2016-02-06T17:52:42"}, "geometry": {"type": "Point", "coordinates": [1.41325, 43.56793]}}, {"type": "Feature", "properties": {"status": "OPEN", "lon": 1.446483165667178, "address": "50 GRANDE RUE ST MICHEL", "name": "00116 - ST MICHEL NOTRE DAME", "bikes": 1, "lat": 43.588359791103294, "stands": 14, "update": "2016-02-06T17:53:23"}, "geometry": {"type": "Point", "coordinates": [1.446483165667178, 43.588359791103294]}}, {"type": "Feature", "properties": {"status": "OPEN", "lon": 1.446076879873296, "address": "2 PETITE RUE SAINT LAZARE", "name": "00034 - SAINT LAZARE", "bikes": 13, "lat": 43.609650036285025, "stands": 6, "update": "2016-02-06T17:55:08"}, "geometry": {"type": "Point", "coordinates": [1.446076879873296, 43.609650036285025]}}, {"type": "Feature", "properties": {"status": "OPEN", "lon": 1.419524853208122, "address": "129 ALL DE BRIENNE", "name": "00119 - CHAPOU", "bikes": 7, "lat": 43.609967343094006, "stands": 17, "update": "2016-02-06T17:53:39"}, "geometry": {"type": "Point", "coordinates": [1.419524853208122, 43.609967343094006]}}, {"type": "Feature", "properties": {"status": "OPEN", "lon": 1.38887, "address": "Place des Pradettes / rue Arthur Huc", "name": "00275 - PLACE DES PRADETTES", "bikes": 0, "lat": 43.58171, "stands": 17, "update": "2016-02-06T17:50:20"}, "geometry": {"type": "Point", "coordinates": [1.38887, 43.58171]}}, {"type": "Feature", "properties": {"status": "OPEN", "lon": 1.451999386383253, "address": "21 AV DES ECOLES JULES JULIEN", "name": "00160 - THEATRE JULES JULIEN", "bikes": 6, "lat": 43.573924940202886, "stands": 11, "update": "2016-02-06T17:52:38"}, "geometry": {"type": "Point", "coordinates": [1.451999386383253, 43.573924940202886]}}, {"type": "Feature", "properties": {"status": "OPEN", "lon": 1.456086445970436, "address": "64 RTE DE NARBONNE", "name": "00232 - NARBONNE/ MIROUSE", "bikes": 6, "lat": 43.569437251134566, "stands": 9, "update": "2016-02-06T17:48:02"}, "geometry": {"type": "Point", "coordinates": [1.456086445970436, 43.569437251134566]}}, {"type": "Feature", "properties": {"status": "OPEN", "lon": 1.48781984362323, "address": "9 RUE LE DORMEUR", "name": "00211 - LE DORMEUR/ LA TERRASSE", "bikes": 8, "lat": 43.58350615923425, "stands": 10, "update": "2016-02-06T17:53:53"}, "geometry": {"type": "Point", "coordinates": [1.48781984362323, 43.58350615923425]}}, {"type": "Feature", "properties": {"status": "OPEN", "lon": 1.39709, "address": "AVENUE DES ARENES ROMAINES / GUY ESPAGNO DANS ROND POINT 31000 TOULOUSE", "name": "00278 - ARENES ROMAINE", "bikes": 2, "lat": 43.6142, "stands": 15, "update": "2016-02-06T17:49:53"}, "geometry": {"type": "Point", "coordinates": [1.39709, 43.6142]}}, {"type": "Feature", "properties": {"status": "OPEN", "lon": 1.434473692188769, "address": "101 AVENUES DES MINIMES", "name": "00132 - MINIMES BILARD", "bikes": 17, "lat": 43.62293779541603, "stands": 2, "update": "2016-02-06T17:52:56"}, "geometry": {"type": "Point", "coordinates": [1.434473692188769, 43.62293779541603]}}, {"type": "Feature", "properties": {"status": "OPEN", "lon": 1.424941224096277, "address": "29 RUE ROLAND GARROS", "name": "00145 - GOUNOD - GARROS", "bikes": 14, "lat": 43.61395913175851, "stands": 6, "update": "2016-02-06T17:50:19"}, "geometry": {"type": "Point", "coordinates": [1.424941224096277, 43.61395913175851]}}, {"type": "Feature", "properties": {"status": "OPEN", "lon": 1.438157046235524, "address": "16 RUE ALEXANDRE CABANEL", "name": "00110 - CABANEL - SERRES", "bikes": 9, "lat": 43.61375517689823, "stands": 9, "update": "2016-02-06T17:47:21"}, "geometry": {"type": "Point", "coordinates": [1.438157046235524, 43.61375517689823]}}, {"type": "Feature", "properties": {"status": "OPEN", "lon": 1.434225150757254, "address": "BARRI\u00c8RE DE PARIS", "name": "00125 - BARRI\u00c8RE DE PARIS", "bikes": 22, "lat": 43.6269176821576, "stands": 3, "update": "2016-02-06T17:49:56"}, "geometry": {"type": "Point", "coordinates": [1.434225150757254, 43.6269176821576]}}, {"type": "Feature", "properties": {"status": "OPEN", "lon": 1.454189017923435, "address": "54 RUE DES SEPT TROUBADOURS", "name": "00063 - PISCINE LEO LAGRANGE", "bikes": 1, "lat": 43.607433487401345, "stands": 21, "update": "2016-02-06T17:49:06"}, "geometry": {"type": "Point", "coordinates": [1.454189017923435, 43.607433487401345]}}, {"type": "Feature", "properties": {"status": "OPEN", "lon": 1.46539185105244, "address": "64 RUE BAILLAUD", "name": "00177 - BAILLAUD BRUNAUD", "bikes": 0, "lat": 43.61743867816197, "stands": 19, "update": "2016-02-06T17:47:26"}, "geometry": {"type": "Point", "coordinates": [1.46539185105244, 43.61743867816197]}}, {"type": "Feature", "properties": {"status": "OPEN", "lon": 1.483669775054849, "address": "FACE 345 AV JEAN RIEUX", "name": "00200 - PLACE DE L'ORMEAU", "bikes": 0, "lat": 43.57906922965151, "stands": 17, "update": "2016-02-06T17:45:57"}, "geometry": {"type": "Point", "coordinates": [1.483669775054849, 43.57906922965151]}}, {"type": "Feature", "properties": {"status": "OPEN", "lon": 1.444269620551324, "address": "26 RUE DE PERIGORD", "name": "00014 - PERIGORD", "bikes": 4, "lat": 43.60735205357881, "stands": 12, "update": "2016-02-06T17:51:16"}, "geometry": {"type": "Point", "coordinates": [1.444269620551324, 43.60735205357881]}}, {"type": "Feature", "properties": {"status": "OPEN", "lon": 1.4795004816774, "address": "27 Avenue Louis PLANA", "name": "00181 - PLANA GARNIER", "bikes": 6, "lat": 43.610549420565, "stands": 11, "update": "2016-02-06T17:51:54"}, "geometry": {"type": "Point", "coordinates": [1.4795004816774, 43.610549420565]}}, {"type": "Feature", "properties": {"status": "OPEN", "lon": 1.4429, "address": "11 ALL PAUL FEUGA", "name": "00069 - FEUGA", "bikes": 4, "lat": 43.59253, "stands": 0, "update": "2016-02-06T17:47:16"}, "geometry": {"type": "Point", "coordinates": [1.4429, 43.59253]}}, {"type": "Feature", "properties": {"status": "OPEN", "lon": 1.448634234326797, "address": "16 AV DE L'U.R.S.S", "name": "00157 - U.R.S.S  PEYROUSET", "bikes": 15, "lat": 43.582831686768735, "stands": 4, "update": "2016-02-06T17:50:30"}, "geometry": {"type": "Point", "coordinates": [1.448634234326797, 43.582831686768735]}}, {"type": "Feature", "properties": {"status": "OPEN", "lon": 1.425325828280708, "address": "44 AVENUE DE MURET", "name": "00189 - MURET BOUTINON", "bikes": 13, "lat": 43.581352282638655, "stands": 7, "update": "2016-02-06T17:50:48"}, "geometry": {"type": "Point", "coordinates": [1.425325828280708, 43.581352282638655]}}]}