{"type": "FeatureCollection", "features": [{"type": "Feature", "properties": {"lon": 1.441003598726198, "stands": 11, "update": "2016-02-05T16:20:09", "bikes": 4, "lat": 43.608951960496405, "status": "OPEN", "address": "2 RUE GATIEN ARNOULT", "name": "00055 - ST SERNIN G. ARNOULT"}, "geometry": {"type": "Point", "coordinates": [1.441003598726198, 43.608951960496405]}}, {"type": "Feature", "properties": {"lon": 1.45907112459247, "stands": 18, "update": "2016-02-05T16:24:10", "bikes": 0, "lat": 43.59723540303583, "status": "OPEN", "address": "FACE 15 RUE PIERRE LAROUSSE", "name": "00195 - LARROUSSE -RIEUX"}, "geometry": {"type": "Point", "coordinates": [1.45907112459247, 43.59723540303583]}}, {"type": "Feature", "properties": {"lon": 1.46278065695466, "stands": 10, "update": "2016-02-05T16:20:17", "bikes": 7, "lat": 43.571433064051334, "status": "OPEN", "address": "129 AV DE RANGUEIL", "name": "00229 - IUT RANGUEIL"}, "geometry": {"type": "Point", "coordinates": [1.46278065695466, 43.571433064051334]}}, {"type": "Feature", "properties": {"lon": 1.452605307400692, "stands": 21, "update": "2016-02-05T16:24:13", "bikes": 6, "lat": 43.597074846780274, "status": "OPEN", "address": "2 ALL FORAIN FRANCOIS VERDIER", "name": "00065 - VERDIER - GRAND ROND"}, "geometry": {"type": "Point", "coordinates": [1.452605307400692, 43.597074846780274]}}, {"type": "Feature", "properties": {"lon": 1.45195665819857, "stands": 15, "update": "2016-02-05T16:21:04", "bikes": 5, "lat": 43.60221990815785, "status": "OPEN", "address": "24 BD LAZARE CARNOT", "name": "00022 - CARNOT ROLAND"}, "geometry": {"type": "Point", "coordinates": [1.45195665819857, 43.60221990815785]}}, {"type": "Feature", "properties": {"lon": 1.403872948950036, "stands": 20, "update": "2016-02-05T16:24:53", "bikes": 0, "lat": 43.59729443895585, "status": "OPEN", "address": "RUE DE L'ABBE JULES LEMIRE", "name": "00236 - TOEC / LEMIRE"}, "geometry": {"type": "Point", "coordinates": [1.403872948950036, 43.59729443895585]}}, {"type": "Feature", "properties": {"lon": 1.442921175845342, "stands": 6, "update": "2016-02-05T16:18:30", "bikes": 21, "lat": 43.615259799224134, "status": "OPEN", "address": "38B BD DES MINIMES", "name": "00111 - MINIMES PASSERELLE"}, "geometry": {"type": "Point", "coordinates": [1.442921175845342, 43.615259799224134]}}, {"type": "Feature", "properties": {"lon": 1.43180804154469, "stands": 9, "update": "2016-02-05T16:20:22", "bikes": 8, "lat": 43.632641237523, "status": "OPEN", "address": "96 av des Etats-Unis angle rue Jules Ferry", "name": "00243 - ETATS-UNIS / FERRY"}, "geometry": {"type": "Point", "coordinates": [1.43180804154469, 43.632641237523]}}, {"type": "Feature", "properties": {"lon": 1.452693250180783, "stands": 4, "update": "2016-02-05T16:16:14", "bikes": 15, "lat": 43.63692179179762, "status": "OPEN", "address": "41 AV MAURICE BOURGES MAUNOURY", "name": "00174 - MAUNOURY / MELA"}, "geometry": {"type": "Point", "coordinates": [1.452693250180783, 43.63692179179762]}}, {"type": "Feature", "properties": {"lon": 1.420275802412521, "stands": 16, "update": "2016-02-05T16:17:33", "bikes": 4, "lat": 43.60094924792523, "status": "OPEN", "address": "47 BD JEAN BRUNHES", "name": "00137 - BRUNHES-FONTAINES"}, "geometry": {"type": "Point", "coordinates": [1.420275802412521, 43.60094924792523]}}, {"type": "Feature", "properties": {"lon": 1.421715694303944, "stands": 4, "update": "2016-02-05T16:17:33", "bikes": 16, "lat": 43.61606217398145, "status": "OPEN", "address": "62 BD DE SUISSE", "name": "00144 - SUISSE - LAUSANE"}, "geometry": {"type": "Point", "coordinates": [1.421715694303944, 43.61606217398145]}}, {"type": "Feature", "properties": {"lon": 1.453588691746783, "stands": 13, "update": "2016-02-05T16:23:59", "bikes": 3, "lat": 43.604660136134775, "status": "OPEN", "address": "41 RUE DE LA COLOMBETTE", "name": "00040 - COLOMBETTE"}, "geometry": {"type": "Point", "coordinates": [1.453588691746783, 43.604660136134775]}}, {"type": "Feature", "properties": {"lon": 1.445569311598848, "stands": 8, "update": "2016-02-05T16:24:07", "bikes": 10, "lat": 43.60333593826575, "status": "OPEN", "address": "62 RUE DE LA POMME", "name": "00003 - POMME"}, "geometry": {"type": "Point", "coordinates": [1.445569311598848, 43.60333593826575]}}, {"type": "Feature", "properties": {"lon": 1.418420510391943, "stands": 1, "update": "2016-02-05T16:24:57", "bikes": 24, "lat": 43.5955673906372, "status": "OPEN", "address": "39 BIS AV DE LOMBEZ", "name": "00139 - BARRIERE DE LOMBEZ"}, "geometry": {"type": "Point", "coordinates": [1.418420510391943, 43.5955673906372]}}, {"type": "Feature", "properties": {"lon": 1.44361404386217, "stands": 11, "update": "2016-02-05T16:22:51", "bikes": 6, "lat": 43.614465544425535, "status": "OPEN", "address": "57 RUE DU PRINTEMPS", "name": "00093 - PRINTEMPS"}, "geometry": {"type": "Point", "coordinates": [1.44361404386217, 43.614465544425535]}}, {"type": "Feature", "properties": {"lon": 1.429556601823956, "stands": 27, "update": "2016-02-05T16:24:33", "bikes": 6, "lat": 43.59989498759688, "status": "OPEN", "address": "ALL CHARLES DE FITTE", "name": "00081 - JARDIN RAYMOND VI"}, "geometry": {"type": "Point", "coordinates": [1.429556601823956, 43.59989498759688]}}, {"type": "Feature", "properties": {"lon": 1.449039275575635, "stands": 8, "update": "2016-02-05T16:24:08", "bikes": 12, "lat": 43.64108958806659, "status": "OPEN", "address": "RUE DES BOUQUETINS ANGLE RUE EDMOND ROSTAND", "name": "00248 - BOUQUETINS/E. ROSTAND"}, "geometry": {"type": "Point", "coordinates": [1.449039275575635, 43.64108958806659]}}, {"type": "Feature", "properties": {"lon": 1.437631489341106, "stands": 12, "update": "2016-02-05T16:22:14", "bikes": 13, "lat": 43.60863633636605, "status": "OPEN", "address": "PL SAINT JULIEN", "name": "00053 - PLACE SAINT JULIEN"}, "geometry": {"type": "Point", "coordinates": [1.437631489341106, 43.60863633636605]}}, {"type": "Feature", "properties": {"lon": 1.432335729928681, "stands": 10, "update": "2016-02-05T16:18:44", "bikes": 14, "lat": 43.609500004240715, "status": "OPEN", "address": "47 BD LASCROSSES", "name": "00087 - LASCROSSES LECLERC"}, "geometry": {"type": "Point", "coordinates": [1.432335729928681, 43.609500004240715]}}, {"type": "Feature", "properties": {"lon": 1.438340345212284, "stands": 11, "update": "2016-02-05T16:21:03", "bikes": 6, "lat": 43.612327522628846, "status": "OPEN", "address": "33 AV HONRE SERRES", "name": "00121 - SERRES - A. BERNARD"}, "geometry": {"type": "Point", "coordinates": [1.438340345212284, 43.612327522628846]}}, {"type": "Feature", "properties": {"lon": 1.469393836823441, "stands": 11, "update": "2016-02-05T16:23:30", "bikes": 9, "lat": 43.577166917623245, "status": "OPEN", "address": "FACE AU 127 AVENUE DE LESPINET", "name": "00239 - LESPINET / HERBETTES"}, "geometry": {"type": "Point", "coordinates": [1.469393836823441, 43.577166917623245]}}, {"type": "Feature", "properties": {"lon": 1.445420780739279, "stands": 2, "update": "2016-02-05T16:17:32", "bikes": 17, "lat": 43.604134687021045, "status": "OPEN", "address": "12 RUE DU POIDS DE L'HUILE", "name": "00001 - POIDS DE L'HUILE"}, "geometry": {"type": "Point", "coordinates": [1.445420780739279, 43.604134687021045]}}, {"type": "Feature", "properties": {"lon": 1.446593812218414, "stands": 7, "update": "2016-02-05T16:24:47", "bikes": 18, "lat": 43.605852162177925, "status": "OPEN", "address": "6 RUE DU REMPART VILLENEUVE", "name": "00007 - PLACE VICTOR HUGO"}, "geometry": {"type": "Point", "coordinates": [1.446593812218414, 43.605852162177925]}}, {"type": "Feature", "properties": {"lon": 1.43298, "stands": 5, "update": "2016-02-05T16:20:48", "bikes": 15, "lat": 43.64751, "status": "OPEN", "address": "Place Riche / Lalande - 31000 TOULOUSE", "name": "00259 - PLACE RICHE"}, "geometry": {"type": "Point", "coordinates": [1.43298, 43.64751]}}, {"type": "Feature", "properties": {"lon": 1.451330504561275, "stands": 0, "update": "2016-02-05T16:22:19", "bikes": 15, "lat": 43.628236592839514, "status": "OPEN", "address": "RUE LOIN 100M AVT RAYNAL", "name": "00234 - LOIN / RAYNAL"}, "geometry": {"type": "Point", "coordinates": [1.451330504561275, 43.628236592839514]}}, {"type": "Feature", "properties": {"lon": 1.409162125552512, "stands": 15, "update": "2016-02-05T16:17:02", "bikes": 4, "lat": 43.587659413053814, "status": "OPEN", "address": "355 route de saint-Simon", "name": "00192 - RTE DE ST SIMON/PRADO"}, "geometry": {"type": "Point", "coordinates": [1.409162125552512, 43.587659413053814]}}, {"type": "Feature", "properties": {"lon": 1.444132711268797, "stands": 22, "update": "2016-02-05T16:20:13", "bikes": 0, "lat": 43.59474911973265, "status": "OPEN", "address": "18 PL DU SALIN", "name": "00048 - PLACE DU SALIN"}, "geometry": {"type": "Point", "coordinates": [1.444132711268797, 43.59474911973265]}}, {"type": "Feature", "properties": {"lon": 1.45256734914219, "stands": 20, "update": "2016-02-05T16:17:29", "bikes": 10, "lat": 43.6394555737186, "status": "OPEN", "address": "Avenue Maurice BOURGES MAUNOURY", "name": "00175 - METRO MAUNOURY"}, "geometry": {"type": "Point", "coordinates": [1.45256734914219, 43.6394555737186]}}, {"type": "Feature", "properties": {"lon": 1.462031097914686, "stands": 15, "update": "2016-02-05T16:19:05", "bikes": 5, "lat": 43.574366149048714, "status": "OPEN", "address": "23 RUE GUYOU", "name": "00166 - RANGUEIL GUYOU"}, "geometry": {"type": "Point", "coordinates": [1.462031097914686, 43.574366149048714]}}, {"type": "Feature", "properties": {"lon": 1.458585739964361, "stands": 5, "update": "2016-02-05T16:22:49", "bikes": 13, "lat": 43.62316326019301, "status": "OPEN", "address": "183 RUE DU FB  BONNEFOY", "name": "00135 - BONNEFOY   LEMAITRE"}, "geometry": {"type": "Point", "coordinates": [1.458585739964361, 43.62316326019301]}}, {"type": "Feature", "properties": {"lon": 1.453805825078145, "stands": 10, "update": "2016-02-05T16:23:46", "bikes": 7, "lat": 43.590622011025665, "status": "OPEN", "address": "8 ALL DES DEMOISELLES", "name": "00115 - DEMOISELLES MISTRAL"}, "geometry": {"type": "Point", "coordinates": [1.453805825078145, 43.590622011025665]}}, {"type": "Feature", "properties": {"lon": 1.44938, "stands": 7, "update": "2016-02-05T16:21:42", "bikes": 13, "lat": 43.59468, "status": "OPEN", "address": "35 ALL JULES GUESDE", "name": "00067 - MUSEUM"}, "geometry": {"type": "Point", "coordinates": [1.44938, 43.59468]}}, {"type": "Feature", "properties": {"lon": 1.427517107421507, "stands": 1, "update": "2016-02-05T16:25:10", "bikes": 17, "lat": 43.584282965328995, "status": "OPEN", "address": "121 AVENUE DE MURET", "name": "00188 - MURET/LAFAGE"}, "geometry": {"type": "Point", "coordinates": [1.427517107421507, 43.584282965328995]}}, {"type": "Feature", "properties": {"lon": 1.468753766918999, "stands": 8, "update": "2016-02-05T16:21:46", "bikes": 12, "lat": 43.619281402937425, "status": "OPEN", "address": "AVENUE YVES BRUNAUD", "name": "00178 - BRUNAUD / PLANA"}, "geometry": {"type": "Point", "coordinates": [1.468753766918999, 43.619281402937425]}}, {"type": "Feature", "properties": {"lon": 1.454436078796189, "stands": 20, "update": "2016-02-05T16:19:38", "bikes": 1, "lat": 43.60265364232074, "status": "OPEN", "address": "1 RUE CHARLES CAMICHEL", "name": "00041 - ST AUBIN CAMICHEL"}, "geometry": {"type": "Point", "coordinates": [1.454436078796189, 43.60265364232074]}}, {"type": "Feature", "properties": {"lon": 1.437871385550754, "stands": 23, "update": "2016-02-05T16:24:17", "bikes": 2, "lat": 43.61146971436288, "status": "OPEN", "address": "3B BD LASCROSSES", "name": "00090 - LASCROSSES- A. BERNARD"}, "geometry": {"type": "Point", "coordinates": [1.437871385550754, 43.61146971436288]}}, {"type": "Feature", "properties": {"lon": 1.434707777421923, "stands": 9, "update": "2016-02-05T16:15:38", "bikes": 16, "lat": 43.615173611788045, "status": "OPEN", "address": "1 BD DE LA MARQUETTE", "name": "00109 - METRO CANAL DU MIDI"}, "geometry": {"type": "Point", "coordinates": [1.434707777421923, 43.615173611788045]}}, {"type": "Feature", "properties": {"lon": 1.464093716152017, "stands": 19, "update": "2016-02-05T16:17:20", "bikes": 1, "lat": 43.60038605818475, "status": "OPEN", "address": "6 AV LOUIS BLERIOT", "name": "00197 - CASERNE PERIGNON"}, "geometry": {"type": "Point", "coordinates": [1.464093716152017, 43.60038605818475]}}, {"type": "Feature", "properties": {"lon": 1.452057713684133, "stands": 21, "update": "2016-02-05T16:24:01", "bikes": 5, "lat": 43.60128593726337, "status": "OPEN", "address": "6 BD LAZARE CARNOT", "name": "00023 - COMBATTANTS"}, "geometry": {"type": "Point", "coordinates": [1.452057713684133, 43.60128593726337]}}, {"type": "Feature", "properties": {"lon": 1.39262, "stands": 9, "update": "2016-02-05T16:23:59", "bikes": 9, "lat": 43.5792, "status": "OPEN", "address": "ROND POINT DES IZARD ANGLEPASSERIEU ET ROUTE ST SIMON", "name": "00273 - PASSERIEU - ST SIMON"}, "geometry": {"type": "Point", "coordinates": [1.39262, 43.5792]}}, {"type": "Feature", "properties": {"lon": 1.437032051956223, "stands": 5, "update": "2016-02-05T16:23:37", "bikes": 13, "lat": 43.605071904633625, "status": "OPEN", "address": "31 RUE VALADE", "name": "00029 - VALADE"}, "geometry": {"type": "Point", "coordinates": [1.437032051956223, 43.605071904633625]}}, {"type": "Feature", "properties": {"lon": 1.44871, "stands": 12, "update": "2016-02-05T16:20:52", "bikes": 6, "lat": 43.57383, "status": "OPEN", "address": "RUE DE LA CHARBONNIERE ANGLE RUE DES PALMIERS 31000 TOULOUSE", "name": "280 - CHARBONNIERE"}, "geometry": {"type": "Point", "coordinates": [1.44871, 43.57383]}}, {"type": "Feature", "properties": {"lon": 1.441783289134449, "stands": 17, "update": "2016-02-05T16:22:19", "bikes": 2, "lat": 43.579737115748195, "status": "OPEN", "address": "38 AV JEAN MOULIN FACE DEBOUCHE RUE DE CANNES", "name": "00156 - METRO EMPALOT"}, "geometry": {"type": "Point", "coordinates": [1.441783289134449, 43.579737115748195]}}, {"type": "Feature", "properties": {"lon": 1.437493796200118, "stands": 4, "update": "2016-02-05T16:22:17", "bikes": 12, "lat": 43.633866178151905, "status": "OPEN", "address": "RUE RAIMBAUD ANGLE RUE COLETTE", "name": "00242 -  RAIMBAUD / COLETTE"}, "geometry": {"type": "Point", "coordinates": [1.437493796200118, 43.633866178151905]}}, {"type": "Feature", "properties": {"lon": 1.474881961695726, "stands": 20, "update": "2016-02-05T16:19:40", "bikes": 0, "lat": 43.566595761363736, "status": "OPEN", "address": "AVENUE EDOUARD BELIN FACE CH\u00c2TEAU DU CREPS", "name": "00224 - CAMPUS SUPAERO"}, "geometry": {"type": "Point", "coordinates": [1.474881961695726, 43.566595761363736]}}, {"type": "Feature", "properties": {"lon": 1.4420311550308, "stands": 14, "update": "2016-02-05T16:20:43", "bikes": 6, "lat": 43.58995890864312, "status": "OPEN", "address": "RUE DES GALLOIS", "name": "00154 - GALLOIS"}, "geometry": {"type": "Point", "coordinates": [1.4420311550308, 43.58995890864312]}}, {"type": "Feature", "properties": {"lon": 1.455204795385279, "stands": 16, "update": "2016-02-05T16:24:39", "bikes": 9, "lat": 43.60974282737991, "status": "OPEN", "address": "50 RUE DU GENERAL COMPANS", "name": "00096 - MEDIATHEQUE"}, "geometry": {"type": "Point", "coordinates": [1.455204795385279, 43.60974282737991]}}, {"type": "Feature", "properties": {"lon": 1.438302180907754, "stands": 10, "update": "2016-02-05T16:20:30", "bikes": 10, "lat": 43.624183134252704, "status": "OPEN", "address": "10 AV DES MAZADES", "name": "00152 - MAZADES"}, "geometry": {"type": "Point", "coordinates": [1.438302180907754, 43.624183134252704]}}, {"type": "Feature", "properties": {"lon": 1.37975, "stands": 6, "update": "2016-02-05T16:24:32", "bikes": 12, "lat": 43.58132, "status": "OPEN", "address": "chemin du Marin angle chemin du Reboul", "name": "00276 - MARIN REBOUL"}, "geometry": {"type": "Point", "coordinates": [1.37975, 43.58132]}}, {"type": "Feature", "properties": {"lon": 1.431605284631358, "stands": 5, "update": "2016-02-05T16:25:04", "bikes": 8, "lat": 43.597835830061406, "status": "OPEN", "address": "2 PL INTERIEURE ST CYPRIEN", "name": "00077 - PLACE INT SAINT CYPRIEN"}, "geometry": {"type": "Point", "coordinates": [1.431605284631358, 43.597835830061406]}}, {"type": "Feature", "properties": {"lon": 1.445580732388259, "stands": 11, "update": "2016-02-05T16:20:52", "bikes": 7, "lat": 43.599435045967155, "status": "OPEN", "address": "1 RUE DES TOURNEURS", "name": "00025 - PLACE ROUAIX"}, "geometry": {"type": "Point", "coordinates": [1.445580732388259, 43.599435045967155]}}, {"type": "Feature", "properties": {"lon": 1.436175197009508, "stands": 10, "update": "2016-02-05T16:15:58", "bikes": 8, "lat": 43.596660562935625, "status": "OPEN", "address": "37 RUE LAGANNE", "name": "00074 - LAGANNE TEINTURIERS"}, "geometry": {"type": "Point", "coordinates": [1.436175197009508, 43.596660562935625]}}, {"type": "Feature", "properties": {"lon": 1.434894328349442, "stands": 18, "update": "2016-02-05T16:25:16", "bikes": 4, "lat": 43.59318934283672, "status": "OPEN", "address": "3 RUE LAGANNE", "name": "00071 - COURS DILLON"}, "geometry": {"type": "Point", "coordinates": [1.434894328349442, 43.59318934283672]}}, {"type": "Feature", "properties": {"lon": 1.428862699237109, "stands": 7, "update": "2016-02-05T16:23:25", "bikes": 12, "lat": 43.59764204883991, "status": "OPEN", "address": "12  AV  ETIENNE  BILLIERES", "name": "00105 - BILLIERE -CHAMPETRE"}, "geometry": {"type": "Point", "coordinates": [1.428862699237109, 43.59764204883991]}}, {"type": "Feature", "properties": {"lon": 1.454987798766018, "stands": 23, "update": "2016-02-05T16:20:20", "bikes": 1, "lat": 43.60617263070887, "status": "OPEN", "address": "0030 RUE GABRIEL PERI", "name": "00064 - PERI MERCADIER"}, "geometry": {"type": "Point", "coordinates": [1.454987798766018, 43.60617263070887]}}, {"type": "Feature", "properties": {"lon": 1.448541598385468, "stands": 19, "update": "2016-02-05T16:23:30", "bikes": 5, "lat": 43.61263652233987, "status": "OPEN", "address": "32 PL ROQUELAINE", "name": "00060 - ROQUELAINE"}, "geometry": {"type": "Point", "coordinates": [1.448541598385468, 43.61263652233987]}}, {"type": "Feature", "properties": {"lon": 1.449367822982907, "stands": 13, "update": "2016-02-05T16:23:24", "bikes": 11, "lat": 43.609623167283914, "status": "OPEN", "address": "5 PL ROBERT SCHUMAN", "name": "00036 - PLACE SCHUMAN"}, "geometry": {"type": "Point", "coordinates": [1.449367822982907, 43.609623167283914]}}, {"type": "Feature", "properties": {"lon": 1.462869145576551, "stands": 15, "update": "2016-02-05T16:22:18", "bikes": 5, "lat": 43.56160969546884, "status": "OPEN", "address": "118  RTE DE NARBONNE", "name": "00227 - METRO UPS"}, "geometry": {"type": "Point", "coordinates": [1.462869145576551, 43.56160969546884]}}, {"type": "Feature", "properties": {"lon": 1.415543960373121, "stands": 7, "update": "2016-02-05T16:25:08", "bikes": 10, "lat": 43.584523123495174, "status": "OPEN", "address": "187 RUE HENRI DESBALS", "name": "00187 - DESBALS MONTDORE"}, "geometry": {"type": "Point", "coordinates": [1.415543960373121, 43.584523123495174]}}, {"type": "Feature", "properties": {"lon": 1.473268554354084, "stands": 10, "update": "2016-02-05T16:23:57", "bikes": 10, "lat": 43.56947707206279, "status": "OPEN", "address": "AVENUE EDOUARD BELIN DEVANT ONERA", "name": "00225 - BELIN ONERA"}, "geometry": {"type": "Point", "coordinates": [1.473268554354084, 43.56947707206279]}}, {"type": "Feature", "properties": {"lon": 1.432687682718845, "stands": 13, "update": "2016-02-05T16:24:16", "bikes": 10, "lat": 43.60524239596951, "status": "OPEN", "address": "19T ALL DE BRIENNE", "name": "00084 - BRIENNE MANUFACTURE"}, "geometry": {"type": "Point", "coordinates": [1.432687682718845, 43.60524239596951]}}, {"type": "Feature", "properties": {"lon": 1.480087483756261, "stands": 10, "update": "2016-02-05T16:17:39", "bikes": 8, "lat": 43.59122002356995, "status": "OPEN", "address": "ALL DE LIMAYRAC", "name": "00208 - LIMAYRAC/ DARASSE"}, "geometry": {"type": "Point", "coordinates": [1.480087483756261, 43.59122002356995]}}, {"type": "Feature", "properties": {"lon": 1.414597471267562, "stands": 7, "update": "2016-02-05T16:20:57", "bikes": 11, "lat": 43.61174111564092, "status": "OPEN", "address": "15 RUE PAUL BERNIES", "name": "00131 - BERNIES"}, "geometry": {"type": "Point", "coordinates": [1.414597471267562, 43.61174111564092]}}, {"type": "Feature", "properties": {"lon": 1.429880706043356, "stands": 11, "update": "2016-02-05T16:22:08", "bikes": 7, "lat": 43.593506929037055, "status": "OPEN", "address": "53 RUE STE LUCIE", "name": "00037 - STE LUCIE"}, "geometry": {"type": "Point", "coordinates": [1.429880706043356, 43.593506929037055]}}, {"type": "Feature", "properties": {"lon": 1.41398, "stands": 15, "update": "2016-02-05T16:16:12", "bikes": 4, "lat": 43.57375, "status": "OPEN", "address": "38 RUE DE LA TOURAINE ANGLE RUE D AUVERGNE 31000 TOULOUSE", "name": "00266 - TOURAINE"}, "geometry": {"type": "Point", "coordinates": [1.41398, 43.57375]}}, {"type": "Feature", "properties": {"lon": 1.434138106708093, "stands": 17, "update": "2016-02-05T16:21:15", "bikes": 2, "lat": 43.60112880561738, "status": "OPEN", "address": "1 PL LANGE", "name": "00079 - PLACE LANGE"}, "geometry": {"type": "Point", "coordinates": [1.434138106708093, 43.60112880561738]}}, {"type": "Feature", "properties": {"lon": 1.483021040946601, "stands": 14, "update": "2016-02-05T16:19:02", "bikes": 4, "lat": 43.586074956653995, "status": "OPEN", "address": "FACE 42 CHE DE LA TERRASSE", "name": "00210 - TERRASSE/ CENTRE CO."}, "geometry": {"type": "Point", "coordinates": [1.483021040946601, 43.586074956653995]}}, {"type": "Feature", "properties": {"lon": 1.436590757220506, "stands": 12, "update": "2016-02-05T16:19:03", "bikes": 9, "lat": 43.598542607102175, "status": "OPEN", "address": "12 PL LAGANNE", "name": "00075 - CHATEAU D EAU"}, "geometry": {"type": "Point", "coordinates": [1.436590757220506, 43.598542607102175]}}, {"type": "Feature", "properties": {"lon": 1.406488768851485, "stands": 8, "update": "2016-02-05T16:21:17", "bikes": 12, "lat": 43.57641895477528, "status": "OPEN", "address": "FACE 85 RUE VAUQUELIN", "name": "00221 - VAUQUELIN"}, "geometry": {"type": "Point", "coordinates": [1.406488768851485, 43.57641895477528]}}, {"type": "Feature", "properties": {"lon": 1.447411881616044, "stands": 16, "update": "2016-02-05T16:21:21", "bikes": 7, "lat": 43.58589564207925, "status": "OPEN", "address": "18 B GRANDE RUE ST MICHEL", "name": "00128 - PRISON ST MICHEL"}, "geometry": {"type": "Point", "coordinates": [1.447411881616044, 43.58589564207925]}}, {"type": "Feature", "properties": {"lon": 1.450764528471522, "stands": 16, "update": "2016-02-05T16:24:53", "bikes": 1, "lat": 43.58817925392077, "status": "OPEN", "address": "2 PLACE DU BUSCA", "name": "00118 - PLACE DU BUSCA"}, "geometry": {"type": "Point", "coordinates": [1.450764528471522, 43.58817925392077]}}, {"type": "Feature", "properties": {"lon": 1.44455, "stands": 14, "update": "2016-02-05T16:23:29", "bikes": 2, "lat": 43.59265, "status": "OPEN", "address": "1 BIS ALLEE JULES GUESDE", "name": "00068 - METRO - PALAIS DE JUSTICE"}, "geometry": {"type": "Point", "coordinates": [1.44455, 43.59265]}}, {"type": "Feature", "properties": {"lon": 1.428966282419491, "stands": 17, "update": "2016-02-05T16:19:49", "bikes": 3, "lat": 43.61990748467363, "status": "OPEN", "address": "96 RUE DE CHAUSSAS", "name": "00147 - CHAUSSAS - DAUDET"}, "geometry": {"type": "Point", "coordinates": [1.428966282419491, 43.61990748467363]}}, {"type": "Feature", "properties": {"lon": 1.447936286895422, "stands": 5, "update": "2016-02-05T16:24:15", "bikes": 13, "lat": 43.628469420497346, "status": "OPEN", "address": "12 AV BOURGES MAUNOURY", "name": "00153 - BOURGES MAUNOURY"}, "geometry": {"type": "Point", "coordinates": [1.447936286895422, 43.628469420497346]}}, {"type": "Feature", "properties": {"lon": 1.45632, "stands": 17, "update": "2016-02-05T16:18:35", "bikes": 1, "lat": 43.64265, "status": "OPEN", "address": "Devant N\u00b026 Chemin de Borderouge", "name": "00262 - ROND POINT CHEMIN DE BORDEROUGE"}, "geometry": {"type": "Point", "coordinates": [1.45632, 43.64265]}}, {"type": "Feature", "properties": {"lon": 1.458852500499583, "stands": 9, "update": "2016-02-05T16:22:22", "bikes": 11, "lat": 43.56641276350635, "status": "OPEN", "address": "105 RTE DE NARBONNE", "name": "00233 - NARBONNE /SAHUQUE"}, "geometry": {"type": "Point", "coordinates": [1.458852500499583, 43.56641276350635]}}, {"type": "Feature", "properties": {"lon": 1.450245130369442, "stands": 12, "update": "2016-02-05T16:20:32", "bikes": 13, "lat": 43.60411143798555, "status": "OPEN", "address": "63 BD LAZARE CARNOT", "name": "00021 - CARNOT LABEDA"}, "geometry": {"type": "Point", "coordinates": [1.450245130369442, 43.60411143798555]}}, {"type": "Feature", "properties": {"lon": 1.45336004007864, "stands": 20, "update": "2016-02-05T16:23:40", "bikes": 2, "lat": 43.609044644058145, "status": "OPEN", "address": "71 ALL JEAN JAURES", "name": "00062 - JAURES STALINGRAD"}, "geometry": {"type": "Point", "coordinates": [1.45336004007864, 43.609044644058145]}}, {"type": "Feature", "properties": {"lon": 1.443751822397876, "stands": 4, "update": "2016-02-05T16:15:40", "bikes": 14, "lat": 43.635706776069696, "status": "OPEN", "address": "93 RUE ERNEST RENAN ANGLE RUE VITRY", "name": "00244 - RENAN / VITRY"}, "geometry": {"type": "Point", "coordinates": [1.443751822397876, 43.635706776069696]}}, {"type": "Feature", "properties": {"lon": 1.41518438915584, "stands": 11, "update": "2016-02-05T16:23:45", "bikes": 8, "lat": 43.59990824072129, "status": "OPEN", "address": "103 BIS AVENUE DE GRANDE BRETAGNE ANGLE RUE BADIOU", "name": "00245 - GRANDE BRETAGNE / BADIOU"}, "geometry": {"type": "Point", "coordinates": [1.41518438915584, 43.59990824072129]}}, {"type": "Feature", "properties": {"lon": 1.43379, "stands": 2, "update": "2016-02-05T16:22:54", "bikes": 16, "lat": 43.64495, "status": "OPEN", "address": "Avenue duclos angle Avenue de Fronton", "name": "00260 - DUCLOS - FRONTON"}, "geometry": {"type": "Point", "coordinates": [1.43379, 43.64495]}}, {"type": "Feature", "properties": {"lon": 1.464456852027628, "stands": 17, "update": "2016-02-05T16:24:36", "bikes": 1, "lat": 43.567716505871594, "status": "OPEN", "address": "FACE 35 CHEMIN DES MARAICHERS", "name": "00228 - METRO PHARMACIE"}, "geometry": {"type": "Point", "coordinates": [1.464456852027628, 43.567716505871594]}}, {"type": "Feature", "properties": {"lon": 1.43538536091475, "stands": 3, "update": "2016-02-05T16:17:49", "bikes": 16, "lat": 43.6333722270955, "status": "OPEN", "address": "FACE AU 8 RUE PAUL VERLAINE", "name": "00235 - PAUL VERLAINE"}, "geometry": {"type": "Point", "coordinates": [1.43538536091475, 43.6333722270955]}}, {"type": "Feature", "properties": {"lon": 1.439870900566373, "stands": 2, "update": "2016-02-05T16:23:57", "bikes": 16, "lat": 43.62593095954932, "status": "OPEN", "address": "78 BD PIERRE ET MARIE CURIE", "name": "00150 - CURIE CAMPISTRON"}, "geometry": {"type": "Point", "coordinates": [1.439870900566373, 43.62593095954932]}}, {"type": "Feature", "properties": {"lon": 1.39711, "stands": 17, "update": "2016-02-05T16:22:54", "bikes": 3, "lat": 43.61948, "status": "OPEN", "address": "151 AVENUE DE CASSELARDIT SORTIE VILLE 31000 TOULOUSE", "name": "00271 - ANCELY"}, "geometry": {"type": "Point", "coordinates": [1.39711, 43.61948]}}, {"type": "Feature", "properties": {"lon": 1.443570238387108, "stands": 12, "update": "2016-02-05T16:23:16", "bikes": 3, "lat": 43.608568713084686, "status": "OPEN", "address": "11 RUE HENRI BERALDI", "name": "00033 - BERALDI"}, "geometry": {"type": "Point", "coordinates": [1.443570238387108, 43.608568713084686]}}, {"type": "Feature", "properties": {"lon": 1.461191671613412, "stands": 3, "update": "2016-02-05T16:22:33", "bikes": 16, "lat": 43.642833569777416, "status": "OPEN", "address": "RUE HENRI EBELOT", "name": "00172 - NETWILLER / LAFORGUE"}, "geometry": {"type": "Point", "coordinates": [1.461191671613412, 43.642833569777416]}}, {"type": "Feature", "properties": {"lon": 1.420545407442975, "stands": 13, "update": "2016-02-05T16:23:21", "bikes": 5, "lat": 43.61035351524297, "status": "OPEN", "address": "152 ALL DE BARCELONE", "name": "00120 - PONTS JUMEAUX"}, "geometry": {"type": "Point", "coordinates": [1.420545407442975, 43.61035351524297]}}, {"type": "Feature", "properties": {"lon": 1.466442513411802, "stands": 10, "update": "2016-02-05T16:20:30", "bikes": 8, "lat": 43.629671600633195, "status": "OPEN", "address": "42 CHE AMOUROUX", "name": "00217 - AMOUROUX/ ST TROPEZ"}, "geometry": {"type": "Point", "coordinates": [1.466442513411802, 43.629671600633195]}}, {"type": "Feature", "properties": {"lon": 1.450535969934731, "stands": 9, "update": "2016-02-05T16:21:53", "bikes": 10, "lat": 43.6331828272491, "status": "OPEN", "address": "25 AV MAURICE BOURGES MAUNOURY", "name": "00173 - MAUNOURY / SEGELA"}, "geometry": {"type": "Point", "coordinates": [1.450535969934731, 43.6331828272491]}}, {"type": "Feature", "properties": {"lon": 1.413431676051568, "stands": 4, "update": "2016-02-05T16:25:12", "bikes": 15, "lat": 43.5813322052426, "status": "OPEN", "address": "145 RUE HENRI DESBALS", "name": "00143 - DESBALS SAINTONGE"}, "geometry": {"type": "Point", "coordinates": [1.413431676051568, 43.5813322052426]}}, {"type": "Feature", "properties": {"lon": 1.42386687477895, "stands": 11, "update": "2016-02-05T16:24:29", "bikes": 10, "lat": 43.60842211156853, "status": "OPEN", "address": "99 ALL DE BRIENNE", "name": "00106 - BRIENNE PASSERELLE"}, "geometry": {"type": "Point", "coordinates": [1.42386687477895, 43.60842211156853]}}, {"type": "Feature", "properties": {"lon": 1.43288072066524, "stands": 2, "update": "2016-02-05T16:23:26", "bikes": 21, "lat": 43.61492465117555, "status": "OPEN", "address": "1 RUE DE CHAUSSAS", "name": "00123 - CHAUSSAS EMBOUCHURE"}, "geometry": {"type": "Point", "coordinates": [1.43288072066524, 43.61492465117555]}}, {"type": "Feature", "properties": {"lon": 1.442101445768934, "stands": 0, "update": "2016-02-05T16:23:00", "bikes": 20, "lat": 43.605203861405954, "status": "OPEN", "address": "5 RUE DES LOIS", "name": "00006 - LOIS"}, "geometry": {"type": "Point", "coordinates": [1.442101445768934, 43.605203861405954]}}, {"type": "Feature", "properties": {"lon": 1.48346, "stands": 9, "update": "2016-02-05T16:23:14", "bikes": 7, "lat": 43.60086, "status": "OPEN", "address": "CHEMIN DU CHATEAU DE L'HERS ANGLE CHEMIN FONTANELLES 31000 TOULOUSE", "name": "00257 - CHATEAU DE L'HERS"}, "geometry": {"type": "Point", "coordinates": [1.48346, 43.60086]}}, {"type": "Feature", "properties": {"lon": 1.451476646620887, "stands": 18, "update": "2016-02-05T16:15:56", "bikes": 3, "lat": 43.61243588156053, "status": "OPEN", "address": "RUE RAYMOND IV", "name": "00097 - RAYMOND IV"}, "geometry": {"type": "Point", "coordinates": [1.451476646620887, 43.61243588156053]}}, {"type": "Feature", "properties": {"lon": 1.415183785619737, "stands": 7, "update": "2016-02-05T16:18:24", "bikes": 10, "lat": 43.58998499389323, "status": "OPEN", "address": "395 ROUTE DE SAINT SIMON", "name": "00191 - RUE DU 14 JUILLET"}, "geometry": {"type": "Point", "coordinates": [1.415183785619737, 43.58998499389323]}}, {"type": "Feature", "properties": {"lon": 1.449072022617868, "stands": 7, "update": "2016-02-05T16:21:09", "bikes": 18, "lat": 43.60557592007205, "status": "OPEN", "address": "62 BD LAZARE CARNOT", "name": "00019 - CARNOT PERI"}, "geometry": {"type": "Point", "coordinates": [1.449072022617868, 43.60557592007205]}}, {"type": "Feature", "properties": {"lon": 1.465376125032407, "stands": 17, "update": "2016-02-05T16:20:51", "bikes": 0, "lat": 43.615227374108336, "status": "OPEN", "address": "RUE DE LA CHAUMIERE", "name": "00212 - CHAUMIERE/ CRETES"}, "geometry": {"type": "Point", "coordinates": [1.465376125032407, 43.615227374108336]}}, {"type": "Feature", "properties": {"lon": 1.473505161008297, "stands": 3, "update": "2016-02-05T16:24:01", "bikes": 13, "lat": 43.61680265241856, "status": "OPEN", "address": "5 CH CASSAING", "name": "00179 - CASSAING PLANA"}, "geometry": {"type": "Point", "coordinates": [1.473505161008297, 43.61680265241856]}}, {"type": "Feature", "properties": {"lon": 1.463164045792265, "stands": 17, "update": "2016-02-05T16:20:45", "bikes": 1, "lat": 43.58677914294868, "status": "OPEN", "address": "PL ROGER ARNAUD", "name": "00204 - PL. ROGER ARNAUD"}, "geometry": {"type": "Point", "coordinates": [1.463164045792265, 43.58677914294868]}}, {"type": "Feature", "properties": {"lon": 1.456658754907086, "stands": 8, "update": "2016-02-05T16:16:25", "bikes": 11, "lat": 43.61894094381528, "status": "OPEN", "address": "8 ALLEE DE L EGLISE BONNEFOY", "name": "00134 - EGLISE BONNEFOY"}, "geometry": {"type": "Point", "coordinates": [1.456658754907086, 43.61894094381528]}}, {"type": "Feature", "properties": {"lon": 1.452936514925397, "stands": 11, "update": "2016-02-05T16:23:25", "bikes": 9, "lat": 43.585266840172814, "status": "OPEN", "address": "47 ALLEE BRANLY", "name": "00112 - PLACE RUSSEL - BRANLY"}, "geometry": {"type": "Point", "coordinates": [1.452936514925397, 43.585266840172814]}}, {"type": "Feature", "properties": {"lon": 1.424432564672875, "stands": 3, "update": "2016-02-05T16:17:37", "bikes": 17, "lat": 43.574576545136445, "status": "OPEN", "address": "57 Route D'Espagne", "name": "00241 - ESPAGNE CHARPENTIER"}, "geometry": {"type": "Point", "coordinates": [1.424432564672875, 43.574576545136445]}}, {"type": "Feature", "properties": {"lon": 1.42463077628583, "stands": 11, "update": "2016-02-05T16:23:27", "bikes": 6, "lat": 43.5931301810241, "status": "OPEN", "address": "RUE DE CUGNAUX", "name": "00183 - RUE DE CUGNAUX"}, "geometry": {"type": "Point", "coordinates": [1.42463077628583, 43.5931301810241]}}, {"type": "Feature", "properties": {"lon": 1.454339701099757, "stands": 21, "update": "2016-02-05T16:18:35", "bikes": 1, "lat": 43.61689063107848, "status": "OPEN", "address": "18 RUE BONNEFOY", "name": "00126 - ECOLE BONNEFOY"}, "geometry": {"type": "Point", "coordinates": [1.454339701099757, 43.61689063107848]}}, {"type": "Feature", "properties": {"lon": 1.44009, "stands": 12, "update": "2016-02-05T16:23:38", "bikes": 4, "lat": 43.57705, "status": "OPEN", "address": "2 RUE DES MOUETTES ANGLE ALLEES SELLIER 31000 TOULOUSE", "name": "00255 - HENRI SELLIER"}, "geometry": {"type": "Point", "coordinates": [1.44009, 43.57705]}}, {"type": "Feature", "properties": {"lon": 1.450179100392055, "stands": 11, "update": "2016-02-05T16:24:37", "bikes": 10, "lat": 43.600398667412286, "status": "OPEN", "address": "14 PL SAINT ETIENNE", "name": "00024 - PLACE SAINT ETIENNE"}, "geometry": {"type": "Point", "coordinates": [1.450179100392055, 43.600398667412286]}}, {"type": "Feature", "properties": {"lon": 1.458048662941769, "stands": 19, "update": "2016-02-05T16:22:07", "bikes": 1, "lat": 43.6017932127447, "status": "OPEN", "address": "6 RUE JEAN GOUJON", "name": "00196 - GOUJON - GUILHEMERY"}, "geometry": {"type": "Point", "coordinates": [1.458048662941769, 43.6017932127447]}}, {"type": "Feature", "properties": {"lon": 1.44649, "stands": 13, "update": "2016-02-05T16:25:19", "bikes": 4, "lat": 43.57886, "status": "OPEN", "address": "RUE ST ROCH FACE RUE ELVIRE 31000 TOULOUSE", "name": "281 - NIEL"}, "geometry": {"type": "Point", "coordinates": [1.44649, 43.57886]}}, {"type": "Feature", "properties": {"lon": 1.436875386155235, "stands": 14, "update": "2016-02-05T16:24:10", "bikes": 4, "lat": 43.61814891164924, "status": "OPEN", "address": "27 AV DES MINIMES", "name": "00124 - EGLISE DES MINIMES"}, "geometry": {"type": "Point", "coordinates": [1.436875386155235, 43.61814891164924]}}, {"type": "Feature", "properties": {"lon": 1.481508972569192, "stands": 16, "update": "2016-02-05T16:23:38", "bikes": 1, "lat": 43.58300698375498, "status": "OPEN", "address": "FACE 25 RUE DE L AUDE", "name": "00207 - CHRIST ROI"}, "geometry": {"type": "Point", "coordinates": [1.481508972569192, 43.58300698375498]}}, {"type": "Feature", "properties": {"lon": 1.44026, "stands": 1, "update": "2016-02-05T16:21:57", "bikes": 22, "lat": 43.60215, "status": "OPEN", "address": "2 PL DE LA DAURADE", "name": "00011 - PLACE DE LA DAURADE"}, "geometry": {"type": "Point", "coordinates": [1.44026, 43.60215]}}, {"type": "Feature", "properties": {"lon": 1.41112908179427, "stands": 2, "update": "2016-02-05T16:24:24", "bikes": 16, "lat": 43.5792182218804, "status": "OPEN", "address": "1 IMPASSE BACHAGA BOUALAM", "name": "00186 - DESBALS BOUALAM"}, "geometry": {"type": "Point", "coordinates": [1.41112908179427, 43.5792182218804]}}, {"type": "Feature", "properties": {"lon": 1.44404, "stands": 2, "update": "2016-02-05T16:17:42", "bikes": 15, "lat": 43.62687, "status": "OPEN", "address": "161/163 AV DE NEGRENEYS SUR ILOT CENTRAL", "name": "00252 - NEGRENEYS /CASENEUVE"}, "geometry": {"type": "Point", "coordinates": [1.44404, 43.62687]}}, {"type": "Feature", "properties": {"lon": 1.469362217455508, "stands": 7, "update": "2016-02-05T16:17:18", "bikes": 13, "lat": 43.62727712277727, "status": "OPEN", "address": "70 CHEMIN MICHOUN", "name": "00184 - MICHOUN"}, "geometry": {"type": "Point", "coordinates": [1.469362217455508, 43.62727712277727]}}, {"type": "Feature", "properties": {"lon": 1.454915112024358, "stands": 6, "update": "2016-02-05T16:23:52", "bikes": 7, "lat": 43.57644751100008, "status": "OPEN", "address": "35 AV DE RANGUEIL", "name": "00161 - RANGUEIL - BEDOUCE"}, "geometry": {"type": "Point", "coordinates": [1.454915112024358, 43.57644751100008]}}, {"type": "Feature", "properties": {"lon": 1.3972, "stands": 21, "update": "2016-02-05T16:16:35", "bikes": 1, "lat": 43.60868, "status": "OPEN", "address": "avenue des Ar\u00e8nes Romaines, avant place du docteur Baylac 31000 TOULOUSE", "name": "00268 - PLACE BAYLAC"}, "geometry": {"type": "Point", "coordinates": [1.3972, 43.60868]}}, {"type": "Feature", "properties": {"lon": 1.427969819484834, "stands": 2, "update": "2016-02-05T16:17:39", "bikes": 18, "lat": 43.605562378447424, "status": "OPEN", "address": "1 AV PAUL SEJOURNE", "name": "00082 - SEJOURNE CATALANS"}, "geometry": {"type": "Point", "coordinates": [1.427969819484834, 43.605562378447424]}}, {"type": "Feature", "properties": {"lon": 1.43421, "stands": 5, "update": "2016-02-05T16:23:53", "bikes": 13, "lat": 43.59253, "status": "OPEN", "address": "5 PLACE DU FER A CHEVAL", "name": "00070 - FER A CHEVAL"}, "geometry": {"type": "Point", "coordinates": [1.43421, 43.59253]}}, {"type": "Feature", "properties": {"lon": 1.418128481713567, "stands": 7, "update": "2016-02-05T16:15:17", "bikes": 8, "lat": 43.587583195522946, "status": "OPEN", "address": "237 RUE HENRI DESBALS", "name": "00141 - FONTAINE LESTANG"}, "geometry": {"type": "Point", "coordinates": [1.418128481713567, 43.587583195522946]}}, {"type": "Feature", "properties": {"lon": 1.428790629053277, "stands": 7, "update": "2016-02-05T16:24:59", "bikes": 13, "lat": 43.612283701347906, "status": "OPEN", "address": "2 BD SEBASTOPOL", "name": "00108 - SEBASTOPOL - RITAY"}, "geometry": {"type": "Point", "coordinates": [1.428790629053277, 43.612283701347906]}}, {"type": "Feature", "properties": {"lon": 1.430598716260075, "stands": 5, "update": "2016-02-05T16:15:26", "bikes": 17, "lat": 43.606708008560005, "status": "OPEN", "address": "2 BD DU MARECHAL LECLERC", "name": "00085 - MARECHAL LECLERC"}, "geometry": {"type": "Point", "coordinates": [1.430598716260075, 43.606708008560005]}}, {"type": "Feature", "properties": {"lon": 1.476002176599847, "stands": 12, "update": "2016-02-05T16:19:55", "bikes": 5, "lat": 43.58166894906154, "status": "OPEN", "address": "165 AV ANTOINE DE ST EXUPERY", "name": "00202 - ST EX. - COURREGE"}, "geometry": {"type": "Point", "coordinates": [1.476002176599847, 43.58166894906154]}}, {"type": "Feature", "properties": {"lon": 1.453042492588597, "stands": 13, "update": "2016-02-05T16:21:15", "bikes": 5, "lat": 43.593599912488976, "status": "OPEN", "address": "18 ALLEE FREDERIC MISTRAL", "name": "00102 -  MISTRAL - FLEURANCE"}, "geometry": {"type": "Point", "coordinates": [1.453042492588597, 43.593599912488976]}}, {"type": "Feature", "properties": {"lon": 1.438224999266949, "stands": 13, "update": "2016-02-05T16:24:24", "bikes": 12, "lat": 43.60629527233212, "status": "OPEN", "address": "40 PL ANATOLE FRANCE", "name": "00030 - PLACE ANATOLE FRANCE"}, "geometry": {"type": "Point", "coordinates": [1.438224999266949, 43.60629527233212]}}, {"type": "Feature", "properties": {"lon": 1.464148138450798, "stands": 0, "update": "2016-02-05T16:18:40", "bikes": 17, "lat": 43.635666512128225, "status": "OPEN", "address": "FACE 163 CHEMIN NICOLE", "name": "00170 - ROUTE D ALBI   / CUVIER"}, "geometry": {"type": "Point", "coordinates": [1.464148138450798, 43.635666512128225]}}, {"type": "Feature", "properties": {"lon": 1.41954, "stands": 11, "update": "2016-02-05T16:20:28", "bikes": 7, "lat": 43.574, "status": "OPEN", "address": "296 route de Seysses", "name": "00274 - GALLIENI"}, "geometry": {"type": "Point", "coordinates": [1.41954, 43.574]}}, {"type": "Feature", "properties": {"lon": 1.467514131065815, "stands": 17, "update": "2016-02-05T16:24:44", "bikes": 0, "lat": 43.60075517705335, "status": "OPEN", "address": "129 AV DE CASTRES", "name": "00213 - PUJOL/ CHAUBET"}, "geometry": {"type": "Point", "coordinates": [1.467514131065815, 43.60075517705335]}}, {"type": "Feature", "properties": {"lon": 1.441434965295236, "stands": 0, "update": "2016-02-05T16:18:15", "bikes": 16, "lat": 43.599589544431005, "status": "OPEN", "address": "52 RUE DES COUTELIERS", "name": "00049 - COUTELIER - METZ"}, "geometry": {"type": "Point", "coordinates": [1.441434965295236, 43.599589544431005]}}, {"type": "Feature", "properties": {"lon": 1.434650096062823, "stands": 7, "update": "2016-02-05T16:23:46", "bikes": 14, "lat": 43.60864745421513, "status": "OPEN", "address": "41 BD ARMAND DUPORTAL", "name": "00052 - DUPORTAL CITE ADMIN."}, "geometry": {"type": "Point", "coordinates": [1.434650096062823, 43.60864745421513]}}, {"type": "Feature", "properties": {"lon": 1.43104, "stands": 3, "update": "2016-02-05T16:24:38", "bikes": 15, "lat": 43.58903, "status": "OPEN", "address": "219 AV DE MURET", "name": "00104 - MURET BARTHERE"}, "geometry": {"type": "Point", "coordinates": [1.43104, 43.58903]}}, {"type": "Feature", "properties": {"lon": 1.441331077590377, "stands": 12, "update": "2016-02-05T16:24:00", "bikes": 3, "lat": 43.60621318190248, "status": "OPEN", "address": "1 RUE DE L ESQUILE", "name": "00013 - LOIS ESQUILE"}, "geometry": {"type": "Point", "coordinates": [1.441331077590377, 43.60621318190248]}}, {"type": "Feature", "properties": {"lon": 1.4278, "stands": 12, "update": "2016-02-05T16:15:56", "bikes": 3, "lat": 43.58588, "status": "OPEN", "address": "2 BD DEODAT DE SEVERAC", "name": "00129 - CROIX DE PIERRE"}, "geometry": {"type": "Point", "coordinates": [1.4278, 43.58588]}}, {"type": "Feature", "properties": {"lon": 1.449135738584587, "stands": 11, "update": "2016-02-05T16:24:43", "bikes": 9, "lat": 43.580795461338795, "status": "OPEN", "address": "57 AV DE L URSS", "name": "00158 - URSS ST THOMAS D AQUIN"}, "geometry": {"type": "Point", "coordinates": [1.449135738584587, 43.580795461338795]}}, {"type": "Feature", "properties": {"lon": 1.458930207887618, "stands": 9, "update": "2016-02-05T16:17:40", "bikes": 11, "lat": 43.626509813353074, "status": "OPEN", "address": "RUE CREMON", "name": "00168 - BILA   /  ROUTE D ALBI"}, "geometry": {"type": "Point", "coordinates": [1.458930207887618, 43.626509813353074]}}, {"type": "Feature", "properties": {"lon": 1.46521198710394, "stands": 1, "update": "2016-02-05T16:19:04", "bikes": 18, "lat": 43.63812899582609, "status": "OPEN", "address": "147 RTE D'ALBI", "name": "00249 - CROIX DAURADE"}, "geometry": {"type": "Point", "coordinates": [1.46521198710394, 43.63812899582609]}}, {"type": "Feature", "properties": {"lon": 1.4565, "stands": 15, "update": "2016-02-05T16:25:18", "bikes": 5, "lat": 43.59642, "status": "OPEN", "address": "face au 20 port st sauveur", "name": "00015 - PONT MONTAUDRAN"}, "geometry": {"type": "Point", "coordinates": [1.4565, 43.59642]}}, {"type": "Feature", "properties": {"lon": 1.439230135508607, "stands": 7, "update": "2016-02-05T16:19:30", "bikes": 10, "lat": 43.63677495879212, "status": "OPEN", "address": "ROUTE DE LAUNAGUET ANGLE CHEMIN AUDIBERT", "name": "00247 - LAUNAGUET / AUDIBERT"}, "geometry": {"type": "Point", "coordinates": [1.439230135508607, 43.63677495879212]}}, {"type": "Feature", "properties": {"lon": 1.435181557097925, "stands": 9, "update": "2016-02-05T16:21:47", "bikes": 13, "lat": 43.59849490883457, "status": "OPEN", "address": "34 RUE DE LA REPUBLIQUE", "name": "00076 - REPUBLIQUE PL. OLIVIER"}, "geometry": {"type": "Point", "coordinates": [1.435181557097925, 43.59849490883457]}}, {"type": "Feature", "properties": {"lon": 1.415377349047291, "stands": 9, "update": "2016-02-05T16:24:46", "bikes": 11, "lat": 43.594849382545554, "status": "OPEN", "address": "59 AV DE LOMBEZ", "name": "00193 - LOMBEZ / PETITE VITESSE"}, "geometry": {"type": "Point", "coordinates": [1.415377349047291, 43.594849382545554]}}, {"type": "Feature", "properties": {"lon": 1.423916022506519, "stands": 4, "update": "2016-02-05T16:19:35", "bikes": 16, "lat": 43.57827536338912, "status": "OPEN", "address": "39 RTE D'Espagne", "name": "00190 - ESPAGNE LES OUSTALOUS"}, "geometry": {"type": "Point", "coordinates": [1.423916022506519, 43.57827536338912]}}, {"type": "Feature", "properties": {"lon": 1.43168347755474, "stands": 2, "update": "2016-02-05T16:21:32", "bikes": 18, "lat": 43.6319121122554, "status": "OPEN", "address": "AV DES Etats-Unis FACE AU 68 / 70", "name": "00253 - ETATS-UNIS / ROBERT"}, "geometry": {"type": "Point", "coordinates": [1.43168347755474, 43.6319121122554]}}, {"type": "Feature", "properties": {"lon": 1.47765639323401, "stands": 12, "update": "2016-02-05T16:18:46", "bikes": 6, "lat": 43.6122515815792, "status": "OPEN", "address": "3 Place SOUPETARD", "name": "00180 - PLACE SOUPETARD"}, "geometry": {"type": "Point", "coordinates": [1.47765639323401, 43.6122515815792]}}, {"type": "Feature", "properties": {"lon": 1.460094426022393, "stands": 5, "update": "2016-02-05T16:24:24", "bikes": 15, "lat": 43.579725432743686, "status": "OPEN", "address": "AV ALBERT BEDOUCE", "name": "00164 - BEDOUCE SAOUZELONG"}, "geometry": {"type": "Point", "coordinates": [1.460094426022393, 43.579725432743686]}}, {"type": "Feature", "properties": {"lon": 1.434843235786321, "stands": 14, "update": "2016-02-05T16:24:44", "bikes": 4, "lat": 43.605035688745794, "status": "OPEN", "address": "1 BD ARMAND DUPORTAL", "name": "00051 - DUPORTAL BRIENNE"}, "geometry": {"type": "Point", "coordinates": [1.434843235786321, 43.605035688745794]}}, {"type": "Feature", "properties": {"lon": 1.4469, "stands": 22, "update": "2016-02-05T16:24:06", "bikes": 3, "lat": 43.60964, "status": "OPEN", "address": "1 RUE RAYMOND IV", "name": "00035 - PLACE JEANNE D'ARC"}, "geometry": {"type": "Point", "coordinates": [1.4469, 43.60964]}}, {"type": "Feature", "properties": {"lon": 1.45174992410964, "stands": 13, "update": "2016-02-05T16:22:28", "bikes": 9, "lat": 43.59800264157314, "status": "OPEN", "address": "1 ALL FORAIN FRANCOIS VERDIER", "name": "00044 - PALAIS NIEL"}, "geometry": {"type": "Point", "coordinates": [1.45174992410964, 43.59800264157314]}}, {"type": "Feature", "properties": {"lon": 1.466308391813157, "stands": 2, "update": "2016-02-05T16:23:52", "bikes": 16, "lat": 43.640897350426606, "status": "OPEN", "address": "191 RTE D'ALBI", "name": "00171 - ROUTE D ALBI / CACTUS"}, "geometry": {"type": "Point", "coordinates": [1.466308391813157, 43.640897350426606]}}, {"type": "Feature", "properties": {"lon": 1.45491780578712, "stands": 15, "update": "2016-02-05T16:15:50", "bikes": 2, "lat": 43.580276538637605, "status": "OPEN", "address": "AV D' ITALIE", "name": "00162 - PLACE D'ITALIE"}, "geometry": {"type": "Point", "coordinates": [1.45491780578712, 43.580276538637605]}}, {"type": "Feature", "properties": {"lon": 1.43922052825561, "stands": 12, "update": "2016-02-05T16:21:26", "bikes": 8, "lat": 43.60749002329994, "status": "OPEN", "address": "7 RUE DES SALENQUES", "name": "00031 - SALENQUES"}, "geometry": {"type": "Point", "coordinates": [1.43922052825561, 43.60749002329994]}}, {"type": "Feature", "properties": {"lon": 1.41997369298729, "stands": 12, "update": "2016-02-05T16:21:28", "bikes": 6, "lat": 43.598196214598815, "status": "OPEN", "address": "3 BD JEAN BRUNHES", "name": "00138 - BARRIERE DE BAYONNE"}, "geometry": {"type": "Point", "coordinates": [1.41997369298729, 43.598196214598815]}}, {"type": "Feature", "properties": {"lon": 1.459836309553229, "stands": 20, "update": "2016-02-05T16:21:16", "bikes": 2, "lat": 43.587677990128874, "status": "OPEN", "address": "80 ALL DES DEMOISELLES", "name": "00098 - PONT DES DEMOISELLES"}, "geometry": {"type": "Point", "coordinates": [1.459836309553229, 43.587677990128874]}}, {"type": "Feature", "properties": {"lon": 1.446610770547085, "stands": 18, "update": "2016-02-05T16:19:13", "bikes": 3, "lat": 43.60793763027584, "status": "OPEN", "address": "32 BD DE STRASBOURG", "name": "00016 - STRASBOURG BAYARD"}, "geometry": {"type": "Point", "coordinates": [1.446610770547085, 43.60793763027584]}}, {"type": "Feature", "properties": {"lon": 1.473457600659471, "stands": 20, "update": "2016-02-05T16:21:02", "bikes": 0, "lat": 43.59622771557735, "status": "OPEN", "address": "FACE 25 CHEMIN LAFILAIRE", "name": "00198 - LAFILAIRE - DELTOUR"}, "geometry": {"type": "Point", "coordinates": [1.473457600659471, 43.59622771557735]}}, {"type": "Feature", "properties": {"lon": 1.442808436675486, "stands": 13, "update": "2016-02-05T16:23:57", "bikes": 2, "lat": 43.609029818757634, "status": "OPEN", "address": "1 RUE MERLY", "name": "00056 - SAINT SERNIN  MERLY"}, "geometry": {"type": "Point", "coordinates": [1.442808436675486, 43.609029818757634]}}, {"type": "Feature", "properties": {"lon": 1.428493330933498, "stands": 9, "update": "2016-02-05T16:24:38", "bikes": 11, "lat": 43.61541821044434, "status": "OPEN", "address": "57 CH DU SANG DE SERP", "name": "00146 - SANG DE SERP - DAGNAUX"}, "geometry": {"type": "Point", "coordinates": [1.428493330933498, 43.61541821044434]}}, {"type": "Feature", "properties": {"lon": 1.37764, "stands": 4, "update": "2016-02-05T16:19:07", "bikes": 14, "lat": 43.58996, "status": "OPEN", "address": "Place Sauvegrain - angle avenue de Lardenne", "name": "00269 - PLACE SAUVEGRAIN"}, "geometry": {"type": "Point", "coordinates": [1.37764, 43.58996]}}, {"type": "Feature", "properties": {"lon": 1.425222752953333, "stands": 15, "update": "2016-02-05T16:24:50", "bikes": 7, "lat": 43.602528105503815, "status": "OPEN", "address": "4 AVENUE DU CH\u00c2TEAU D'EAU", "name": "00095 - THEATRE GARONNE"}, "geometry": {"type": "Point", "coordinates": [1.425222752953333, 43.602528105503815]}}, {"type": "Feature", "properties": {"lon": 1.441220679302088, "stands": 0, "update": "2016-02-05T16:18:55", "bikes": 14, "lat": 43.61325027179293, "status": "OPEN", "address": "31 RUE DES CHALETS", "name": "00092 - CHALETS"}, "geometry": {"type": "Point", "coordinates": [1.441220679302088, 43.61325027179293]}}, {"type": "Feature", "properties": {"lon": 1.451651418090918, "stands": 12, "update": "2016-02-05T16:18:36", "bikes": 7, "lat": 43.60754756868432, "status": "OPEN", "address": "56 ALL JEAN JAURES", "name": "00038 - JAURES BACHELIER"}, "geometry": {"type": "Point", "coordinates": [1.451651418090918, 43.60754756868432]}}, {"type": "Feature", "properties": {"lon": 1.41868, "stands": 22, "update": "2016-02-05T16:22:08", "bikes": 7, "lat": 43.59175, "status": "OPEN", "address": "PLACE EMILE MALE", "name": "00140 - EMILE MALE"}, "geometry": {"type": "Point", "coordinates": [1.41868, 43.59175]}}, {"type": "Feature", "properties": {"lon": 1.458008846441328, "stands": 15, "update": "2016-02-05T16:23:31", "bikes": 3, "lat": 43.606790468455905, "status": "OPEN", "address": "1 RUE DU GENERAL COMPANS", "name": "00176 - GENERAL COMPANS"}, "geometry": {"type": "Point", "coordinates": [1.458008846441328, 43.606790468455905]}}, {"type": "Feature", "properties": {"lon": 1.479772209704475, "stands": 12, "update": "2016-02-05T16:20:37", "bikes": 8, "lat": 43.56361464501064, "status": "OPEN", "address": "AVENUE EDOUARD BELIN FACE CNRS", "name": "00237 - CNRS"}, "geometry": {"type": "Point", "coordinates": [1.479772209704475, 43.56361464501064]}}, {"type": "Feature", "properties": {"lon": 1.464668419108617, "stands": 17, "update": "2016-02-05T16:15:20", "bikes": 1, "lat": 43.594341505924845, "status": "OPEN", "address": "20 AV ARMAND LEYGUE", "name": "00206 - LEYGUE/ RIEUX"}, "geometry": {"type": "Point", "coordinates": [1.464668419108617, 43.594341505924845]}}, {"type": "Feature", "properties": {"lon": 1.435070094381549, "stands": 14, "update": "2016-02-05T16:22:05", "bikes": 11, "lat": 43.610250914040755, "status": "OPEN", "address": "17T BD LASCROSSES", "name": "00088 - DUPORTAL LASCROSSES"}, "geometry": {"type": "Point", "coordinates": [1.435070094381549, 43.610250914040755]}}, {"type": "Feature", "properties": {"lon": 1.436628759028233, "stands": 13, "update": "2016-02-05T16:22:54", "bikes": 10, "lat": 43.611036915218165, "status": "OPEN", "address": "1 ESP COMPANS CAFFARELLI", "name": "00089 - ESP COMPANS CAFFARELLI"}, "geometry": {"type": "Point", "coordinates": [1.436628759028233, 43.611036915218165]}}, {"type": "Feature", "properties": {"lon": 1.455674042776099, "stands": 16, "update": "2016-02-05T16:24:46", "bikes": 3, "lat": 43.59697406705044, "status": "OPEN", "address": "16 ALL PAUL SABATIER", "name": "00100 - PORT ST SAUVEUR"}, "geometry": {"type": "Point", "coordinates": [1.455674042776099, 43.59697406705044]}}, {"type": "Feature", "properties": {"lon": 1.475849028782433, "stands": 11, "update": "2016-02-05T16:25:19", "bikes": 9, "lat": 43.623814424096544, "status": "OPEN", "address": "FACE 8 RUE DE GAILLAC", "name": "00215 - METRO ARGOULETS"}, "geometry": {"type": "Point", "coordinates": [1.475849028782433, 43.623814424096544]}}, {"type": "Feature", "properties": {"lon": 1.439762556768512, "stands": 5, "update": "2016-02-05T16:22:59", "bikes": 12, "lat": 43.60842033750804, "status": "OPEN", "address": "10 RUE DE LA CHAINE", "name": "00054 - CHAINE"}, "geometry": {"type": "Point", "coordinates": [1.439762556768512, 43.60842033750804]}}, {"type": "Feature", "properties": {"lon": 1.448047137954633, "stands": 2, "update": "2016-02-05T16:21:56", "bikes": 23, "lat": 43.60307769477977, "status": "OPEN", "address": "19 RUE PAUL VIDAL", "name": "00008 - ESPACE SAINT GEORGES"}, "geometry": {"type": "Point", "coordinates": [1.448047137954633, 43.60307769477977]}}, {"type": "Feature", "properties": {"lon": 1.37708, "stands": 11, "update": "2016-02-05T16:15:32", "bikes": 7, "lat": 43.58549, "status": "OPEN", "address": "10/12 rue zamenhof - 31000 TOuLOUSE", "name": "00277 - ZAMENHOF"}, "geometry": {"type": "Point", "coordinates": [1.37708, 43.58549]}}, {"type": "Feature", "properties": {"lon": 1.473660631896838, "stands": 17, "update": "2016-02-05T16:24:58", "bikes": 0, "lat": 43.600795440313355, "status": "OPEN", "address": "48 AV DE CASTRES", "name": "00214 - CASTRES/ ACHIARY"}, "geometry": {"type": "Point", "coordinates": [1.473660631896838, 43.600795440313355]}}, {"type": "Feature", "properties": {"lon": 1.458007861390548, "stands": 12, "update": "2016-02-05T16:24:49", "bikes": 8, "lat": 43.59239101222708, "status": "OPEN", "address": "8 BD MONPLAISIR", "name": "00114 - BD MONTPLAISIR - CANAL"}, "geometry": {"type": "Point", "coordinates": [1.458007861390548, 43.59239101222708]}}, {"type": "Feature", "properties": {"lon": 1.445285876671779, "stands": 3, "update": "2016-02-05T16:25:18", "bikes": 21, "lat": 43.60485265221502, "status": "OPEN", "address": "21 RUE LAFAYETTE", "name": "00002 - LAFAYETTE"}, "geometry": {"type": "Point", "coordinates": [1.445285876671779, 43.60485265221502]}}, {"type": "Feature", "properties": {"lon": 1.470276283956405, "stands": 21, "update": "2016-02-05T16:22:48", "bikes": 0, "lat": 43.591528310013615, "status": "OPEN", "address": "4 BD DELTOUR", "name": "00199 - DELTOUR - RIEUX"}, "geometry": {"type": "Point", "coordinates": [1.470276283956405, 43.591528310013615]}}, {"type": "Feature", "properties": {"lon": 1.478340741030179, "stands": 21, "update": "2016-02-05T16:22:30", "bikes": 1, "lat": 43.565104300575406, "status": "OPEN", "address": "AVENUE EDOUARD BELIN ANGLE AV ROCHE", "name": "00223 - ENAC"}, "geometry": {"type": "Point", "coordinates": [1.478340741030179, 43.565104300575406]}}, {"type": "Feature", "properties": {"lon": 1.44544233356215, "stands": 7, "update": "2016-02-05T16:24:49", "bikes": 27, "lat": 43.6003776908545, "status": "OPEN", "address": "15 PL ETIENNE ESQUIROL", "name": "00010 - PLACE ESQUIROL"}, "geometry": {"type": "Point", "coordinates": [1.44544233356215, 43.6003776908545]}}, {"type": "Feature", "properties": {"lon": 1.414428635946386, "stands": 1, "update": "2016-02-05T16:16:58", "bikes": 16, "lat": 43.593097534292575, "status": "OPEN", "address": "RUE DU 11 NOVEMBRE", "name": "00250 - 11 NOVEMBRE"}, "geometry": {"type": "Point", "coordinates": [1.414428635946386, 43.593097534292575]}}, {"type": "Feature", "properties": {"lon": 1.447014394243565, "stands": 15, "update": "2016-02-05T16:25:15", "bikes": 4, "lat": 43.596327873693475, "status": "OPEN", "address": "10 RUE THEODORE OZENNE", "name": "00045 - OZENNE"}, "geometry": {"type": "Point", "coordinates": [1.447014394243565, 43.596327873693475]}}, {"type": "Feature", "properties": {"lon": 1.428253851896989, "stands": 3, "update": "2016-02-05T16:24:17", "bikes": 14, "lat": 43.6055917312578, "status": "OPEN", "address": "2 AV PAUL SEJOURNE", "name": "00083 - SEJOURNE AMIDONNIERS"}, "geometry": {"type": "Point", "coordinates": [1.428253851896989, 43.6055917312578]}}, {"type": "Feature", "properties": {"lon": 1.445531445171338, "stands": 16, "update": "2016-02-05T16:20:27", "bikes": 9, "lat": 43.59546175758775, "status": "OPEN", "address": "12 RUE DU LANGUEDOC", "name": "00047 - NAZARETH LANGUEDOC"}, "geometry": {"type": "Point", "coordinates": [1.445531445171338, 43.59546175758775]}}, {"type": "Feature", "properties": {"lon": 1.465370657992508, "stands": 8, "update": "2016-02-05T16:24:59", "bikes": 12, "lat": 43.557243695153005, "status": "OPEN", "address": "RANGUEIL / CL ROCHE", "name": "00231 - NARBONNE MARFAING"}, "geometry": {"type": "Point", "coordinates": [1.465370657992508, 43.557243695153005]}}, {"type": "Feature", "properties": {"lon": 1.474057401308612, "stands": 11, "update": "2016-02-05T16:20:13", "bikes": 6, "lat": 43.622829380921075, "status": "OPEN", "address": "3 RUE JEAN HOUDON", "name": "00216 - ARGOULETS HOUDON"}, "geometry": {"type": "Point", "coordinates": [1.474057401308612, 43.622829380921075]}}, {"type": "Feature", "properties": {"lon": 1.410651114174017, "stands": 11, "update": "2016-02-05T16:18:05", "bikes": 9, "lat": 43.594206765269206, "status": "OPEN", "address": "138 AV DE LOMBEZ", "name": "00194 - LOMBEZ / HIPPODROME"}, "geometry": {"type": "Point", "coordinates": [1.410651114174017, 43.594206765269206]}}, {"type": "Feature", "properties": {"lon": 1.39867, "stands": 13, "update": "2016-02-05T16:25:09", "bikes": 5, "lat": 43.58444, "status": "OPEN", "address": "87 AVENUE JEAN BAYLET ANGLE CHEMIN CEPIERES", "name": "00263 - LYCEE POLYVALENT"}, "geometry": {"type": "Point", "coordinates": [1.39867, 43.58444]}}, {"type": "Feature", "properties": {"lon": 1.462248097516892, "stands": 1, "update": "2016-02-05T16:18:04", "bikes": 16, "lat": 43.63124672931264, "status": "OPEN", "address": "65 RTE D'ALBI", "name": "00169 - ALBI  / JAFFARY"}, "geometry": {"type": "Point", "coordinates": [1.462248097516892, 43.63124672931264]}}, {"type": "Feature", "properties": {"lon": 1.452939708828422, "stands": 17, "update": "2016-02-05T16:22:02", "bikes": 2, "lat": 43.60583232118379, "status": "OPEN", "address": "9 PL DE DAMLOUP", "name": "00039 - PLACE DAMLOUP"}, "geometry": {"type": "Point", "coordinates": [1.452939708828422, 43.60583232118379]}}, {"type": "Feature", "properties": {"lon": 1.48049587613679, "stands": 12, "update": "2016-02-05T16:17:57", "bikes": 6, "lat": 43.57965532664315, "status": "OPEN", "address": "256 AV ANTOINE DE ST EXUPERY", "name": "00201 - POTEZ -ST EXUPERY"}, "geometry": {"type": "Point", "coordinates": [1.48049587613679, 43.57965532664315]}}, {"type": "Feature", "properties": {"lon": 1.456321836591291, "stands": 5, "update": "2016-02-05T16:25:03", "bikes": 15, "lat": 43.59426485044087, "status": "OPEN", "address": "5 PORT SAINT SAUVEUR", "name": "00101 - CAPT PORT ST SAUVEUR"}, "geometry": {"type": "Point", "coordinates": [1.456321836591291, 43.59426485044087]}}, {"type": "Feature", "properties": {"lon": 1.47643, "stands": 9, "update": "2016-02-05T16:21:16", "bikes": 9, "lat": 43.62957, "status": "OPEN", "address": "Boulevard Atlanta / Cambard", "name": "00258 - CAMBARD"}, "geometry": {"type": "Point", "coordinates": [1.47643, 43.62957]}}, {"type": "Feature", "properties": {"lon": 1.450284083376377, "stands": 4, "update": "2016-02-05T16:25:17", "bikes": 16, "lat": 43.5785038852904, "status": "OPEN", "address": "96 AV JULES JULIEN", "name": "00159 - U.R.S.S DEVIC"}, "geometry": {"type": "Point", "coordinates": [1.450284083376377, 43.5785038852904]}}, {"type": "Feature", "properties": {"lon": 1.432688307877285, "stands": 11, "update": "2016-02-05T16:25:04", "bikes": 9, "lat": 43.59504949175626, "status": "OPEN", "address": "23 ALL CHARLES DE FITTE", "name": "00072 - FITTE CUGNAUX"}, "geometry": {"type": "Point", "coordinates": [1.432688307877285, 43.59504949175626]}}, {"type": "Feature", "properties": {"lon": 1.4401, "stands": 12, "update": "2016-02-05T16:17:45", "bikes": 6, "lat": 43.64066, "status": "OPEN", "address": "Devant le N\u00b06 rue Van Dyck avant angle rue Raphael - 31000 TOULOUSE", "name": "00261 - VAN DYCK - LAUNAGUET"}, "geometry": {"type": "Point", "coordinates": [1.4401, 43.64066]}}, {"type": "Feature", "properties": {"lon": 1.443059611732516, "stands": 22, "update": "2016-02-05T16:15:56", "bikes": 2, "lat": 43.62459108857192, "status": "OPEN", "address": "27 BD PIERRE ET MARIE CURIE", "name": "00151 - CURIE - NEGRENEYS"}, "geometry": {"type": "Point", "coordinates": [1.443059611732516, 43.62459108857192]}}, {"type": "Feature", "properties": {"lon": 1.473118127213999, "stands": 14, "update": "2016-02-05T16:24:43", "bikes": 3, "lat": 43.579425835630786, "status": "OPEN", "address": "AVENUE DES HERBETTES", "name": "00238 - HERBETTES / BUTTE"}, "geometry": {"type": "Point", "coordinates": [1.473118127213999, 43.579425835630786]}}, {"type": "Feature", "properties": {"lon": 1.429275168509917, "stands": 13, "update": "2016-02-05T16:24:47", "bikes": 10, "lat": 43.59970386767416, "status": "OPEN", "address": "89B ALL CHARLES DE FITTE", "name": "00080 - FITTE VARSI"}, "geometry": {"type": "Point", "coordinates": [1.429275168509917, 43.59970386767416]}}, {"type": "Feature", "properties": {"lon": 1.4431072280246, "stands": 14, "update": "2016-02-05T16:22:25", "bikes": 1, "lat": 43.610488427425665, "status": "OPEN", "address": "15 RUE MERLY", "name": "00057 - MERLY ARCOLE"}, "geometry": {"type": "Point", "coordinates": [1.4431072280246, 43.610488427425665]}}, {"type": "Feature", "properties": {"lon": 1.443637125697445, "stands": 18, "update": "2016-02-05T16:24:10", "bikes": 7, "lat": 43.6106186453129, "status": "OPEN", "address": "4 RUE DE LA CONCORDE", "name": "00058 - CONCORDE ARCOLE"}, "geometry": {"type": "Point", "coordinates": [1.443637125697445, 43.6106186453129]}}, {"type": "Feature", "properties": {"lon": 1.47297, "stands": 9, "update": "2016-02-05T16:23:05", "bikes": 8, "lat": 43.63539, "status": "OPEN", "address": "Boulevard Atlanta / apr\u00e8s angle rue vasseur - 31000 TOULOUSE", "name": "00272 - ANDRE VASSEUR"}, "geometry": {"type": "Point", "coordinates": [1.47297, 43.63539]}}, {"type": "Feature", "properties": {"lon": 1.47517386253435, "stands": 12, "update": "2016-02-05T16:22:22", "bikes": 8, "lat": 43.5628140764194, "status": "OPEN", "address": "AVENUE DU COLONEL ROCHE", "name": "00222 - CAMBOU / ROCHE"}, "geometry": {"type": "Point", "coordinates": [1.47517386253435, 43.5628140764194]}}, {"type": "Feature", "properties": {"lon": 1.442047437838665, "stands": 1, "update": "2016-02-05T16:23:15", "bikes": 19, "lat": 43.60233609279122, "status": "OPEN", "address": "15 RUE SAINTE URSULE", "name": "00004 - STE URSULE"}, "geometry": {"type": "Point", "coordinates": [1.442047437838665, 43.60233609279122]}}, {"type": "Feature", "properties": {"lon": 1.414531359571464, "stands": 15, "update": "2016-02-05T16:20:58", "bikes": 0, "lat": 43.602050919601446, "status": "OPEN", "address": "RUE DES FONTAINES", "name": "00136 - FONTAINES"}, "geometry": {"type": "Point", "coordinates": [1.414531359571464, 43.602050919601446]}}, {"type": "Feature", "properties": {"lon": 1.42438, "stands": 15, "update": "2016-02-05T16:19:00", "bikes": 5, "lat": 43.58807, "status": "OPEN", "address": "BD DEODAT DE SEVERAC", "name": "00142 - SEVERAC"}, "geometry": {"type": "Point", "coordinates": [1.42438, 43.58807]}}, {"type": "Feature", "properties": {"lon": 1.481957162051808, "stands": 12, "update": "2016-02-05T16:21:09", "bikes": 8, "lat": 43.60593083247726, "status": "OPEN", "address": "AV JEAN CHAUBET", "name": "00182 - CHAUBET"}, "geometry": {"type": "Point", "coordinates": [1.481957162051808, 43.60593083247726]}}, {"type": "Feature", "properties": {"lon": 1.451479779266325, "stands": 20, "update": "2016-02-05T16:15:44", "bikes": 2, "lat": 43.613829128033615, "status": "OPEN", "address": "73 BD PIERRE SEMARD", "name": "00094 - SEMARD GARE ROUTIERE"}, "geometry": {"type": "Point", "coordinates": [1.451479779266325, 43.613829128033615]}}, {"type": "Feature", "properties": {"lon": 1.455945448109943, "stands": 11, "update": "2016-02-05T16:16:46", "bikes": 3, "lat": 43.589803552331645, "status": "OPEN", "address": "1 RUE BEGUE", "name": "00127 - BEGUE - DEMOISELLES"}, "geometry": {"type": "Point", "coordinates": [1.455945448109943, 43.589803552331645]}}, {"type": "Feature", "properties": {"lon": 1.40142, "stands": 13, "update": "2016-02-05T16:24:25", "bikes": 5, "lat": 43.61354, "status": "OPEN", "address": "229 AVENUE DE CASSELARDIT CROISEMENT ESPAGNO / CASSELARDIT 31000 TOULOUSE", "name": "00279 - GUY ESPAGNO"}, "geometry": {"type": "Point", "coordinates": [1.40142, 43.61354]}}, {"type": "Feature", "properties": {"lon": 1.4616307898919, "stands": 20, "update": "2016-02-05T16:24:38", "bikes": 0, "lat": 43.614208387732, "status": "OPEN", "address": "26 AVENUE LEON BLUM ANGLE RUE LEON JOUHAUX", "name": "00251 - BLUM / JOUHAUX"}, "geometry": {"type": "Point", "coordinates": [1.4616307898919, 43.614208387732]}}, {"type": "Feature", "properties": {"lon": 1.407211289929025, "stands": 10, "update": "2016-02-05T16:17:41", "bikes": 7, "lat": 43.60419040838992, "status": "OPEN", "address": "292 RUE DES FONTAINES", "name": "00226 - FONTAINES /CASSELARDIT"}, "geometry": {"type": "Point", "coordinates": [1.407211289929025, 43.60419040838992]}}, {"type": "Feature", "properties": {"lon": 1.430120187266013, "stands": 3, "update": "2016-02-05T16:17:06", "bikes": 16, "lat": 43.613472358330974, "status": "OPEN", "address": "57 BD DE L EMBOUCHURE", "name": "00122 - PASSERELLE HAEDENS"}, "geometry": {"type": "Point", "coordinates": [1.430120187266013, 43.613472358330974]}}, {"type": "Feature", "properties": {"lon": 1.443005133993703, "stands": 17, "update": "2016-02-05T16:18:25", "bikes": 4, "lat": 43.59804753924319, "status": "OPEN", "address": "9 RUE HENRY DE GORSSE", "name": "00026 - DALBADE - DE GORSSE"}, "geometry": {"type": "Point", "coordinates": [1.443005133993703, 43.59804753924319]}}, {"type": "Feature", "properties": {"lon": 1.467678323560475, "stands": 20, "update": "2016-02-05T16:19:52", "bikes": 0, "lat": 43.567221153708445, "status": "OPEN", "address": "141 AV DE RANGUEIL", "name": "00230 - RANGUEIL TRIPODE B"}, "geometry": {"type": "Point", "coordinates": [1.467678323560475, 43.567221153708445]}}, {"type": "Feature", "properties": {"lon": 1.456048100267833, "stands": 19, "update": "2016-02-05T16:22:51", "bikes": 1, "lat": 43.601588174955744, "status": "OPEN", "address": "3 BD PR LEOPOLD ESCANDE", "name": "00042 - DAURIAC ESCANDE"}, "geometry": {"type": "Point", "coordinates": [1.456048100267833, 43.601588174955744]}}, {"type": "Feature", "properties": {"lon": 1.411359591750251, "stands": 9, "update": "2016-02-05T16:16:07", "bikes": 9, "lat": 43.614589794633694, "status": "OPEN", "address": "35 RUE PUCCINI", "name": "00219 - PUCCINI/ BLAGNAC"}, "geometry": {"type": "Point", "coordinates": [1.411359591750251, 43.614589794633694]}}, {"type": "Feature", "properties": {"lon": 1.462194464667426, "stands": 16, "update": "2016-02-05T16:19:30", "bikes": 4, "lat": 43.581459211587536, "status": "OPEN", "address": "115 AV ALBERT BEDOUCE", "name": "00163 - BEDOUCE / MIDI"}, "geometry": {"type": "Point", "coordinates": [1.462194464667426, 43.581459211587536]}}, {"type": "Feature", "properties": {"lon": 1.435597311467436, "stands": 3, "update": "2016-02-05T16:22:05", "bikes": 19, "lat": 43.620735968782895, "status": "OPEN", "address": "71 AV DES MINIMES", "name": "00133 - MARCHE AUX COCHONS"}, "geometry": {"type": "Point", "coordinates": [1.435597311467436, 43.620735968782895]}}, {"type": "Feature", "properties": {"lon": 1.47508540800772, "stands": 12, "update": "2016-02-05T16:23:17", "bikes": 6, "lat": 43.58588613821349, "status": "OPEN", "address": "58 AV DES COTTAGES", "name": "00205 - COTTAGE/ RIEUX"}, "geometry": {"type": "Point", "coordinates": [1.47508540800772, 43.58588613821349]}}, {"type": "Feature", "properties": {"lon": 1.428450231443648, "stands": 18, "update": "2016-02-05T16:22:01", "bikes": 2, "lat": 43.60802027853654, "status": "OPEN", "address": "23 RUE DU BEARNAIS", "name": "00086 - HERACLES - BEARNAIS"}, "geometry": {"type": "Point", "coordinates": [1.428450231443648, 43.60802027853654]}}, {"type": "Feature", "properties": {"lon": 1.451093339873272, "stands": 17, "update": "2016-02-05T16:17:42", "bikes": 6, "lat": 43.596478222107635, "status": "OPEN", "address": "HUIT MAI 1945", "name": "00066 - JARDIN ROYAL"}, "geometry": {"type": "Point", "coordinates": [1.451093339873272, 43.596478222107635]}}, {"type": "Feature", "properties": {"lon": 1.408124460028565, "stands": 6, "update": "2016-02-05T16:15:38", "bikes": 12, "lat": 43.6172496485261, "status": "OPEN", "address": "FACE 103 BIS ROUTE DE BLAGNAC", "name": "00240 - RTE DE BLAGNAC / JOB"}, "geometry": {"type": "Point", "coordinates": [1.408124460028565, 43.6172496485261]}}, {"type": "Feature", "properties": {"lon": 1.41476, "stands": 11, "update": "2016-02-05T16:15:38", "bikes": 7, "lat": 43.60614, "status": "OPEN", "address": "BD RICHARD WAGNER / ANGLE A.VIVALDI 31000 TOULOUSE", "name": "282 - RICHARD WAGNER"}, "geometry": {"type": "Point", "coordinates": [1.41476, 43.60614]}}, {"type": "Feature", "properties": {"lon": 1.448244408330328, "stands": 20, "update": "2016-02-05T16:25:18", "bikes": 5, "lat": 43.60629718770727, "status": "OPEN", "address": "4 BD DE STRASBOURG", "name": "00018 - STRASBOURG JEAN JAURES"}, "geometry": {"type": "Point", "coordinates": [1.448244408330328, 43.60629718770727]}}, {"type": "Feature", "properties": {"lon": 1.44002, "stands": 6, "update": "2016-02-05T16:25:18", "bikes": 5, "lat": 43.60459, "status": "OPEN", "address": "66 RUE PARGAMINIERES", "name": "00012 - PARGAMINIERES"}, "geometry": {"type": "Point", "coordinates": [1.44002, 43.60459]}}, {"type": "Feature", "properties": {"lon": 1.425882273289917, "stands": 11, "update": "2016-02-05T16:24:10", "bikes": 9, "lat": 43.596852956620715, "status": "OPEN", "address": "39 AVENUE ETIENNE BILLIERES", "name": "00117 - BILLIERES -POSTE"}, "geometry": {"type": "Point", "coordinates": [1.425882273289917, 43.596852956620715]}}, {"type": "Feature", "properties": {"lon": 1.454093824286969, "stands": 14, "update": "2016-02-05T16:24:54", "bikes": 8, "lat": 43.599990271041186, "status": "OPEN", "address": "14 PL DOMINIQUE MARTIN DUPUY", "name": "00043 - DUPUY"}, "geometry": {"type": "Point", "coordinates": [1.454093824286969, 43.599990271041186]}}, {"type": "Feature", "properties": {"lon": 1.452455826571967, "stands": 2, "update": "2016-02-05T16:24:56", "bikes": 25, "lat": 43.61071810091073, "status": "OPEN", "address": "8T BD DE BONREPOS", "name": "00061 - BONREPOS"}, "geometry": {"type": "Point", "coordinates": [1.452455826571967, 43.61071810091073]}}, {"type": "Feature", "properties": {"lon": 1.460187742067113, "stands": 7, "update": "2016-02-05T16:21:19", "bikes": 8, "lat": 43.57686792022356, "status": "OPEN", "address": "33 AVENUE DES AVIONS", "name": "00165 - PLACE DES AVIONS"}, "geometry": {"type": "Point", "coordinates": [1.460187742067113, 43.57686792022356]}}, {"type": "Feature", "properties": {"lon": 1.42778, "stands": 8, "update": "2016-02-05T16:15:48", "bikes": 8, "lat": 43.62413, "status": "OPEN", "address": "Rue Jules Verne angle Boulevard Silvio Trentin - 31000 TOULOUSE", "name": "00270 - SILVIO TRENTIN"}, "geometry": {"type": "Point", "coordinates": [1.42778, 43.62413]}}, {"type": "Feature", "properties": {"lon": 1.445174430937582, "stands": 17, "update": "2016-02-05T16:20:00", "bikes": 2, "lat": 43.590605082277605, "status": "OPEN", "address": "139 GRANDE RUE ST MICHEL", "name": "00103 - ST MICHEL ST CATHERINE"}, "geometry": {"type": "Point", "coordinates": [1.445174430937582, 43.590605082277605]}}, {"type": "Feature", "properties": {"lon": 1.448061825303155, "stands": 0, "update": "2016-02-05T16:21:58", "bikes": 23, "lat": 43.60610692889793, "status": "OPEN", "address": "7 BD DE STRASBOURG", "name": "00017 - STRASBOURG SARDANE"}, "geometry": {"type": "Point", "coordinates": [1.448061825303155, 43.60610692889793]}}, {"type": "Feature", "properties": {"lon": 1.445315649331453, "stands": 10, "update": "2016-02-05T16:23:14", "bikes": 10, "lat": 43.597401475499026, "status": "OPEN", "address": "1 PL DES CARMES", "name": "00046 - PLACE DES CARMES"}, "geometry": {"type": "Point", "coordinates": [1.445315649331453, 43.597401475499026]}}, {"type": "Feature", "properties": {"lon": 1.461907953641387, "stands": 14, "update": "2016-02-05T16:19:48", "bikes": 4, "lat": 43.627603587351345, "status": "OPEN", "address": "24 BIS CHE AMOUROUX", "name": "00218 - AMOUROUX /STE AUGUSTINE"}, "geometry": {"type": "Point", "coordinates": [1.461907953641387, 43.627603587351345]}}, {"type": "Feature", "properties": {"lon": 1.470077844843929, "stands": 12, "update": "2016-02-05T16:22:37", "bikes": 8, "lat": 43.5834192540153, "status": "OPEN", "address": "2 AV ANTOINE DE ST EXUPERY", "name": "00203 - ST EX. - PETIT PRINCE"}, "geometry": {"type": "Point", "coordinates": [1.470077844843929, 43.5834192540153]}}, {"type": "Feature", "properties": {"lon": 1.441209573825458, "stands": 4, "update": "2016-02-05T16:21:44", "bikes": 8, "lat": 43.60765033417208, "status": "OPEN", "address": "8 RUE DES TROIS RENARDS", "name": "00032 - MUSEE ST RAYMOND"}, "geometry": {"type": "Point", "coordinates": [1.441209573825458, 43.60765033417208]}}, {"type": "Feature", "properties": {"lon": 1.45752, "stands": 8, "update": "2016-02-05T16:24:37", "bikes": 11, "lat": 43.61184, "status": "OPEN", "address": "5 RUE LEDUC", "name": "00005 - LEDUC"}, "geometry": {"type": "Point", "coordinates": [1.45752, 43.61184]}}, {"type": "Feature", "properties": {"lon": 1.432075106068745, "stands": 3, "update": "2016-02-05T16:23:51", "bikes": 13, "lat": 43.59628476386365, "status": "OPEN", "address": "40 ALL CHARLES DE FITTE", "name": "00073 - FITTE TEINTURIERS"}, "geometry": {"type": "Point", "coordinates": [1.432075106068745, 43.59628476386365]}}, {"type": "Feature", "properties": {"lon": 1.440920059367141, "stands": 10, "update": "2016-02-05T16:21:07", "bikes": 13, "lat": 43.594569737633854, "status": "OPEN", "address": "1 AV MAURICE HAURIOU", "name": "00050 - GARONNETTE"}, "geometry": {"type": "Point", "coordinates": [1.440920059367141, 43.594569737633854]}}, {"type": "Feature", "properties": {"lon": 1.449629619920856, "stands": 19, "update": "2016-02-05T16:24:51", "bikes": 8, "lat": 43.604717604204446, "status": "OPEN", "address": "69 BD LAZARE CARNOT", "name": "00020 - CARNOT TROIS JOURNEES"}, "geometry": {"type": "Point", "coordinates": [1.449629619920856, 43.604717604204446]}}, {"type": "Feature", "properties": {"lon": 1.443635078857447, "stands": 18, "update": "2016-02-05T16:23:06", "bikes": 2, "lat": 43.58386908499996, "status": "OPEN", "address": "34 BD DES RECOLLETS", "name": "00155 - RECOLLETS"}, "geometry": {"type": "Point", "coordinates": [1.443635078857447, 43.58386908499996]}}, {"type": "Feature", "properties": {"lon": 1.41028, "stands": 14, "update": "2016-02-05T16:16:34", "bikes": 4, "lat": 43.56507, "status": "OPEN", "address": "Place des Gli\u00e8res", "name": "00264 - LAFOURGUETTE"}, "geometry": {"type": "Point", "coordinates": [1.41028, 43.56507]}}, {"type": "Feature", "properties": {"lon": 1.4842, "stands": 11, "update": "2016-02-05T16:18:50", "bikes": 7, "lat": 43.59666, "status": "OPEN", "address": "FACE 175 ROUTE DE CASTRES ANGLE RUE CARCASSONNE", "name": "00256 - PLACE DE LA RONTONDE"}, "geometry": {"type": "Point", "coordinates": [1.4842, 43.59666]}}, {"type": "Feature", "properties": {"lon": 1.439737579879722, "stands": 17, "update": "2016-02-05T16:23:15", "bikes": 4, "lat": 43.611584087589904, "status": "OPEN", "address": "48 BD D ARCOLE", "name": "00091 - ARCOLE BALANCE"}, "geometry": {"type": "Point", "coordinates": [1.439737579879722, 43.611584087589904]}}, {"type": "Feature", "properties": {"lon": 1.465517338373819, "stands": 13, "update": "2016-02-05T16:22:43", "bikes": 2, "lat": 43.62704846650827, "status": "OPEN", "address": "30 RUE ROUBICHOU", "name": "00185 - ROUBICHOU ARLES"}, "geometry": {"type": "Point", "coordinates": [1.465517338373819, 43.62704846650827]}}, {"type": "Feature", "properties": {"lon": 1.440461106405702, "stands": 11, "update": "2016-02-05T16:23:07", "bikes": 12, "lat": 43.59938372814817, "status": "OPEN", "address": "QUAI DE TOUNIS", "name": "00027 - QUAI DE TOUNIS"}, "geometry": {"type": "Point", "coordinates": [1.440461106405702, 43.59938372814817]}}, {"type": "Feature", "properties": {"lon": 1.478914286004687, "stands": 17, "update": "2016-02-05T16:25:16", "bikes": 1, "lat": 43.589466982143435, "status": "OPEN", "address": "4 AV LUCIEN BAROUX", "name": "00209 - BAROUX/ DARASSE"}, "geometry": {"type": "Point", "coordinates": [1.478914286004687, 43.589466982143435]}}, {"type": "Feature", "properties": {"lon": 1.40230245215212, "stands": 17, "update": "2016-02-05T16:19:51", "bikes": 2, "lat": 43.574612132702526, "status": "OPEN", "address": "3 RUE DE L'UNIVERSITE", "name": "00220 - TABAR /UNIVERSITE"}, "geometry": {"type": "Point", "coordinates": [1.40230245215212, 43.574612132702526]}}, {"type": "Feature", "properties": {"lon": 1.431415230750123, "stands": 0, "update": "2016-02-05T16:23:21", "bikes": 17, "lat": 43.59812186858788, "status": "OPEN", "address": "14 PL INTERIEURE ST CYPRIEN", "name": "00078 - PLACE INT ST CYP. DARRE"}, "geometry": {"type": "Point", "coordinates": [1.431415230750123, 43.59812186858788]}}, {"type": "Feature", "properties": {"lon": 1.448486709552681, "stands": 19, "update": "2016-02-05T16:25:16", "bikes": 3, "lat": 43.615368584913504, "status": "OPEN", "address": "CH DU RAISIN", "name": "00149 - RAISIN MINIMES"}, "geometry": {"type": "Point", "coordinates": [1.448486709552681, 43.615368584913504]}}, {"type": "Feature", "properties": {"lon": 1.446485498451865, "stands": 15, "update": "2016-02-05T16:23:52", "bikes": 4, "lat": 43.613590372531775, "status": "OPEN", "address": "61 RUE DE LA CONCORDE", "name": "00059 - CONCORDE"}, "geometry": {"type": "Point", "coordinates": [1.446485498451865, 43.613590372531775]}}, {"type": "Feature", "properties": {"lon": 1.430389555237135, "stands": 1, "update": "2016-02-05T16:15:28", "bikes": 26, "lat": 43.609753361824794, "status": "OPEN", "address": "1 RUE DE SEBASTOPOL", "name": "00107 - SEBASTOPOL"}, "geometry": {"type": "Point", "coordinates": [1.430389555237135, 43.609753361824794]}}, {"type": "Feature", "properties": {"lon": 1.420141760360439, "stands": 13, "update": "2016-02-05T16:23:02", "bikes": 7, "lat": 43.60390532418828, "status": "OPEN", "address": "29 BOULEVARD RICHARD WAGNER ANG BD JEAN BRUNHES", "name": "00246 - WAGNER / JEAN BRUNHES"}, "geometry": {"type": "Point", "coordinates": [1.420141760360439, 43.60390532418828]}}, {"type": "Feature", "properties": {"lon": 1.450654849861206, "stands": 13, "update": "2016-02-05T16:24:53", "bikes": 3, "lat": 43.60082502483391, "status": "OPEN", "address": "7 RUE DU REMPART ST ETIENNE", "name": "00099 - REMPART ST ETIENNE"}, "geometry": {"type": "Point", "coordinates": [1.450654849861206, 43.60082502483391]}}, {"type": "Feature", "properties": {"lon": 1.48278, "stands": 10, "update": "2016-02-05T16:17:08", "bikes": 6, "lat": 43.57452, "status": "OPEN", "address": "RUE GONIN ANGLE GENIN 31000 TOULOUSE", "name": "00267 - GONIN"}, "geometry": {"type": "Point", "coordinates": [1.48278, 43.57452]}}, {"type": "Feature", "properties": {"lon": 1.449215732146181, "stands": 15, "update": "2016-02-05T16:20:02", "bikes": 5, "lat": 43.592355124495455, "status": "OPEN", "address": "FACE 58 RUE DUMERIL", "name": "00113 - MUSEUM LAMARCK"}, "geometry": {"type": "Point", "coordinates": [1.449215732146181, 43.592355124495455]}}, {"type": "Feature", "properties": {"lon": 1.444528167445985, "stands": 16, "update": "2016-02-05T16:15:33", "bikes": 3, "lat": 43.61692696530316, "status": "OPEN", "address": "5 AV DE COLLIGNON", "name": "00148 - COLLIGNON"}, "geometry": {"type": "Point", "coordinates": [1.444528167445985, 43.61692696530316]}}, {"type": "Feature", "properties": {"lon": 1.454698517821249, "stands": 8, "update": "2016-02-05T16:15:31", "bikes": 10, "lat": 43.62409340165932, "status": "OPEN", "address": "RUE LAPUJADE ANGLE RUE DES FLANDRES", "name": "00167 - LAPUJADE-FLANDRES"}, "geometry": {"type": "Point", "coordinates": [1.454698517821249, 43.62409340165932]}}, {"type": "Feature", "properties": {"lon": 1.41325, "stands": 13, "update": "2016-02-05T16:15:23", "bikes": 5, "lat": 43.56793, "status": "OPEN", "address": "Face N\u00b0251 route de Seysses", "name": "00265 - PASSAGE BORDELONGUE"}, "geometry": {"type": "Point", "coordinates": [1.41325, 43.56793]}}, {"type": "Feature", "properties": {"lon": 1.446483165667178, "stands": 11, "update": "2016-02-05T16:22:26", "bikes": 4, "lat": 43.588359791103294, "status": "OPEN", "address": "50 GRANDE RUE ST MICHEL", "name": "00116 - ST MICHEL NOTRE DAME"}, "geometry": {"type": "Point", "coordinates": [1.446483165667178, 43.588359791103294]}}, {"type": "Feature", "properties": {"lon": 1.446076879873296, "stands": 17, "update": "2016-02-05T16:24:53", "bikes": 2, "lat": 43.609650036285025, "status": "OPEN", "address": "2 PETITE RUE SAINT LAZARE", "name": "00034 - SAINT LAZARE"}, "geometry": {"type": "Point", "coordinates": [1.446076879873296, 43.609650036285025]}}, {"type": "Feature", "properties": {"lon": 1.419524853208122, "stands": 12, "update": "2016-02-05T16:24:06", "bikes": 12, "lat": 43.609967343094006, "status": "OPEN", "address": "129 ALL DE BRIENNE", "name": "00119 - CHAPOU"}, "geometry": {"type": "Point", "coordinates": [1.419524853208122, 43.609967343094006]}}, {"type": "Feature", "properties": {"lon": 1.38887, "stands": 15, "update": "2016-02-05T16:21:47", "bikes": 1, "lat": 43.58171, "status": "OPEN", "address": "Place des Pradettes / rue Arthur Huc", "name": "00275 - PLACE DES PRADETTES"}, "geometry": {"type": "Point", "coordinates": [1.38887, 43.58171]}}, {"type": "Feature", "properties": {"lon": 1.451999386383253, "stands": 8, "update": "2016-02-05T16:17:55", "bikes": 9, "lat": 43.573924940202886, "status": "OPEN", "address": "21 AV DES ECOLES JULES JULIEN", "name": "00160 - THEATRE JULES JULIEN"}, "geometry": {"type": "Point", "coordinates": [1.451999386383253, 43.573924940202886]}}, {"type": "Feature", "properties": {"lon": 1.456086445970436, "stands": 11, "update": "2016-02-05T16:18:17", "bikes": 4, "lat": 43.569437251134566, "status": "OPEN", "address": "64 RTE DE NARBONNE", "name": "00232 - NARBONNE/ MIROUSE"}, "geometry": {"type": "Point", "coordinates": [1.456086445970436, 43.569437251134566]}}, {"type": "Feature", "properties": {"lon": 1.48781984362323, "stands": 11, "update": "2016-02-05T16:22:56", "bikes": 7, "lat": 43.58350615923425, "status": "OPEN", "address": "9 RUE LE DORMEUR", "name": "00211 - LE DORMEUR/ LA TERRASSE"}, "geometry": {"type": "Point", "coordinates": [1.48781984362323, 43.58350615923425]}}, {"type": "Feature", "properties": {"lon": 1.39709, "stands": 18, "update": "2016-02-05T16:20:29", "bikes": 0, "lat": 43.6142, "status": "OPEN", "address": "AVENUE DES ARENES ROMAINES / GUY ESPAGNO DANS ROND POINT 31000 TOULOUSE", "name": "00278 - ARENES ROMAINE"}, "geometry": {"type": "Point", "coordinates": [1.39709, 43.6142]}}, {"type": "Feature", "properties": {"lon": 1.434473692188769, "stands": 0, "update": "2016-02-05T16:24:51", "bikes": 19, "lat": 43.62293779541603, "status": "OPEN", "address": "101 AVENUES DES MINIMES", "name": "00132 - MINIMES BILARD"}, "geometry": {"type": "Point", "coordinates": [1.434473692188769, 43.62293779541603]}}, {"type": "Feature", "properties": {"lon": 1.424941224096277, "stands": 15, "update": "2016-02-05T16:15:35", "bikes": 5, "lat": 43.61395913175851, "status": "OPEN", "address": "29 RUE ROLAND GARROS", "name": "00145 - GOUNOD - GARROS"}, "geometry": {"type": "Point", "coordinates": [1.424941224096277, 43.61395913175851]}}, {"type": "Feature", "properties": {"lon": 1.438157046235524, "stands": 15, "update": "2016-02-05T16:24:37", "bikes": 3, "lat": 43.61375517689823, "status": "OPEN", "address": "16 RUE ALEXANDRE CABANEL", "name": "00110 - CABANEL - SERRES"}, "geometry": {"type": "Point", "coordinates": [1.438157046235524, 43.61375517689823]}}, {"type": "Feature", "properties": {"lon": 1.434225150757254, "stands": 5, "update": "2016-02-05T16:17:37", "bikes": 20, "lat": 43.6269176821576, "status": "OPEN", "address": "BARRI\u00c8RE DE PARIS", "name": "00125 - BARRI\u00c8RE DE PARIS"}, "geometry": {"type": "Point", "coordinates": [1.434225150757254, 43.6269176821576]}}, {"type": "Feature", "properties": {"lon": 1.454189017923435, "stands": 20, "update": "2016-02-05T16:20:04", "bikes": 2, "lat": 43.607433487401345, "status": "OPEN", "address": "54 RUE DES SEPT TROUBADOURS", "name": "00063 - PISCINE LEO LAGRANGE"}, "geometry": {"type": "Point", "coordinates": [1.454189017923435, 43.607433487401345]}}, {"type": "Feature", "properties": {"lon": 1.46539185105244, "stands": 19, "update": "2016-02-05T16:24:18", "bikes": 0, "lat": 43.61743867816197, "status": "OPEN", "address": "64 RUE BAILLAUD", "name": "00177 - BAILLAUD BRUNAUD"}, "geometry": {"type": "Point", "coordinates": [1.46539185105244, 43.61743867816197]}}, {"type": "Feature", "properties": {"lon": 1.483669775054849, "stands": 16, "update": "2016-02-05T16:23:17", "bikes": 1, "lat": 43.57906922965151, "status": "OPEN", "address": "FACE 345 AV JEAN RIEUX", "name": "00200 - PLACE DE L'ORMEAU"}, "geometry": {"type": "Point", "coordinates": [1.483669775054849, 43.57906922965151]}}, {"type": "Feature", "properties": {"lon": 1.444269620551324, "stands": 11, "update": "2016-02-05T16:24:34", "bikes": 6, "lat": 43.60735205357881, "status": "OPEN", "address": "26 RUE DE PERIGORD", "name": "00014 - PERIGORD"}, "geometry": {"type": "Point", "coordinates": [1.444269620551324, 43.60735205357881]}}, {"type": "Feature", "properties": {"lon": 1.4795004816774, "stands": 6, "update": "2016-02-05T16:24:42", "bikes": 11, "lat": 43.610549420565, "status": "OPEN", "address": "27 Avenue Louis PLANA", "name": "00181 - PLANA GARNIER"}, "geometry": {"type": "Point", "coordinates": [1.4795004816774, 43.610549420565]}}, {"type": "Feature", "properties": {"lon": 1.4429, "stands": 3, "update": "2016-02-05T16:24:43", "bikes": 15, "lat": 43.59253, "status": "OPEN", "address": "11 ALL PAUL FEUGA", "name": "00069 - FEUGA"}, "geometry": {"type": "Point", "coordinates": [1.4429, 43.59253]}}, {"type": "Feature", "properties": {"lon": 1.448634234326797, "stands": 4, "update": "2016-02-05T16:20:34", "bikes": 15, "lat": 43.582831686768735, "status": "OPEN", "address": "16 AV DE L'U.R.S.S", "name": "00157 - U.R.S.S  PEYROUSET"}, "geometry": {"type": "Point", "coordinates": [1.448634234326797, 43.582831686768735]}}, {"type": "Feature", "properties": {"lon": 1.425325828280708, "stands": 6, "update": "2016-02-05T16:23:22", "bikes": 14, "lat": 43.581352282638655, "status": "OPEN", "address": "44 AVENUE DE MURET", "name": "00189 - MURET BOUTINON"}, "geometry": {"type": "Point", "coordinates": [1.425325828280708, 43.581352282638655]}}]}