{"type": "FeatureCollection", "features": [{"type": "Feature", "geometry": {"type": "Point", "coordinates": [1.441003598726198, 43.608951960496405]}, "properties": {"bikes": 4, "stands": 11, "name": "00055 - ST SERNIN G. ARNOULT", "status": "OPEN", "lon": 1.441003598726198, "lat": 43.608951960496405, "update": "2016-02-08T21:01:26", "address": "2 RUE GATIEN ARNOULT"}}, {"type": "Feature", "geometry": {"type": "Point", "coordinates": [1.45907112459247, 43.59723540303583]}, "properties": {"bikes": 11, "stands": 6, "name": "00195 - LARROUSSE -RIEUX", "status": "OPEN", "lon": 1.45907112459247, "lat": 43.59723540303583, "update": "2016-02-08T21:06:51", "address": "FACE 15 RUE PIERRE LAROUSSE"}}, {"type": "Feature", "geometry": {"type": "Point", "coordinates": [1.46278065695466, 43.571433064051334]}, "properties": {"bikes": 0, "stands": 18, "name": "00229 - IUT RANGUEIL", "status": "OPEN", "lon": 1.46278065695466, "lat": 43.571433064051334, "update": "2016-02-08T21:09:35", "address": "129 AV DE RANGUEIL"}}, {"type": "Feature", "geometry": {"type": "Point", "coordinates": [1.452605307400692, 43.597074846780274]}, "properties": {"bikes": 3, "stands": 24, "name": "00065 - VERDIER - GRAND ROND", "status": "OPEN", "lon": 1.452605307400692, "lat": 43.597074846780274, "update": "2016-02-08T21:02:25", "address": "2 ALL FORAIN FRANCOIS VERDIER"}}, {"type": "Feature", "geometry": {"type": "Point", "coordinates": [1.45195665819857, 43.60221990815785]}, "properties": {"bikes": 11, "stands": 9, "name": "00022 - CARNOT ROLAND", "status": "OPEN", "lon": 1.45195665819857, "lat": 43.60221990815785, "update": "2016-02-08T21:10:05", "address": "24 BD LAZARE CARNOT"}}, {"type": "Feature", "geometry": {"type": "Point", "coordinates": [1.403872948950036, 43.59729443895585]}, "properties": {"bikes": 9, "stands": 11, "name": "00236 - TOEC / LEMIRE", "status": "OPEN", "lon": 1.403872948950036, "lat": 43.59729443895585, "update": "2016-02-08T21:08:36", "address": "RUE DE L'ABBE JULES LEMIRE"}}, {"type": "Feature", "geometry": {"type": "Point", "coordinates": [1.442921175845342, 43.615259799224134]}, "properties": {"bikes": 27, "stands": 0, "name": "00111 - MINIMES PASSERELLE", "status": "OPEN", "lon": 1.442921175845342, "lat": 43.615259799224134, "update": "2016-02-08T21:08:08", "address": "38B BD DES MINIMES"}}, {"type": "Feature", "geometry": {"type": "Point", "coordinates": [1.43180804154469, 43.632641237523]}, "properties": {"bikes": 10, "stands": 7, "name": "00243 - ETATS-UNIS / FERRY", "status": "OPEN", "lon": 1.43180804154469, "lat": 43.632641237523, "update": "2016-02-08T21:04:49", "address": "96 av des Etats-Unis angle rue Jules Ferry"}}, {"type": "Feature", "geometry": {"type": "Point", "coordinates": [1.452693250180783, 43.63692179179762]}, "properties": {"bikes": 16, "stands": 3, "name": "00174 - MAUNOURY / MELA", "status": "OPEN", "lon": 1.452693250180783, "lat": 43.63692179179762, "update": "2016-02-08T21:00:51", "address": "41 AV MAURICE BOURGES MAUNOURY"}}, {"type": "Feature", "geometry": {"type": "Point", "coordinates": [1.420275802412521, 43.60094924792523]}, "properties": {"bikes": 20, "stands": 0, "name": "00137 - BRUNHES-FONTAINES", "status": "OPEN", "lon": 1.420275802412521, "lat": 43.60094924792523, "update": "2016-02-08T21:04:53", "address": "47 BD JEAN BRUNHES"}}, {"type": "Feature", "geometry": {"type": "Point", "coordinates": [1.421715694303944, 43.61606217398145]}, "properties": {"bikes": 9, "stands": 11, "name": "00144 - SUISSE - LAUSANE", "status": "OPEN", "lon": 1.421715694303944, "lat": 43.61606217398145, "update": "2016-02-08T21:03:09", "address": "62 BD DE SUISSE"}}, {"type": "Feature", "geometry": {"type": "Point", "coordinates": [1.453588691746783, 43.604660136134775]}, "properties": {"bikes": 6, "stands": 10, "name": "00040 - COLOMBETTE", "status": "OPEN", "lon": 1.453588691746783, "lat": 43.604660136134775, "update": "2016-02-08T21:08:00", "address": "41 RUE DE LA COLOMBETTE"}}, {"type": "Feature", "geometry": {"type": "Point", "coordinates": [1.445569311598848, 43.60333593826575]}, "properties": {"bikes": 1, "stands": 16, "name": "00003 - POMME", "status": "OPEN", "lon": 1.445569311598848, "lat": 43.60333593826575, "update": "2016-02-08T21:07:10", "address": "62 RUE DE LA POMME"}}, {"type": "Feature", "geometry": {"type": "Point", "coordinates": [1.418420510391943, 43.5955673906372]}, "properties": {"bikes": 18, "stands": 7, "name": "00139 - BARRIERE DE LOMBEZ", "status": "OPEN", "lon": 1.418420510391943, "lat": 43.5955673906372, "update": "2016-02-08T21:02:39", "address": "39 BIS AV DE LOMBEZ"}}, {"type": "Feature", "geometry": {"type": "Point", "coordinates": [1.44361404386217, 43.614465544425535]}, "properties": {"bikes": 8, "stands": 9, "name": "00093 - PRINTEMPS", "status": "OPEN", "lon": 1.44361404386217, "lat": 43.614465544425535, "update": "2016-02-08T21:09:31", "address": "57 RUE DU PRINTEMPS"}}, {"type": "Feature", "geometry": {"type": "Point", "coordinates": [1.429556601823956, 43.59989498759688]}, "properties": {"bikes": 31, "stands": 2, "name": "00081 - JARDIN RAYMOND VI", "status": "OPEN", "lon": 1.429556601823956, "lat": 43.59989498759688, "update": "2016-02-08T21:02:02", "address": "ALL CHARLES DE FITTE"}}, {"type": "Feature", "geometry": {"type": "Point", "coordinates": [1.449039275575635, 43.64108958806659]}, "properties": {"bikes": 15, "stands": 5, "name": "00248 - BOUQUETINS/E. ROSTAND", "status": "OPEN", "lon": 1.449039275575635, "lat": 43.64108958806659, "update": "2016-02-08T21:05:02", "address": "RUE DES BOUQUETINS ANGLE RUE EDMOND ROSTAND"}}, {"type": "Feature", "geometry": {"type": "Point", "coordinates": [1.437631489341106, 43.60863633636605]}, "properties": {"bikes": 3, "stands": 22, "name": "00053 - PLACE SAINT JULIEN", "status": "OPEN", "lon": 1.437631489341106, "lat": 43.60863633636605, "update": "2016-02-08T21:07:28", "address": "PL SAINT JULIEN"}}, {"type": "Feature", "geometry": {"type": "Point", "coordinates": [1.432335729928681, 43.609500004240715]}, "properties": {"bikes": 1, "stands": 23, "name": "00087 - LASCROSSES LECLERC", "status": "OPEN", "lon": 1.432335729928681, "lat": 43.609500004240715, "update": "2016-02-08T21:04:46", "address": "47 BD LASCROSSES"}}, {"type": "Feature", "geometry": {"type": "Point", "coordinates": [1.438340345212284, 43.612327522628846]}, "properties": {"bikes": 16, "stands": 1, "name": "00121 - SERRES - A. BERNARD", "status": "OPEN", "lon": 1.438340345212284, "lat": 43.612327522628846, "update": "2016-02-08T21:09:30", "address": "33 AV HONRE SERRES"}}, {"type": "Feature", "geometry": {"type": "Point", "coordinates": [1.469393836823441, 43.577166917623245]}, "properties": {"bikes": 11, "stands": 9, "name": "00239 - LESPINET / HERBETTES", "status": "OPEN", "lon": 1.469393836823441, "lat": 43.577166917623245, "update": "2016-02-08T21:10:01", "address": "FACE AU 127 AVENUE DE LESPINET"}}, {"type": "Feature", "geometry": {"type": "Point", "coordinates": [1.445420780739279, 43.604134687021045]}, "properties": {"bikes": 0, "stands": 19, "name": "00001 - POIDS DE L'HUILE", "status": "OPEN", "lon": 1.445420780739279, "lat": 43.604134687021045, "update": "2016-02-08T21:10:10", "address": "12 RUE DU POIDS DE L'HUILE"}}, {"type": "Feature", "geometry": {"type": "Point", "coordinates": [1.446593812218414, 43.605852162177925]}, "properties": {"bikes": 12, "stands": 11, "name": "00007 - PLACE VICTOR HUGO", "status": "OPEN", "lon": 1.446593812218414, "lat": 43.605852162177925, "update": "2016-02-08T21:02:44", "address": "6 RUE DU REMPART VILLENEUVE"}}, {"type": "Feature", "geometry": {"type": "Point", "coordinates": [1.43298, 43.64751]}, "properties": {"bikes": 14, "stands": 6, "name": "00259 - PLACE RICHE", "status": "OPEN", "lon": 1.43298, "lat": 43.64751, "update": "2016-02-08T21:01:10", "address": "Place Riche / Lalande - 31000 TOULOUSE"}}, {"type": "Feature", "geometry": {"type": "Point", "coordinates": [1.451330504561275, 43.628236592839514]}, "properties": {"bikes": 11, "stands": 4, "name": "00234 - LOIN / RAYNAL", "status": "OPEN", "lon": 1.451330504561275, "lat": 43.628236592839514, "update": "2016-02-08T21:00:45", "address": "RUE LOIN 100M AVT RAYNAL"}}, {"type": "Feature", "geometry": {"type": "Point", "coordinates": [1.409162125552512, 43.587659413053814]}, "properties": {"bikes": 1, "stands": 19, "name": "00192 - RTE DE ST SIMON/PRADO", "status": "OPEN", "lon": 1.409162125552512, "lat": 43.587659413053814, "update": "2016-02-08T16:31:44", "address": "355 route de saint-Simon"}}, {"type": "Feature", "geometry": {"type": "Point", "coordinates": [1.444132711268797, 43.59474911973265]}, "properties": {"bikes": 2, "stands": 20, "name": "00048 - PLACE DU SALIN", "status": "OPEN", "lon": 1.444132711268797, "lat": 43.59474911973265, "update": "2016-02-08T21:04:42", "address": "18 PL DU SALIN"}}, {"type": "Feature", "geometry": {"type": "Point", "coordinates": [1.45256734914219, 43.6394555737186]}, "properties": {"bikes": 12, "stands": 18, "name": "00175 - METRO MAUNOURY", "status": "OPEN", "lon": 1.45256734914219, "lat": 43.6394555737186, "update": "2016-02-08T21:07:52", "address": "Avenue Maurice BOURGES MAUNOURY"}}, {"type": "Feature", "geometry": {"type": "Point", "coordinates": [1.462031097914686, 43.574366149048714]}, "properties": {"bikes": 1, "stands": 19, "name": "00166 - RANGUEIL GUYOU", "status": "OPEN", "lon": 1.462031097914686, "lat": 43.574366149048714, "update": "2016-02-08T21:02:50", "address": "23 RUE GUYOU"}}, {"type": "Feature", "geometry": {"type": "Point", "coordinates": [1.458585739964361, 43.62316326019301]}, "properties": {"bikes": 17, "stands": 1, "name": "00135 - BONNEFOY   LEMAITRE", "status": "OPEN", "lon": 1.458585739964361, "lat": 43.62316326019301, "update": "2016-02-08T21:07:23", "address": "183 RUE DU FB  BONNEFOY"}}, {"type": "Feature", "geometry": {"type": "Point", "coordinates": [1.453805825078145, 43.590622011025665]}, "properties": {"bikes": 3, "stands": 14, "name": "00115 - DEMOISELLES MISTRAL", "status": "OPEN", "lon": 1.453805825078145, "lat": 43.590622011025665, "update": "2016-02-08T21:10:18", "address": "8 ALL DES DEMOISELLES"}}, {"type": "Feature", "geometry": {"type": "Point", "coordinates": [1.44938, 43.59468]}, "properties": {"bikes": 3, "stands": 18, "name": "00067 - MUSEUM", "status": "OPEN", "lon": 1.44938, "lat": 43.59468, "update": "2016-02-08T21:09:38", "address": "35 ALL JULES GUESDE"}}, {"type": "Feature", "geometry": {"type": "Point", "coordinates": [1.427517107421507, 43.584282965328995]}, "properties": {"bikes": 9, "stands": 9, "name": "00188 - MURET/LAFAGE", "status": "OPEN", "lon": 1.427517107421507, "lat": 43.584282965328995, "update": "2016-02-08T21:04:34", "address": "121 AVENUE DE MURET"}}, {"type": "Feature", "geometry": {"type": "Point", "coordinates": [1.468753766918999, 43.619281402937425]}, "properties": {"bikes": 1, "stands": 19, "name": "00178 - BRUNAUD / PLANA", "status": "OPEN", "lon": 1.468753766918999, "lat": 43.619281402937425, "update": "2016-02-08T21:07:40", "address": "AVENUE YVES BRUNAUD"}}, {"type": "Feature", "geometry": {"type": "Point", "coordinates": [1.454436078796189, 43.60265364232074]}, "properties": {"bikes": 8, "stands": 13, "name": "00041 - ST AUBIN CAMICHEL", "status": "OPEN", "lon": 1.454436078796189, "lat": 43.60265364232074, "update": "2016-02-08T21:05:14", "address": "1 RUE CHARLES CAMICHEL"}}, {"type": "Feature", "geometry": {"type": "Point", "coordinates": [1.437871385550754, 43.61146971436288]}, "properties": {"bikes": 8, "stands": 17, "name": "00090 - LASCROSSES- A. BERNARD", "status": "OPEN", "lon": 1.437871385550754, "lat": 43.61146971436288, "update": "2016-02-08T21:10:11", "address": "3B BD LASCROSSES"}}, {"type": "Feature", "geometry": {"type": "Point", "coordinates": [1.434707777421923, 43.615173611788045]}, "properties": {"bikes": 5, "stands": 20, "name": "00109 - METRO CANAL DU MIDI", "status": "OPEN", "lon": 1.434707777421923, "lat": 43.615173611788045, "update": "2016-02-08T21:04:12", "address": "1 BD DE LA MARQUETTE"}}, {"type": "Feature", "geometry": {"type": "Point", "coordinates": [1.464093716152017, 43.60038605818475]}, "properties": {"bikes": 1, "stands": 19, "name": "00197 - CASERNE PERIGNON", "status": "OPEN", "lon": 1.464093716152017, "lat": 43.60038605818475, "update": "2016-02-08T21:03:32", "address": "6 AV LOUIS BLERIOT"}}, {"type": "Feature", "geometry": {"type": "Point", "coordinates": [1.452057713684133, 43.60128593726337]}, "properties": {"bikes": 5, "stands": 21, "name": "00023 - COMBATTANTS", "status": "OPEN", "lon": 1.452057713684133, "lat": 43.60128593726337, "update": "2016-02-08T21:09:44", "address": "6 BD LAZARE CARNOT"}}, {"type": "Feature", "geometry": {"type": "Point", "coordinates": [1.39262, 43.5792]}, "properties": {"bikes": 4, "stands": 14, "name": "00273 - PASSERIEU - ST SIMON", "status": "OPEN", "lon": 1.39262, "lat": 43.5792, "update": "2016-02-08T21:00:19", "address": "ROND POINT DES IZARD ANGLEPASSERIEU ET ROUTE ST SIMON"}}, {"type": "Feature", "geometry": {"type": "Point", "coordinates": [1.437032051956223, 43.605071904633625]}, "properties": {"bikes": 4, "stands": 15, "name": "00029 - VALADE", "status": "OPEN", "lon": 1.437032051956223, "lat": 43.605071904633625, "update": "2016-02-08T21:06:47", "address": "31 RUE VALADE"}}, {"type": "Feature", "geometry": {"type": "Point", "coordinates": [1.44871, 43.57383]}, "properties": {"bikes": 18, "stands": 0, "name": "280 - CHARBONNIERE", "status": "OPEN", "lon": 1.44871, "lat": 43.57383, "update": "2016-02-08T21:08:45", "address": "RUE DE LA CHARBONNIERE ANGLE RUE DES PALMIERS 31000 TOULOUSE"}}, {"type": "Feature", "geometry": {"type": "Point", "coordinates": [1.441783289134449, 43.579737115748195]}, "properties": {"bikes": 3, "stands": 13, "name": "00156 - METRO EMPALOT", "status": "OPEN", "lon": 1.441783289134449, "lat": 43.579737115748195, "update": "2016-02-08T21:04:48", "address": "38 AV JEAN MOULIN FACE DEBOUCHE RUE DE CANNES"}}, {"type": "Feature", "geometry": {"type": "Point", "coordinates": [1.437493796200118, 43.633866178151905]}, "properties": {"bikes": 15, "stands": 1, "name": "00242 -  RAIMBAUD / COLETTE", "status": "OPEN", "lon": 1.437493796200118, "lat": 43.633866178151905, "update": "2016-02-08T21:09:20", "address": "RUE RAIMBAUD ANGLE RUE COLETTE"}}, {"type": "Feature", "geometry": {"type": "Point", "coordinates": [1.474881961695726, 43.566595761363736]}, "properties": {"bikes": 0, "stands": 20, "name": "00224 - CAMPUS SUPAERO", "status": "OPEN", "lon": 1.474881961695726, "lat": 43.566595761363736, "update": "2016-02-08T21:10:06", "address": "AVENUE EDOUARD BELIN FACE CH\u00c2TEAU DU CREPS"}}, {"type": "Feature", "geometry": {"type": "Point", "coordinates": [1.4420311550308, 43.58995890864312]}, "properties": {"bikes": 3, "stands": 17, "name": "00154 - GALLOIS", "status": "OPEN", "lon": 1.4420311550308, "lat": 43.58995890864312, "update": "2016-02-08T21:04:33", "address": "RUE DES GALLOIS"}}, {"type": "Feature", "geometry": {"type": "Point", "coordinates": [1.455204795385279, 43.60974282737991]}, "properties": {"bikes": 6, "stands": 19, "name": "00096 - MEDIATHEQUE", "status": "OPEN", "lon": 1.455204795385279, "lat": 43.60974282737991, "update": "2016-02-08T21:02:51", "address": "50 RUE DU GENERAL COMPANS"}}, {"type": "Feature", "geometry": {"type": "Point", "coordinates": [1.438302180907754, 43.624183134252704]}, "properties": {"bikes": 4, "stands": 15, "name": "00152 - MAZADES", "status": "OPEN", "lon": 1.438302180907754, "lat": 43.624183134252704, "update": "2016-02-08T21:02:52", "address": "10 AV DES MAZADES"}}, {"type": "Feature", "geometry": {"type": "Point", "coordinates": [1.37975, 43.58132]}, "properties": {"bikes": 18, "stands": 0, "name": "00276 - MARIN REBOUL", "status": "OPEN", "lon": 1.37975, "lat": 43.58132, "update": "2016-02-08T21:04:23", "address": "chemin du Marin angle chemin du Reboul"}}, {"type": "Feature", "geometry": {"type": "Point", "coordinates": [1.431605284631358, 43.597835830061406]}, "properties": {"bikes": 7, "stands": 6, "name": "00077 - PLACE INT SAINT CYPRIEN", "status": "OPEN", "lon": 1.431605284631358, "lat": 43.597835830061406, "update": "2016-02-08T21:04:59", "address": "2 PL INTERIEURE ST CYPRIEN"}}, {"type": "Feature", "geometry": {"type": "Point", "coordinates": [1.445580732388259, 43.599435045967155]}, "properties": {"bikes": 0, "stands": 17, "name": "00025 - PLACE ROUAIX", "status": "OPEN", "lon": 1.445580732388259, "lat": 43.599435045967155, "update": "2016-02-08T21:03:26", "address": "1 RUE DES TOURNEURS"}}, {"type": "Feature", "geometry": {"type": "Point", "coordinates": [1.436175197009508, 43.596660562935625]}, "properties": {"bikes": 5, "stands": 12, "name": "00074 - LAGANNE TEINTURIERS", "status": "OPEN", "lon": 1.436175197009508, "lat": 43.596660562935625, "update": "2016-02-08T21:03:37", "address": "37 RUE LAGANNE"}}, {"type": "Feature", "geometry": {"type": "Point", "coordinates": [1.434894328349442, 43.59318934283672]}, "properties": {"bikes": 0, "stands": 22, "name": "00071 - COURS DILLON", "status": "OPEN", "lon": 1.434894328349442, "lat": 43.59318934283672, "update": "2016-02-08T21:00:31", "address": "3 RUE LAGANNE"}}, {"type": "Feature", "geometry": {"type": "Point", "coordinates": [1.428862699237109, 43.59764204883991]}, "properties": {"bikes": 16, "stands": 3, "name": "00105 - BILLIERE -CHAMPETRE", "status": "OPEN", "lon": 1.428862699237109, "lat": 43.59764204883991, "update": "2016-02-08T21:04:31", "address": "12  AV  ETIENNE  BILLIERES"}}, {"type": "Feature", "geometry": {"type": "Point", "coordinates": [1.454987798766018, 43.60617263070887]}, "properties": {"bikes": 13, "stands": 10, "name": "00064 - PERI MERCADIER", "status": "OPEN", "lon": 1.454987798766018, "lat": 43.60617263070887, "update": "2016-02-08T21:07:24", "address": "0030 RUE GABRIEL PERI"}}, {"type": "Feature", "geometry": {"type": "Point", "coordinates": [1.448541598385468, 43.61263652233987]}, "properties": {"bikes": 16, "stands": 8, "name": "00060 - ROQUELAINE", "status": "OPEN", "lon": 1.448541598385468, "lat": 43.61263652233987, "update": "2016-02-08T21:03:26", "address": "32 PL ROQUELAINE"}}, {"type": "Feature", "geometry": {"type": "Point", "coordinates": [1.449367822982907, 43.609623167283914]}, "properties": {"bikes": 14, "stands": 10, "name": "00036 - PLACE SCHUMAN", "status": "OPEN", "lon": 1.449367822982907, "lat": 43.609623167283914, "update": "2016-02-08T21:10:11", "address": "5 PL ROBERT SCHUMAN"}}, {"type": "Feature", "geometry": {"type": "Point", "coordinates": [1.462869145576551, 43.56160969546884]}, "properties": {"bikes": 0, "stands": 20, "name": "00227 - METRO UPS", "status": "OPEN", "lon": 1.462869145576551, "lat": 43.56160969546884, "update": "2016-02-08T21:01:14", "address": "118  RTE DE NARBONNE"}}, {"type": "Feature", "geometry": {"type": "Point", "coordinates": [1.415543960373121, 43.584523123495174]}, "properties": {"bikes": 6, "stands": 10, "name": "00187 - DESBALS MONTDORE", "status": "OPEN", "lon": 1.415543960373121, "lat": 43.584523123495174, "update": "2016-02-08T21:09:39", "address": "187 RUE HENRI DESBALS"}}, {"type": "Feature", "geometry": {"type": "Point", "coordinates": [1.473268554354084, 43.56947707206279]}, "properties": {"bikes": 1, "stands": 19, "name": "00225 - BELIN ONERA", "status": "OPEN", "lon": 1.473268554354084, "lat": 43.56947707206279, "update": "2016-02-08T21:02:24", "address": "AVENUE EDOUARD BELIN DEVANT ONERA"}}, {"type": "Feature", "geometry": {"type": "Point", "coordinates": [1.432687682718845, 43.60524239596951]}, "properties": {"bikes": 1, "stands": 22, "name": "00084 - BRIENNE MANUFACTURE", "status": "OPEN", "lon": 1.432687682718845, "lat": 43.60524239596951, "update": "2016-02-08T21:05:33", "address": "19T ALL DE BRIENNE"}}, {"type": "Feature", "geometry": {"type": "Point", "coordinates": [1.480087483756261, 43.59122002356995]}, "properties": {"bikes": 7, "stands": 9, "name": "00208 - LIMAYRAC/ DARASSE", "status": "OPEN", "lon": 1.480087483756261, "lat": 43.59122002356995, "update": "2016-02-08T21:04:27", "address": "ALL DE LIMAYRAC"}}, {"type": "Feature", "geometry": {"type": "Point", "coordinates": [1.414597471267562, 43.61174111564092]}, "properties": {"bikes": 19, "stands": 0, "name": "00131 - BERNIES", "status": "OPEN", "lon": 1.414597471267562, "lat": 43.61174111564092, "update": "2016-02-08T21:07:58", "address": "15 RUE PAUL BERNIES"}}, {"type": "Feature", "geometry": {"type": "Point", "coordinates": [1.429880706043356, 43.593506929037055]}, "properties": {"bikes": 13, "stands": 5, "name": "00037 - STE LUCIE", "status": "OPEN", "lon": 1.429880706043356, "lat": 43.593506929037055, "update": "2016-02-08T21:07:45", "address": "53 RUE STE LUCIE"}}, {"type": "Feature", "geometry": {"type": "Point", "coordinates": [1.41398, 43.57375]}, "properties": {"bikes": 4, "stands": 16, "name": "00266 - TOURAINE", "status": "OPEN", "lon": 1.41398, "lat": 43.57375, "update": "2016-02-08T21:06:34", "address": "38 RUE DE LA TOURAINE ANGLE RUE D AUVERGNE 31000 TOULOUSE"}}, {"type": "Feature", "geometry": {"type": "Point", "coordinates": [1.434138106708093, 43.60112880561738]}, "properties": {"bikes": 7, "stands": 12, "name": "00079 - PLACE LANGE", "status": "OPEN", "lon": 1.434138106708093, "lat": 43.60112880561738, "update": "2016-02-08T21:09:40", "address": "1 PL LANGE"}}, {"type": "Feature", "geometry": {"type": "Point", "coordinates": [1.483021040946601, 43.586074956653995]}, "properties": {"bikes": 5, "stands": 13, "name": "00210 - TERRASSE/ CENTRE CO.", "status": "OPEN", "lon": 1.483021040946601, "lat": 43.586074956653995, "update": "2016-02-08T21:04:19", "address": "FACE 42 CHE DE LA TERRASSE"}}, {"type": "Feature", "geometry": {"type": "Point", "coordinates": [1.436590757220506, 43.598542607102175]}, "properties": {"bikes": 10, "stands": 11, "name": "00075 - CHATEAU D EAU", "status": "OPEN", "lon": 1.436590757220506, "lat": 43.598542607102175, "update": "2016-02-08T21:07:49", "address": "12 PL LAGANNE"}}, {"type": "Feature", "geometry": {"type": "Point", "coordinates": [1.406488768851485, 43.57641895477528]}, "properties": {"bikes": 2, "stands": 18, "name": "00221 - VAUQUELIN", "status": "OPEN", "lon": 1.406488768851485, "lat": 43.57641895477528, "update": "2016-02-08T21:08:38", "address": "FACE 85 RUE VAUQUELIN"}}, {"type": "Feature", "geometry": {"type": "Point", "coordinates": [1.447411881616044, 43.58589564207925]}, "properties": {"bikes": 23, "stands": 0, "name": "00128 - PRISON ST MICHEL", "status": "OPEN", "lon": 1.447411881616044, "lat": 43.58589564207925, "update": "2016-02-08T21:10:02", "address": "18 B GRANDE RUE ST MICHEL"}}, {"type": "Feature", "geometry": {"type": "Point", "coordinates": [1.450764528471522, 43.58817925392077]}, "properties": {"bikes": 12, "stands": 3, "name": "00118 - PLACE DU BUSCA", "status": "OPEN", "lon": 1.450764528471522, "lat": 43.58817925392077, "update": "2016-02-08T21:05:34", "address": "2 PLACE DU BUSCA"}}, {"type": "Feature", "geometry": {"type": "Point", "coordinates": [1.44455, 43.59265]}, "properties": {"bikes": 3, "stands": 13, "name": "00068 - METRO - PALAIS DE JUSTICE", "status": "OPEN", "lon": 1.44455, "lat": 43.59265, "update": "2016-02-08T21:06:05", "address": "1 BIS ALLEE JULES GUESDE"}}, {"type": "Feature", "geometry": {"type": "Point", "coordinates": [1.428966282419491, 43.61990748467363]}, "properties": {"bikes": 15, "stands": 5, "name": "00147 - CHAUSSAS - DAUDET", "status": "OPEN", "lon": 1.428966282419491, "lat": 43.61990748467363, "update": "2016-02-08T21:03:08", "address": "96 RUE DE CHAUSSAS"}}, {"type": "Feature", "geometry": {"type": "Point", "coordinates": [1.447936286895422, 43.628469420497346]}, "properties": {"bikes": 12, "stands": 5, "name": "00153 - BOURGES MAUNOURY", "status": "OPEN", "lon": 1.447936286895422, "lat": 43.628469420497346, "update": "2016-02-08T21:05:32", "address": "12 AV BOURGES MAUNOURY"}}, {"type": "Feature", "geometry": {"type": "Point", "coordinates": [1.45632, 43.64265]}, "properties": {"bikes": 1, "stands": 17, "name": "00262 - ROND POINT CHEMIN DE BORDEROUGE", "status": "OPEN", "lon": 1.45632, "lat": 43.64265, "update": "2016-02-08T21:01:01", "address": "Devant N\u00b026 Chemin de Borderouge"}}, {"type": "Feature", "geometry": {"type": "Point", "coordinates": [1.458852500499583, 43.56641276350635]}, "properties": {"bikes": 6, "stands": 14, "name": "00233 - NARBONNE /SAHUQUE", "status": "OPEN", "lon": 1.458852500499583, "lat": 43.56641276350635, "update": "2016-02-08T21:06:37", "address": "105 RTE DE NARBONNE"}}, {"type": "Feature", "geometry": {"type": "Point", "coordinates": [1.450245130369442, 43.60411143798555]}, "properties": {"bikes": 8, "stands": 17, "name": "00021 - CARNOT LABEDA", "status": "OPEN", "lon": 1.450245130369442, "lat": 43.60411143798555, "update": "2016-02-08T21:01:42", "address": "63 BD LAZARE CARNOT"}}, {"type": "Feature", "geometry": {"type": "Point", "coordinates": [1.45336004007864, 43.609044644058145]}, "properties": {"bikes": 3, "stands": 19, "name": "00062 - JAURES STALINGRAD", "status": "OPEN", "lon": 1.45336004007864, "lat": 43.609044644058145, "update": "2016-02-08T21:09:06", "address": "71 ALL JEAN JAURES"}}, {"type": "Feature", "geometry": {"type": "Point", "coordinates": [1.443751822397876, 43.635706776069696]}, "properties": {"bikes": 18, "stands": 0, "name": "00244 - RENAN / VITRY", "status": "OPEN", "lon": 1.443751822397876, "lat": 43.635706776069696, "update": "2016-02-08T21:04:54", "address": "93 RUE ERNEST RENAN ANGLE RUE VITRY"}}, {"type": "Feature", "geometry": {"type": "Point", "coordinates": [1.41518438915584, 43.59990824072129]}, "properties": {"bikes": 0, "stands": 1, "name": "00245 - GRANDE BRETAGNE / BADIOU", "status": "OPEN", "lon": 1.41518438915584, "lat": 43.59990824072129, "update": "2016-02-08T21:08:29", "address": "103 BIS AVENUE DE GRANDE BRETAGNE ANGLE RUE BADIOU"}}, {"type": "Feature", "geometry": {"type": "Point", "coordinates": [1.43379, 43.64495]}, "properties": {"bikes": 13, "stands": 5, "name": "00260 - DUCLOS - FRONTON", "status": "OPEN", "lon": 1.43379, "lat": 43.64495, "update": "2016-02-08T21:04:41", "address": "Avenue duclos angle Avenue de Fronton"}}, {"type": "Feature", "geometry": {"type": "Point", "coordinates": [1.464456852027628, 43.567716505871594]}, "properties": {"bikes": 0, "stands": 18, "name": "00228 - METRO PHARMACIE", "status": "OPEN", "lon": 1.464456852027628, "lat": 43.567716505871594, "update": "2016-02-08T21:03:40", "address": "FACE 35 CHEMIN DES MARAICHERS"}}, {"type": "Feature", "geometry": {"type": "Point", "coordinates": [1.43538536091475, 43.6333722270955]}, "properties": {"bikes": 9, "stands": 10, "name": "00235 - PAUL VERLAINE", "status": "OPEN", "lon": 1.43538536091475, "lat": 43.6333722270955, "update": "2016-02-08T21:10:04", "address": "FACE AU 8 RUE PAUL VERLAINE"}}, {"type": "Feature", "geometry": {"type": "Point", "coordinates": [1.439870900566373, 43.62593095954932]}, "properties": {"bikes": 11, "stands": 7, "name": "00150 - CURIE CAMPISTRON", "status": "OPEN", "lon": 1.439870900566373, "lat": 43.62593095954932, "update": "2016-02-08T21:02:38", "address": "78 BD PIERRE ET MARIE CURIE"}}, {"type": "Feature", "geometry": {"type": "Point", "coordinates": [1.39711, 43.61948]}, "properties": {"bikes": 9, "stands": 11, "name": "00271 - ANCELY", "status": "OPEN", "lon": 1.39711, "lat": 43.61948, "update": "2016-02-08T21:04:53", "address": "151 AVENUE DE CASSELARDIT SORTIE VILLE 31000 TOULOUSE"}}, {"type": "Feature", "geometry": {"type": "Point", "coordinates": [1.443570238387108, 43.608568713084686]}, "properties": {"bikes": 13, "stands": 2, "name": "00033 - BERALDI", "status": "OPEN", "lon": 1.443570238387108, "lat": 43.608568713084686, "update": "2016-02-08T21:08:54", "address": "11 RUE HENRI BERALDI"}}, {"type": "Feature", "geometry": {"type": "Point", "coordinates": [1.461191671613412, 43.642833569777416]}, "properties": {"bikes": 12, "stands": 7, "name": "00172 - NETWILLER / LAFORGUE", "status": "OPEN", "lon": 1.461191671613412, "lat": 43.642833569777416, "update": "2016-02-08T21:05:12", "address": "RUE HENRI EBELOT"}}, {"type": "Feature", "geometry": {"type": "Point", "coordinates": [1.420545407442975, 43.61035351524297]}, "properties": {"bikes": 18, "stands": 0, "name": "00120 - PONTS JUMEAUX", "status": "OPEN", "lon": 1.420545407442975, "lat": 43.61035351524297, "update": "2016-02-08T21:03:34", "address": "152 ALL DE BARCELONE"}}, {"type": "Feature", "geometry": {"type": "Point", "coordinates": [1.466442513411802, 43.629671600633195]}, "properties": {"bikes": 12, "stands": 6, "name": "00217 - AMOUROUX/ ST TROPEZ", "status": "OPEN", "lon": 1.466442513411802, "lat": 43.629671600633195, "update": "2016-02-08T21:05:09", "address": "42 CHE AMOUROUX"}}, {"type": "Feature", "geometry": {"type": "Point", "coordinates": [1.450535969934731, 43.6331828272491]}, "properties": {"bikes": 10, "stands": 8, "name": "00173 - MAUNOURY / SEGELA", "status": "OPEN", "lon": 1.450535969934731, "lat": 43.6331828272491, "update": "2016-02-08T21:01:20", "address": "25 AV MAURICE BOURGES MAUNOURY"}}, {"type": "Feature", "geometry": {"type": "Point", "coordinates": [1.413431676051568, 43.5813322052426]}, "properties": {"bikes": 17, "stands": 3, "name": "00143 - DESBALS SAINTONGE", "status": "OPEN", "lon": 1.413431676051568, "lat": 43.5813322052426, "update": "2016-02-08T21:07:54", "address": "145 RUE HENRI DESBALS"}}, {"type": "Feature", "geometry": {"type": "Point", "coordinates": [1.42386687477895, 43.60842211156853]}, "properties": {"bikes": 18, "stands": 3, "name": "00106 - BRIENNE PASSERELLE", "status": "OPEN", "lon": 1.42386687477895, "lat": 43.60842211156853, "update": "2016-02-08T21:06:40", "address": "99 ALL DE BRIENNE"}}, {"type": "Feature", "geometry": {"type": "Point", "coordinates": [1.43288072066524, 43.61492465117555]}, "properties": {"bikes": 7, "stands": 16, "name": "00123 - CHAUSSAS EMBOUCHURE", "status": "OPEN", "lon": 1.43288072066524, "lat": 43.61492465117555, "update": "2016-02-08T21:08:06", "address": "1 RUE DE CHAUSSAS"}}, {"type": "Feature", "geometry": {"type": "Point", "coordinates": [1.442101445768934, 43.605203861405954]}, "properties": {"bikes": 0, "stands": 19, "name": "00006 - LOIS", "status": "OPEN", "lon": 1.442101445768934, "lat": 43.605203861405954, "update": "2016-02-08T21:00:32", "address": "5 RUE DES LOIS"}}, {"type": "Feature", "geometry": {"type": "Point", "coordinates": [1.48346, 43.60086]}, "properties": {"bikes": 5, "stands": 11, "name": "00257 - CHATEAU DE L'HERS", "status": "OPEN", "lon": 1.48346, "lat": 43.60086, "update": "2016-02-08T21:07:54", "address": "CHEMIN DU CHATEAU DE L'HERS ANGLE CHEMIN FONTANELLES 31000 TOULOUSE"}}, {"type": "Feature", "geometry": {"type": "Point", "coordinates": [1.451476646620887, 43.61243588156053]}, "properties": {"bikes": 17, "stands": 4, "name": "00097 - RAYMOND IV", "status": "OPEN", "lon": 1.451476646620887, "lat": 43.61243588156053, "update": "2016-02-08T21:09:52", "address": "RUE RAYMOND IV"}}, {"type": "Feature", "geometry": {"type": "Point", "coordinates": [1.415183785619737, 43.58998499389323]}, "properties": {"bikes": 10, "stands": 8, "name": "00191 - RUE DU 14 JUILLET", "status": "OPEN", "lon": 1.415183785619737, "lat": 43.58998499389323, "update": "2016-02-08T21:05:23", "address": "395 ROUTE DE SAINT SIMON"}}, {"type": "Feature", "geometry": {"type": "Point", "coordinates": [1.449072022617868, 43.60557592007205]}, "properties": {"bikes": 13, "stands": 12, "name": "00019 - CARNOT PERI", "status": "OPEN", "lon": 1.449072022617868, "lat": 43.60557592007205, "update": "2016-02-08T21:03:41", "address": "62 BD LAZARE CARNOT"}}, {"type": "Feature", "geometry": {"type": "Point", "coordinates": [1.465376125032407, 43.615227374108336]}, "properties": {"bikes": 0, "stands": 17, "name": "00212 - CHAUMIERE/ CRETES", "status": "OPEN", "lon": 1.465376125032407, "lat": 43.615227374108336, "update": "2016-02-08T21:01:15", "address": "RUE DE LA CHAUMIERE"}}, {"type": "Feature", "geometry": {"type": "Point", "coordinates": [1.473505161008297, 43.61680265241856]}, "properties": {"bikes": 14, "stands": 3, "name": "00179 - CASSAING PLANA", "status": "OPEN", "lon": 1.473505161008297, "lat": 43.61680265241856, "update": "2016-02-08T21:04:54", "address": "5 CH CASSAING"}}, {"type": "Feature", "geometry": {"type": "Point", "coordinates": [1.463164045792265, 43.58677914294868]}, "properties": {"bikes": 8, "stands": 10, "name": "00204 - PL. ROGER ARNAUD", "status": "OPEN", "lon": 1.463164045792265, "lat": 43.58677914294868, "update": "2016-02-08T21:08:09", "address": "PL ROGER ARNAUD"}}, {"type": "Feature", "geometry": {"type": "Point", "coordinates": [1.456658754907086, 43.61894094381528]}, "properties": {"bikes": 6, "stands": 13, "name": "00134 - EGLISE BONNEFOY", "status": "OPEN", "lon": 1.456658754907086, "lat": 43.61894094381528, "update": "2016-02-08T21:04:58", "address": "8 ALLEE DE L EGLISE BONNEFOY"}}, {"type": "Feature", "geometry": {"type": "Point", "coordinates": [1.452936514925397, 43.585266840172814]}, "properties": {"bikes": 20, "stands": 0, "name": "00112 - PLACE RUSSEL - BRANLY", "status": "OPEN", "lon": 1.452936514925397, "lat": 43.585266840172814, "update": "2016-02-08T21:09:56", "address": "47 ALLEE BRANLY"}}, {"type": "Feature", "geometry": {"type": "Point", "coordinates": [1.424432564672875, 43.574576545136445]}, "properties": {"bikes": 15, "stands": 4, "name": "00241 - ESPAGNE CHARPENTIER", "status": "OPEN", "lon": 1.424432564672875, "lat": 43.574576545136445, "update": "2016-02-08T16:37:02", "address": "57 Route D'Espagne"}}, {"type": "Feature", "geometry": {"type": "Point", "coordinates": [1.42463077628583, 43.5931301810241]}, "properties": {"bikes": 6, "stands": 12, "name": "00183 - RUE DE CUGNAUX", "status": "OPEN", "lon": 1.42463077628583, "lat": 43.5931301810241, "update": "2016-02-08T21:04:14", "address": "RUE DE CUGNAUX"}}, {"type": "Feature", "geometry": {"type": "Point", "coordinates": [1.454339701099757, 43.61689063107848]}, "properties": {"bikes": 19, "stands": 3, "name": "00126 - ECOLE BONNEFOY", "status": "OPEN", "lon": 1.454339701099757, "lat": 43.61689063107848, "update": "2016-02-08T21:01:25", "address": "18 RUE BONNEFOY"}}, {"type": "Feature", "geometry": {"type": "Point", "coordinates": [1.44009, 43.57705]}, "properties": {"bikes": 10, "stands": 6, "name": "00255 - HENRI SELLIER", "status": "OPEN", "lon": 1.44009, "lat": 43.57705, "update": "2016-02-08T21:04:04", "address": "2 RUE DES MOUETTES ANGLE ALLEES SELLIER 31000 TOULOUSE"}}, {"type": "Feature", "geometry": {"type": "Point", "coordinates": [1.450179100392055, 43.600398667412286]}, "properties": {"bikes": 9, "stands": 13, "name": "00024 - PLACE SAINT ETIENNE", "status": "OPEN", "lon": 1.450179100392055, "lat": 43.600398667412286, "update": "2016-02-08T21:06:51", "address": "14 PL SAINT ETIENNE"}}, {"type": "Feature", "geometry": {"type": "Point", "coordinates": [1.458048662941769, 43.6017932127447]}, "properties": {"bikes": 4, "stands": 16, "name": "00196 - GOUJON - GUILHEMERY", "status": "OPEN", "lon": 1.458048662941769, "lat": 43.6017932127447, "update": "2016-02-08T21:05:41", "address": "6 RUE JEAN GOUJON"}}, {"type": "Feature", "geometry": {"type": "Point", "coordinates": [1.44649, 43.57886]}, "properties": {"bikes": 4, "stands": 14, "name": "281 - NIEL", "status": "OPEN", "lon": 1.44649, "lat": 43.57886, "update": "2016-02-08T21:09:58", "address": "RUE ST ROCH FACE RUE ELVIRE 31000 TOULOUSE"}}, {"type": "Feature", "geometry": {"type": "Point", "coordinates": [1.436875386155235, 43.61814891164924]}, "properties": {"bikes": 13, "stands": 4, "name": "00124 - EGLISE DES MINIMES", "status": "OPEN", "lon": 1.436875386155235, "lat": 43.61814891164924, "update": "2016-02-08T21:01:43", "address": "27 AV DES MINIMES"}}, {"type": "Feature", "geometry": {"type": "Point", "coordinates": [1.481508972569192, 43.58300698375498]}, "properties": {"bikes": 3, "stands": 14, "name": "00207 - CHRIST ROI", "status": "OPEN", "lon": 1.481508972569192, "lat": 43.58300698375498, "update": "2016-02-08T21:00:49", "address": "FACE 25 RUE DE L AUDE"}}, {"type": "Feature", "geometry": {"type": "Point", "coordinates": [1.44026, 43.60215]}, "properties": {"bikes": 1, "stands": 22, "name": "00011 - PLACE DE LA DAURADE", "status": "OPEN", "lon": 1.44026, "lat": 43.60215, "update": "2016-02-08T21:09:40", "address": "2 PL DE LA DAURADE"}}, {"type": "Feature", "geometry": {"type": "Point", "coordinates": [1.41112908179427, 43.5792182218804]}, "properties": {"bikes": 8, "stands": 10, "name": "00186 - DESBALS BOUALAM", "status": "OPEN", "lon": 1.41112908179427, "lat": 43.5792182218804, "update": "2016-02-08T21:08:21", "address": "1 IMPASSE BACHAGA BOUALAM"}}, {"type": "Feature", "geometry": {"type": "Point", "coordinates": [1.44404, 43.62687]}, "properties": {"bikes": 11, "stands": 5, "name": "00252 - NEGRENEYS /CASENEUVE", "status": "OPEN", "lon": 1.44404, "lat": 43.62687, "update": "2016-02-08T21:09:49", "address": "161/163 AV DE NEGRENEYS SUR ILOT CENTRAL"}}, {"type": "Feature", "geometry": {"type": "Point", "coordinates": [1.469362217455508, 43.62727712277727]}, "properties": {"bikes": 20, "stands": 0, "name": "00184 - MICHOUN", "status": "OPEN", "lon": 1.469362217455508, "lat": 43.62727712277727, "update": "2016-02-08T21:07:45", "address": "70 CHEMIN MICHOUN"}}, {"type": "Feature", "geometry": {"type": "Point", "coordinates": [1.454915112024358, 43.57644751100008]}, "properties": {"bikes": 6, "stands": 8, "name": "00161 - RANGUEIL - BEDOUCE", "status": "OPEN", "lon": 1.454915112024358, "lat": 43.57644751100008, "update": "2016-02-08T21:06:06", "address": "35 AV DE RANGUEIL"}}, {"type": "Feature", "geometry": {"type": "Point", "coordinates": [1.3972, 43.60868]}, "properties": {"bikes": 0, "stands": 22, "name": "00268 - PLACE BAYLAC", "status": "OPEN", "lon": 1.3972, "lat": 43.60868, "update": "2016-02-08T21:06:20", "address": "avenue des Ar\u00e8nes Romaines, avant place du docteur Baylac 31000 TOULOUSE"}}, {"type": "Feature", "geometry": {"type": "Point", "coordinates": [1.427969819484834, 43.605562378447424]}, "properties": {"bikes": 6, "stands": 15, "name": "00082 - SEJOURNE CATALANS", "status": "OPEN", "lon": 1.427969819484834, "lat": 43.605562378447424, "update": "2016-02-08T21:09:38", "address": "1 AV PAUL SEJOURNE"}}, {"type": "Feature", "geometry": {"type": "Point", "coordinates": [1.43421, 43.59253]}, "properties": {"bikes": 11, "stands": 7, "name": "00070 - FER A CHEVAL", "status": "OPEN", "lon": 1.43421, "lat": 43.59253, "update": "2016-02-08T21:08:29", "address": "5 PLACE DU FER A CHEVAL"}}, {"type": "Feature", "geometry": {"type": "Point", "coordinates": [1.418128481713567, 43.587583195522946]}, "properties": {"bikes": 11, "stands": 7, "name": "00141 - FONTAINE LESTANG", "status": "OPEN", "lon": 1.418128481713567, "lat": 43.587583195522946, "update": "2016-02-08T21:07:39", "address": "237 RUE HENRI DESBALS"}}, {"type": "Feature", "geometry": {"type": "Point", "coordinates": [1.428790629053277, 43.612283701347906]}, "properties": {"bikes": 3, "stands": 16, "name": "00108 - SEBASTOPOL - RITAY", "status": "OPEN", "lon": 1.428790629053277, "lat": 43.612283701347906, "update": "2016-02-08T21:08:04", "address": "2 BD SEBASTOPOL"}}, {"type": "Feature", "geometry": {"type": "Point", "coordinates": [1.430598716260075, 43.606708008560005]}, "properties": {"bikes": 14, "stands": 8, "name": "00085 - MARECHAL LECLERC", "status": "OPEN", "lon": 1.430598716260075, "lat": 43.606708008560005, "update": "2016-02-08T21:07:58", "address": "2 BD DU MARECHAL LECLERC"}}, {"type": "Feature", "geometry": {"type": "Point", "coordinates": [1.476002176599847, 43.58166894906154]}, "properties": {"bikes": 2, "stands": 15, "name": "00202 - ST EX. - COURREGE", "status": "OPEN", "lon": 1.476002176599847, "lat": 43.58166894906154, "update": "2016-02-08T21:08:57", "address": "165 AV ANTOINE DE ST EXUPERY"}}, {"type": "Feature", "geometry": {"type": "Point", "coordinates": [1.453042492588597, 43.593599912488976]}, "properties": {"bikes": 13, "stands": 6, "name": "00102 -  MISTRAL - FLEURANCE", "status": "OPEN", "lon": 1.453042492588597, "lat": 43.593599912488976, "update": "2016-02-08T21:02:59", "address": "18 ALLEE FREDERIC MISTRAL"}}, {"type": "Feature", "geometry": {"type": "Point", "coordinates": [1.438224999266949, 43.60629527233212]}, "properties": {"bikes": 1, "stands": 22, "name": "00030 - PLACE ANATOLE FRANCE", "status": "OPEN", "lon": 1.438224999266949, "lat": 43.60629527233212, "update": "2016-02-08T21:07:42", "address": "40 PL ANATOLE FRANCE"}}, {"type": "Feature", "geometry": {"type": "Point", "coordinates": [1.464148138450798, 43.635666512128225]}, "properties": {"bikes": 16, "stands": 1, "name": "00170 - ROUTE D ALBI   / CUVIER", "status": "OPEN", "lon": 1.464148138450798, "lat": 43.635666512128225, "update": "2016-02-08T21:00:44", "address": "FACE 163 CHEMIN NICOLE"}}, {"type": "Feature", "geometry": {"type": "Point", "coordinates": [1.41954, 43.574]}, "properties": {"bikes": 15, "stands": 3, "name": "00274 - GALLIENI", "status": "OPEN", "lon": 1.41954, "lat": 43.574, "update": "2016-02-08T21:05:51", "address": "296 route de Seysses"}}, {"type": "Feature", "geometry": {"type": "Point", "coordinates": [1.467514131065815, 43.60075517705335]}, "properties": {"bikes": 2, "stands": 15, "name": "00213 - PUJOL/ CHAUBET", "status": "OPEN", "lon": 1.467514131065815, "lat": 43.60075517705335, "update": "2016-02-08T21:08:16", "address": "129 AV DE CASTRES"}}, {"type": "Feature", "geometry": {"type": "Point", "coordinates": [1.441434965295236, 43.599589544431005]}, "properties": {"bikes": 0, "stands": 16, "name": "00049 - COUTELIER - METZ", "status": "OPEN", "lon": 1.441434965295236, "lat": 43.599589544431005, "update": "2016-02-08T21:07:13", "address": "52 RUE DES COUTELIERS"}}, {"type": "Feature", "geometry": {"type": "Point", "coordinates": [1.434650096062823, 43.60864745421513]}, "properties": {"bikes": 7, "stands": 14, "name": "00052 - DUPORTAL CITE ADMIN.", "status": "OPEN", "lon": 1.434650096062823, "lat": 43.60864745421513, "update": "2016-02-08T21:02:49", "address": "41 BD ARMAND DUPORTAL"}}, {"type": "Feature", "geometry": {"type": "Point", "coordinates": [1.43104, 43.58903]}, "properties": {"bikes": 9, "stands": 7, "name": "00104 - MURET BARTHERE", "status": "OPEN", "lon": 1.43104, "lat": 43.58903, "update": "2016-02-08T21:04:03", "address": "219 AV DE MURET"}}, {"type": "Feature", "geometry": {"type": "Point", "coordinates": [1.441331077590377, 43.60621318190248]}, "properties": {"bikes": 3, "stands": 12, "name": "00013 - LOIS ESQUILE", "status": "OPEN", "lon": 1.441331077590377, "lat": 43.60621318190248, "update": "2016-02-08T21:06:56", "address": "1 RUE DE L ESQUILE"}}, {"type": "Feature", "geometry": {"type": "Point", "coordinates": [1.4278, 43.58588]}, "properties": {"bikes": 7, "stands": 9, "name": "00129 - CROIX DE PIERRE", "status": "OPEN", "lon": 1.4278, "lat": 43.58588, "update": "2016-02-08T21:04:27", "address": "2 BD DEODAT DE SEVERAC"}}, {"type": "Feature", "geometry": {"type": "Point", "coordinates": [1.449135738584587, 43.580795461338795]}, "properties": {"bikes": 18, "stands": 2, "name": "00158 - URSS ST THOMAS D AQUIN", "status": "OPEN", "lon": 1.449135738584587, "lat": 43.580795461338795, "update": "2016-02-08T21:07:48", "address": "57 AV DE L URSS"}}, {"type": "Feature", "geometry": {"type": "Point", "coordinates": [1.458930207887618, 43.626509813353074]}, "properties": {"bikes": 3, "stands": 17, "name": "00168 - BILA   /  ROUTE D ALBI", "status": "OPEN", "lon": 1.458930207887618, "lat": 43.626509813353074, "update": "2016-02-08T21:04:22", "address": "RUE CREMON"}}, {"type": "Feature", "geometry": {"type": "Point", "coordinates": [1.46521198710394, 43.63812899582609]}, "properties": {"bikes": 12, "stands": 7, "name": "00249 - CROIX DAURADE", "status": "OPEN", "lon": 1.46521198710394, "lat": 43.63812899582609, "update": "2016-02-08T21:03:18", "address": "147 RTE D'ALBI"}}, {"type": "Feature", "geometry": {"type": "Point", "coordinates": [1.4565, 43.59642]}, "properties": {"bikes": 8, "stands": 12, "name": "00015 - PONT MONTAUDRAN", "status": "OPEN", "lon": 1.4565, "lat": 43.59642, "update": "2016-02-08T21:09:01", "address": "face au 20 port st sauveur"}}, {"type": "Feature", "geometry": {"type": "Point", "coordinates": [1.439230135508607, 43.63677495879212]}, "properties": {"bikes": 12, "stands": 5, "name": "00247 - LAUNAGUET / AUDIBERT", "status": "OPEN", "lon": 1.439230135508607, "lat": 43.63677495879212, "update": "2016-02-08T21:03:37", "address": "ROUTE DE LAUNAGUET ANGLE CHEMIN AUDIBERT"}}, {"type": "Feature", "geometry": {"type": "Point", "coordinates": [1.435181557097925, 43.59849490883457]}, "properties": {"bikes": 19, "stands": 3, "name": "00076 - REPUBLIQUE PL. OLIVIER", "status": "OPEN", "lon": 1.435181557097925, "lat": 43.59849490883457, "update": "2016-02-08T21:02:57", "address": "34 RUE DE LA REPUBLIQUE"}}, {"type": "Feature", "geometry": {"type": "Point", "coordinates": [1.415377349047291, 43.594849382545554]}, "properties": {"bikes": 14, "stands": 6, "name": "00193 - LOMBEZ / PETITE VITESSE", "status": "OPEN", "lon": 1.415377349047291, "lat": 43.594849382545554, "update": "2016-02-08T21:08:54", "address": "59 AV DE LOMBEZ"}}, {"type": "Feature", "geometry": {"type": "Point", "coordinates": [1.423916022506519, 43.57827536338912]}, "properties": {"bikes": 19, "stands": 1, "name": "00190 - ESPAGNE LES OUSTALOUS", "status": "OPEN", "lon": 1.423916022506519, "lat": 43.57827536338912, "update": "2016-02-08T21:07:54", "address": "39 RTE D'Espagne"}}, {"type": "Feature", "geometry": {"type": "Point", "coordinates": [1.43168347755474, 43.6319121122554]}, "properties": {"bikes": 16, "stands": 4, "name": "00253 - ETATS-UNIS / ROBERT", "status": "OPEN", "lon": 1.43168347755474, "lat": 43.6319121122554, "update": "2016-02-08T21:08:47", "address": "AV DES Etats-Unis FACE AU 68 / 70"}}, {"type": "Feature", "geometry": {"type": "Point", "coordinates": [1.47765639323401, 43.6122515815792]}, "properties": {"bikes": 4, "stands": 14, "name": "00180 - PLACE SOUPETARD", "status": "OPEN", "lon": 1.47765639323401, "lat": 43.6122515815792, "update": "2016-02-08T21:10:10", "address": "3 Place SOUPETARD"}}, {"type": "Feature", "geometry": {"type": "Point", "coordinates": [1.460094426022393, 43.579725432743686]}, "properties": {"bikes": 7, "stands": 13, "name": "00164 - BEDOUCE SAOUZELONG", "status": "OPEN", "lon": 1.460094426022393, "lat": 43.579725432743686, "update": "2016-02-08T21:01:50", "address": "AV ALBERT BEDOUCE"}}, {"type": "Feature", "geometry": {"type": "Point", "coordinates": [1.434843235786321, 43.605035688745794]}, "properties": {"bikes": 16, "stands": 2, "name": "00051 - DUPORTAL BRIENNE", "status": "OPEN", "lon": 1.434843235786321, "lat": 43.605035688745794, "update": "2016-02-08T21:04:12", "address": "1 BD ARMAND DUPORTAL"}}, {"type": "Feature", "geometry": {"type": "Point", "coordinates": [1.4469, 43.60964]}, "properties": {"bikes": 2, "stands": 23, "name": "00035 - PLACE JEANNE D'ARC", "status": "OPEN", "lon": 1.4469, "lat": 43.60964, "update": "2016-02-08T21:05:06", "address": "1 RUE RAYMOND IV"}}, {"type": "Feature", "geometry": {"type": "Point", "coordinates": [1.45174992410964, 43.59800264157314]}, "properties": {"bikes": 4, "stands": 18, "name": "00044 - PALAIS NIEL", "status": "OPEN", "lon": 1.45174992410964, "lat": 43.59800264157314, "update": "2016-02-08T21:07:06", "address": "1 ALL FORAIN FRANCOIS VERDIER"}}, {"type": "Feature", "geometry": {"type": "Point", "coordinates": [1.466308391813157, 43.640897350426606]}, "properties": {"bikes": 14, "stands": 4, "name": "00171 - ROUTE D ALBI / CACTUS", "status": "OPEN", "lon": 1.466308391813157, "lat": 43.640897350426606, "update": "2016-02-08T21:05:07", "address": "191 RTE D'ALBI"}}, {"type": "Feature", "geometry": {"type": "Point", "coordinates": [1.45491780578712, 43.580276538637605]}, "properties": {"bikes": 17, "stands": 0, "name": "00162 - PLACE D'ITALIE", "status": "OPEN", "lon": 1.45491780578712, "lat": 43.580276538637605, "update": "2016-02-08T21:01:58", "address": "AV D' ITALIE"}}, {"type": "Feature", "geometry": {"type": "Point", "coordinates": [1.43922052825561, 43.60749002329994]}, "properties": {"bikes": 3, "stands": 17, "name": "00031 - SALENQUES", "status": "OPEN", "lon": 1.43922052825561, "lat": 43.60749002329994, "update": "2016-02-08T21:00:33", "address": "7 RUE DES SALENQUES"}}, {"type": "Feature", "geometry": {"type": "Point", "coordinates": [1.41997369298729, 43.598196214598815]}, "properties": {"bikes": 19, "stands": 0, "name": "00138 - BARRIERE DE BAYONNE", "status": "OPEN", "lon": 1.41997369298729, "lat": 43.598196214598815, "update": "2016-02-08T21:01:29", "address": "3 BD JEAN BRUNHES"}}, {"type": "Feature", "geometry": {"type": "Point", "coordinates": [1.459836309553229, 43.587677990128874]}, "properties": {"bikes": 17, "stands": 5, "name": "00098 - PONT DES DEMOISELLES", "status": "OPEN", "lon": 1.459836309553229, "lat": 43.587677990128874, "update": "2016-02-08T21:05:55", "address": "80 ALL DES DEMOISELLES"}}, {"type": "Feature", "geometry": {"type": "Point", "coordinates": [1.446610770547085, 43.60793763027584]}, "properties": {"bikes": 6, "stands": 15, "name": "00016 - STRASBOURG BAYARD", "status": "OPEN", "lon": 1.446610770547085, "lat": 43.60793763027584, "update": "2016-02-08T21:09:30", "address": "32 BD DE STRASBOURG"}}, {"type": "Feature", "geometry": {"type": "Point", "coordinates": [1.473457600659471, 43.59622771557735]}, "properties": {"bikes": 0, "stands": 20, "name": "00198 - LAFILAIRE - DELTOUR", "status": "OPEN", "lon": 1.473457600659471, "lat": 43.59622771557735, "update": "2016-02-08T21:06:09", "address": "FACE 25 CHEMIN LAFILAIRE"}}, {"type": "Feature", "geometry": {"type": "Point", "coordinates": [1.442808436675486, 43.609029818757634]}, "properties": {"bikes": 8, "stands": 7, "name": "00056 - SAINT SERNIN  MERLY", "status": "OPEN", "lon": 1.442808436675486, "lat": 43.609029818757634, "update": "2016-02-08T21:01:45", "address": "1 RUE MERLY"}}, {"type": "Feature", "geometry": {"type": "Point", "coordinates": [1.428493330933498, 43.61541821044434]}, "properties": {"bikes": 9, "stands": 11, "name": "00146 - SANG DE SERP - DAGNAUX", "status": "OPEN", "lon": 1.428493330933498, "lat": 43.61541821044434, "update": "2016-02-08T21:07:38", "address": "57 CH DU SANG DE SERP"}}, {"type": "Feature", "geometry": {"type": "Point", "coordinates": [1.37764, 43.58996]}, "properties": {"bikes": 18, "stands": 0, "name": "00269 - PLACE SAUVEGRAIN", "status": "OPEN", "lon": 1.37764, "lat": 43.58996, "update": "2016-02-08T21:05:03", "address": "Place Sauvegrain - angle avenue de Lardenne"}}, {"type": "Feature", "geometry": {"type": "Point", "coordinates": [1.425222752953333, 43.602528105503815]}, "properties": {"bikes": 12, "stands": 10, "name": "00095 - THEATRE GARONNE", "status": "OPEN", "lon": 1.425222752953333, "lat": 43.602528105503815, "update": "2016-02-08T21:05:20", "address": "4 AVENUE DU CH\u00c2TEAU D'EAU"}}, {"type": "Feature", "geometry": {"type": "Point", "coordinates": [1.441220679302088, 43.61325027179293]}, "properties": {"bikes": 9, "stands": 6, "name": "00092 - CHALETS", "status": "OPEN", "lon": 1.441220679302088, "lat": 43.61325027179293, "update": "2016-02-08T21:01:36", "address": "31 RUE DES CHALETS"}}, {"type": "Feature", "geometry": {"type": "Point", "coordinates": [1.451651418090918, 43.60754756868432]}, "properties": {"bikes": 7, "stands": 11, "name": "00038 - JAURES BACHELIER", "status": "OPEN", "lon": 1.451651418090918, "lat": 43.60754756868432, "update": "2016-02-08T21:01:04", "address": "56 ALL JEAN JAURES"}}, {"type": "Feature", "geometry": {"type": "Point", "coordinates": [1.41868, 43.59175]}, "properties": {"bikes": 2, "stands": 26, "name": "00140 - EMILE MALE", "status": "OPEN", "lon": 1.41868, "lat": 43.59175, "update": "2016-02-08T21:04:11", "address": "PLACE EMILE MALE"}}, {"type": "Feature", "geometry": {"type": "Point", "coordinates": [1.458008846441328, 43.606790468455905]}, "properties": {"bikes": 9, "stands": 9, "name": "00176 - GENERAL COMPANS", "status": "OPEN", "lon": 1.458008846441328, "lat": 43.606790468455905, "update": "2016-02-08T21:07:37", "address": "1 RUE DU GENERAL COMPANS"}}, {"type": "Feature", "geometry": {"type": "Point", "coordinates": [1.479772209704475, 43.56361464501064]}, "properties": {"bikes": 0, "stands": 20, "name": "00237 - CNRS", "status": "OPEN", "lon": 1.479772209704475, "lat": 43.56361464501064, "update": "2016-02-08T21:07:04", "address": "AVENUE EDOUARD BELIN FACE CNRS"}}, {"type": "Feature", "geometry": {"type": "Point", "coordinates": [1.464668419108617, 43.594341505924845]}, "properties": {"bikes": 1, "stands": 17, "name": "00206 - LEYGUE/ RIEUX", "status": "OPEN", "lon": 1.464668419108617, "lat": 43.594341505924845, "update": "2016-02-08T21:02:53", "address": "20 AV ARMAND LEYGUE"}}, {"type": "Feature", "geometry": {"type": "Point", "coordinates": [1.435070094381549, 43.610250914040755]}, "properties": {"bikes": 3, "stands": 22, "name": "00088 - DUPORTAL LASCROSSES", "status": "OPEN", "lon": 1.435070094381549, "lat": 43.610250914040755, "update": "2016-02-08T21:08:41", "address": "17T BD LASCROSSES"}}, {"type": "Feature", "geometry": {"type": "Point", "coordinates": [1.436628759028233, 43.611036915218165]}, "properties": {"bikes": 18, "stands": 5, "name": "00089 - ESP COMPANS CAFFARELLI", "status": "OPEN", "lon": 1.436628759028233, "lat": 43.611036915218165, "update": "2016-02-08T21:07:01", "address": "1 ESP COMPANS CAFFARELLI"}}, {"type": "Feature", "geometry": {"type": "Point", "coordinates": [1.455674042776099, 43.59697406705044]}, "properties": {"bikes": 17, "stands": 3, "name": "00100 - PORT ST SAUVEUR", "status": "OPEN", "lon": 1.455674042776099, "lat": 43.59697406705044, "update": "2016-02-08T21:07:49", "address": "16 ALL PAUL SABATIER"}}, {"type": "Feature", "geometry": {"type": "Point", "coordinates": [1.475849028782433, 43.623814424096544]}, "properties": {"bikes": 14, "stands": 6, "name": "00215 - METRO ARGOULETS", "status": "OPEN", "lon": 1.475849028782433, "lat": 43.623814424096544, "update": "2016-02-08T21:00:44", "address": "FACE 8 RUE DE GAILLAC"}}, {"type": "Feature", "geometry": {"type": "Point", "coordinates": [1.439762556768512, 43.60842033750804]}, "properties": {"bikes": 17, "stands": 0, "name": "00054 - CHAINE", "status": "OPEN", "lon": 1.439762556768512, "lat": 43.60842033750804, "update": "2016-02-08T21:04:41", "address": "10 RUE DE LA CHAINE"}}, {"type": "Feature", "geometry": {"type": "Point", "coordinates": [1.448047137954633, 43.60307769477977]}, "properties": {"bikes": 0, "stands": 24, "name": "00008 - ESPACE SAINT GEORGES", "status": "OPEN", "lon": 1.448047137954633, "lat": 43.60307769477977, "update": "2016-02-08T21:05:13", "address": "19 RUE PAUL VIDAL"}}, {"type": "Feature", "geometry": {"type": "Point", "coordinates": [1.37708, 43.58549]}, "properties": {"bikes": 14, "stands": 3, "name": "00277 - ZAMENHOF", "status": "OPEN", "lon": 1.37708, "lat": 43.58549, "update": "2016-02-08T21:00:23", "address": "10/12 rue zamenhof - 31000 TOuLOUSE"}}, {"type": "Feature", "geometry": {"type": "Point", "coordinates": [1.473660631896838, 43.600795440313355]}, "properties": {"bikes": 1, "stands": 16, "name": "00214 - CASTRES/ ACHIARY", "status": "OPEN", "lon": 1.473660631896838, "lat": 43.600795440313355, "update": "2016-02-08T21:06:50", "address": "48 AV DE CASTRES"}}, {"type": "Feature", "geometry": {"type": "Point", "coordinates": [1.458007861390548, 43.59239101222708]}, "properties": {"bikes": 4, "stands": 16, "name": "00114 - BD MONTPLAISIR - CANAL", "status": "OPEN", "lon": 1.458007861390548, "lat": 43.59239101222708, "update": "2016-02-08T21:04:46", "address": "8 BD MONPLAISIR"}}, {"type": "Feature", "geometry": {"type": "Point", "coordinates": [1.445285876671779, 43.60485265221502]}, "properties": {"bikes": 0, "stands": 21, "name": "00002 - LAFAYETTE", "status": "OPEN", "lon": 1.445285876671779, "lat": 43.60485265221502, "update": "2016-02-08T21:09:41", "address": "21 RUE LAFAYETTE"}}, {"type": "Feature", "geometry": {"type": "Point", "coordinates": [1.470276283956405, 43.591528310013615]}, "properties": {"bikes": 2, "stands": 20, "name": "00199 - DELTOUR - RIEUX", "status": "OPEN", "lon": 1.470276283956405, "lat": 43.591528310013615, "update": "2016-02-08T21:02:14", "address": "4 BD DELTOUR"}}, {"type": "Feature", "geometry": {"type": "Point", "coordinates": [1.478340741030179, 43.565104300575406]}, "properties": {"bikes": 15, "stands": 7, "name": "00223 - ENAC", "status": "OPEN", "lon": 1.478340741030179, "lat": 43.565104300575406, "update": "2016-02-08T14:46:07", "address": "AVENUE EDOUARD BELIN ANGLE AV ROCHE"}}, {"type": "Feature", "geometry": {"type": "Point", "coordinates": [1.44544233356215, 43.6003776908545]}, "properties": {"bikes": 0, "stands": 33, "name": "00010 - PLACE ESQUIROL", "status": "OPEN", "lon": 1.44544233356215, "lat": 43.6003776908545, "update": "2016-02-08T21:05:03", "address": "15 PL ETIENNE ESQUIROL"}}, {"type": "Feature", "geometry": {"type": "Point", "coordinates": [1.414428635946386, 43.593097534292575]}, "properties": {"bikes": 12, "stands": 6, "name": "00250 - 11 NOVEMBRE", "status": "OPEN", "lon": 1.414428635946386, "lat": 43.593097534292575, "update": "2016-02-08T21:04:15", "address": "RUE DU 11 NOVEMBRE"}}, {"type": "Feature", "geometry": {"type": "Point", "coordinates": [1.447014394243565, 43.596327873693475]}, "properties": {"bikes": 4, "stands": 12, "name": "00045 - OZENNE", "status": "OPEN", "lon": 1.447014394243565, "lat": 43.596327873693475, "update": "2016-02-08T21:04:43", "address": "10 RUE THEODORE OZENNE"}}, {"type": "Feature", "geometry": {"type": "Point", "coordinates": [1.428253851896989, 43.6055917312578]}, "properties": {"bikes": 15, "stands": 2, "name": "00083 - SEJOURNE AMIDONNIERS", "status": "OPEN", "lon": 1.428253851896989, "lat": 43.6055917312578, "update": "2016-02-08T21:06:01", "address": "2 AV PAUL SEJOURNE"}}, {"type": "Feature", "geometry": {"type": "Point", "coordinates": [1.445531445171338, 43.59546175758775]}, "properties": {"bikes": 2, "stands": 23, "name": "00047 - NAZARETH LANGUEDOC", "status": "OPEN", "lon": 1.445531445171338, "lat": 43.59546175758775, "update": "2016-02-08T21:00:53", "address": "12 RUE DU LANGUEDOC"}}, {"type": "Feature", "geometry": {"type": "Point", "coordinates": [1.465370657992508, 43.557243695153005]}, "properties": {"bikes": 3, "stands": 17, "name": "00231 - NARBONNE MARFAING", "status": "OPEN", "lon": 1.465370657992508, "lat": 43.557243695153005, "update": "2016-02-08T21:02:27", "address": "RANGUEIL / CL ROCHE"}}, {"type": "Feature", "geometry": {"type": "Point", "coordinates": [1.474057401308612, 43.622829380921075]}, "properties": {"bikes": 7, "stands": 10, "name": "00216 - ARGOULETS HOUDON", "status": "OPEN", "lon": 1.474057401308612, "lat": 43.622829380921075, "update": "2016-02-08T21:01:44", "address": "3 RUE JEAN HOUDON"}}, {"type": "Feature", "geometry": {"type": "Point", "coordinates": [1.410651114174017, 43.594206765269206]}, "properties": {"bikes": 12, "stands": 8, "name": "00194 - LOMBEZ / HIPPODROME", "status": "OPEN", "lon": 1.410651114174017, "lat": 43.594206765269206, "update": "2016-02-08T21:08:41", "address": "138 AV DE LOMBEZ"}}, {"type": "Feature", "geometry": {"type": "Point", "coordinates": [1.39867, 43.58444]}, "properties": {"bikes": 3, "stands": 15, "name": "00263 - LYCEE POLYVALENT", "status": "OPEN", "lon": 1.39867, "lat": 43.58444, "update": "2016-02-08T21:04:41", "address": "87 AVENUE JEAN BAYLET ANGLE CHEMIN CEPIERES"}}, {"type": "Feature", "geometry": {"type": "Point", "coordinates": [1.462248097516892, 43.63124672931264]}, "properties": {"bikes": 14, "stands": 3, "name": "00169 - ALBI  / JAFFARY", "status": "OPEN", "lon": 1.462248097516892, "lat": 43.63124672931264, "update": "2016-02-08T21:05:58", "address": "65 RTE D'ALBI"}}, {"type": "Feature", "geometry": {"type": "Point", "coordinates": [1.452939708828422, 43.60583232118379]}, "properties": {"bikes": 6, "stands": 13, "name": "00039 - PLACE DAMLOUP", "status": "OPEN", "lon": 1.452939708828422, "lat": 43.60583232118379, "update": "2016-02-08T21:04:47", "address": "9 PL DE DAMLOUP"}}, {"type": "Feature", "geometry": {"type": "Point", "coordinates": [1.48049587613679, 43.57965532664315]}, "properties": {"bikes": 2, "stands": 16, "name": "00201 - POTEZ -ST EXUPERY", "status": "OPEN", "lon": 1.48049587613679, "lat": 43.57965532664315, "update": "2016-02-08T21:07:02", "address": "256 AV ANTOINE DE ST EXUPERY"}}, {"type": "Feature", "geometry": {"type": "Point", "coordinates": [1.456321836591291, 43.59426485044087]}, "properties": {"bikes": 20, "stands": 0, "name": "00101 - CAPT PORT ST SAUVEUR", "status": "OPEN", "lon": 1.456321836591291, "lat": 43.59426485044087, "update": "2016-02-08T21:03:44", "address": "5 PORT SAINT SAUVEUR"}}, {"type": "Feature", "geometry": {"type": "Point", "coordinates": [1.47643, 43.62957]}, "properties": {"bikes": 6, "stands": 12, "name": "00258 - CAMBARD", "status": "OPEN", "lon": 1.47643, "lat": 43.62957, "update": "2016-02-08T21:07:16", "address": "Boulevard Atlanta / Cambard"}}, {"type": "Feature", "geometry": {"type": "Point", "coordinates": [1.450284083376377, 43.5785038852904]}, "properties": {"bikes": 17, "stands": 3, "name": "00159 - U.R.S.S DEVIC", "status": "OPEN", "lon": 1.450284083376377, "lat": 43.5785038852904, "update": "2016-02-08T21:00:35", "address": "96 AV JULES JULIEN"}}, {"type": "Feature", "geometry": {"type": "Point", "coordinates": [1.432688307877285, 43.59504949175626]}, "properties": {"bikes": 8, "stands": 12, "name": "00072 - FITTE CUGNAUX", "status": "OPEN", "lon": 1.432688307877285, "lat": 43.59504949175626, "update": "2016-02-08T21:02:03", "address": "23 ALL CHARLES DE FITTE"}}, {"type": "Feature", "geometry": {"type": "Point", "coordinates": [1.4401, 43.64066]}, "properties": {"bikes": 8, "stands": 10, "name": "00261 - VAN DYCK - LAUNAGUET", "status": "OPEN", "lon": 1.4401, "lat": 43.64066, "update": "2016-02-08T21:08:35", "address": "Devant le N\u00b06 rue Van Dyck avant angle rue Raphael - 31000 TOULOUSE"}}, {"type": "Feature", "geometry": {"type": "Point", "coordinates": [1.443059611732516, 43.62459108857192]}, "properties": {"bikes": 16, "stands": 8, "name": "00151 - CURIE - NEGRENEYS", "status": "OPEN", "lon": 1.443059611732516, "lat": 43.62459108857192, "update": "2016-02-08T21:03:58", "address": "27 BD PIERRE ET MARIE CURIE"}}, {"type": "Feature", "geometry": {"type": "Point", "coordinates": [1.473118127213999, 43.579425835630786]}, "properties": {"bikes": 9, "stands": 8, "name": "00238 - HERBETTES / BUTTE", "status": "OPEN", "lon": 1.473118127213999, "lat": 43.579425835630786, "update": "2016-02-08T21:07:49", "address": "AVENUE DES HERBETTES"}}, {"type": "Feature", "geometry": {"type": "Point", "coordinates": [1.429275168509917, 43.59970386767416]}, "properties": {"bikes": 22, "stands": 1, "name": "00080 - FITTE VARSI", "status": "OPEN", "lon": 1.429275168509917, "lat": 43.59970386767416, "update": "2016-02-08T21:09:21", "address": "89B ALL CHARLES DE FITTE"}}, {"type": "Feature", "geometry": {"type": "Point", "coordinates": [1.4431072280246, 43.610488427425665]}, "properties": {"bikes": 4, "stands": 10, "name": "00057 - MERLY ARCOLE", "status": "OPEN", "lon": 1.4431072280246, "lat": 43.610488427425665, "update": "2016-02-08T21:05:40", "address": "15 RUE MERLY"}}, {"type": "Feature", "geometry": {"type": "Point", "coordinates": [1.443637125697445, 43.6106186453129]}, "properties": {"bikes": 4, "stands": 21, "name": "00058 - CONCORDE ARCOLE", "status": "OPEN", "lon": 1.443637125697445, "lat": 43.6106186453129, "update": "2016-02-08T21:10:01", "address": "4 RUE DE LA CONCORDE"}}, {"type": "Feature", "geometry": {"type": "Point", "coordinates": [1.47297, 43.63539]}, "properties": {"bikes": 12, "stands": 5, "name": "00272 - ANDRE VASSEUR", "status": "OPEN", "lon": 1.47297, "lat": 43.63539, "update": "2016-02-08T21:06:51", "address": "Boulevard Atlanta / apr\u00e8s angle rue vasseur - 31000 TOULOUSE"}}, {"type": "Feature", "geometry": {"type": "Point", "coordinates": [1.47517386253435, 43.5628140764194]}, "properties": {"bikes": 2, "stands": 18, "name": "00222 - CAMBOU / ROCHE", "status": "OPEN", "lon": 1.47517386253435, "lat": 43.5628140764194, "update": "2016-02-08T21:05:10", "address": "AVENUE DU COLONEL ROCHE"}}, {"type": "Feature", "geometry": {"type": "Point", "coordinates": [1.442047437838665, 43.60233609279122]}, "properties": {"bikes": 0, "stands": 19, "name": "00004 - STE URSULE", "status": "OPEN", "lon": 1.442047437838665, "lat": 43.60233609279122, "update": "2016-02-08T21:04:41", "address": "15 RUE SAINTE URSULE"}}, {"type": "Feature", "geometry": {"type": "Point", "coordinates": [1.414531359571464, 43.602050919601446]}, "properties": {"bikes": 9, "stands": 6, "name": "00136 - FONTAINES", "status": "OPEN", "lon": 1.414531359571464, "lat": 43.602050919601446, "update": "2016-02-08T21:05:34", "address": "RUE DES FONTAINES"}}, {"type": "Feature", "geometry": {"type": "Point", "coordinates": [1.42438, 43.58807]}, "properties": {"bikes": 14, "stands": 5, "name": "00142 - SEVERAC", "status": "OPEN", "lon": 1.42438, "lat": 43.58807, "update": "2016-02-08T21:03:50", "address": "BD DEODAT DE SEVERAC"}}, {"type": "Feature", "geometry": {"type": "Point", "coordinates": [1.481957162051808, 43.60593083247726]}, "properties": {"bikes": 12, "stands": 8, "name": "00182 - CHAUBET", "status": "OPEN", "lon": 1.481957162051808, "lat": 43.60593083247726, "update": "2016-02-08T21:04:12", "address": "AV JEAN CHAUBET"}}, {"type": "Feature", "geometry": {"type": "Point", "coordinates": [1.451479779266325, 43.613829128033615]}, "properties": {"bikes": 15, "stands": 7, "name": "00094 - SEMARD GARE ROUTIERE", "status": "OPEN", "lon": 1.451479779266325, "lat": 43.613829128033615, "update": "2016-02-08T21:02:45", "address": "73 BD PIERRE SEMARD"}}, {"type": "Feature", "geometry": {"type": "Point", "coordinates": [1.455945448109943, 43.589803552331645]}, "properties": {"bikes": 4, "stands": 10, "name": "00127 - BEGUE - DEMOISELLES", "status": "OPEN", "lon": 1.455945448109943, "lat": 43.589803552331645, "update": "2016-02-08T21:06:59", "address": "1 RUE BEGUE"}}, {"type": "Feature", "geometry": {"type": "Point", "coordinates": [1.40142, 43.61354]}, "properties": {"bikes": 13, "stands": 5, "name": "00279 - GUY ESPAGNO", "status": "OPEN", "lon": 1.40142, "lat": 43.61354, "update": "2016-02-08T21:03:16", "address": "229 AVENUE DE CASSELARDIT CROISEMENT ESPAGNO / CASSELARDIT 31000 TOULOUSE"}}, {"type": "Feature", "geometry": {"type": "Point", "coordinates": [1.4616307898919, 43.614208387732]}, "properties": {"bikes": 2, "stands": 18, "name": "00251 - BLUM / JOUHAUX", "status": "OPEN", "lon": 1.4616307898919, "lat": 43.614208387732, "update": "2016-02-08T21:08:47", "address": "26 AVENUE LEON BLUM ANGLE RUE LEON JOUHAUX"}}, {"type": "Feature", "geometry": {"type": "Point", "coordinates": [1.407211289929025, 43.60419040838992]}, "properties": {"bikes": 12, "stands": 5, "name": "00226 - FONTAINES /CASSELARDIT", "status": "OPEN", "lon": 1.407211289929025, "lat": 43.60419040838992, "update": "2016-02-08T21:01:34", "address": "292 RUE DES FONTAINES"}}, {"type": "Feature", "geometry": {"type": "Point", "coordinates": [1.430120187266013, 43.613472358330974]}, "properties": {"bikes": 1, "stands": 18, "name": "00122 - PASSERELLE HAEDENS", "status": "OPEN", "lon": 1.430120187266013, "lat": 43.613472358330974, "update": "2016-02-08T21:04:29", "address": "57 BD DE L EMBOUCHURE"}}, {"type": "Feature", "geometry": {"type": "Point", "coordinates": [1.443005133993703, 43.59804753924319]}, "properties": {"bikes": 10, "stands": 12, "name": "00026 - DALBADE - DE GORSSE", "status": "OPEN", "lon": 1.443005133993703, "lat": 43.59804753924319, "update": "2016-02-08T21:07:03", "address": "9 RUE HENRY DE GORSSE"}}, {"type": "Feature", "geometry": {"type": "Point", "coordinates": [1.467678323560475, 43.567221153708445]}, "properties": {"bikes": 0, "stands": 20, "name": "00230 - RANGUEIL TRIPODE B", "status": "OPEN", "lon": 1.467678323560475, "lat": 43.567221153708445, "update": "2016-02-08T21:00:48", "address": "141 AV DE RANGUEIL"}}, {"type": "Feature", "geometry": {"type": "Point", "coordinates": [1.456048100267833, 43.601588174955744]}, "properties": {"bikes": 10, "stands": 10, "name": "00042 - DAURIAC ESCANDE", "status": "OPEN", "lon": 1.456048100267833, "lat": 43.601588174955744, "update": "2016-02-08T21:04:38", "address": "3 BD PR LEOPOLD ESCANDE"}}, {"type": "Feature", "geometry": {"type": "Point", "coordinates": [1.411359591750251, 43.614589794633694]}, "properties": {"bikes": 17, "stands": 1, "name": "00219 - PUCCINI/ BLAGNAC", "status": "OPEN", "lon": 1.411359591750251, "lat": 43.614589794633694, "update": "2016-02-08T21:09:54", "address": "35 RUE PUCCINI"}}, {"type": "Feature", "geometry": {"type": "Point", "coordinates": [1.462194464667426, 43.581459211587536]}, "properties": {"bikes": 10, "stands": 10, "name": "00163 - BEDOUCE / MIDI", "status": "OPEN", "lon": 1.462194464667426, "lat": 43.581459211587536, "update": "2016-02-08T21:10:06", "address": "115 AV ALBERT BEDOUCE"}}, {"type": "Feature", "geometry": {"type": "Point", "coordinates": [1.435597311467436, 43.620735968782895]}, "properties": {"bikes": 9, "stands": 13, "name": "00133 - MARCHE AUX COCHONS", "status": "OPEN", "lon": 1.435597311467436, "lat": 43.620735968782895, "update": "2016-02-08T21:00:27", "address": "71 AV DES MINIMES"}}, {"type": "Feature", "geometry": {"type": "Point", "coordinates": [1.47508540800772, 43.58588613821349]}, "properties": {"bikes": 4, "stands": 14, "name": "00205 - COTTAGE/ RIEUX", "status": "OPEN", "lon": 1.47508540800772, "lat": 43.58588613821349, "update": "2016-02-08T21:00:24", "address": "58 AV DES COTTAGES"}}, {"type": "Feature", "geometry": {"type": "Point", "coordinates": [1.428450231443648, 43.60802027853654]}, "properties": {"bikes": 3, "stands": 17, "name": "00086 - HERACLES - BEARNAIS", "status": "OPEN", "lon": 1.428450231443648, "lat": 43.60802027853654, "update": "2016-02-08T21:05:53", "address": "23 RUE DU BEARNAIS"}}, {"type": "Feature", "geometry": {"type": "Point", "coordinates": [1.451093339873272, 43.596478222107635]}, "properties": {"bikes": 0, "stands": 23, "name": "00066 - JARDIN ROYAL", "status": "OPEN", "lon": 1.451093339873272, "lat": 43.596478222107635, "update": "2016-02-08T21:03:25", "address": "HUIT MAI 1945"}}, {"type": "Feature", "geometry": {"type": "Point", "coordinates": [1.408124460028565, 43.6172496485261]}, "properties": {"bikes": 18, "stands": 0, "name": "00240 - RTE DE BLAGNAC / JOB", "status": "OPEN", "lon": 1.408124460028565, "lat": 43.6172496485261, "update": "2016-02-08T21:05:25", "address": "FACE 103 BIS ROUTE DE BLAGNAC"}}, {"type": "Feature", "geometry": {"type": "Point", "coordinates": [1.41476, 43.60614]}, "properties": {"bikes": 17, "stands": 1, "name": "282 - RICHARD WAGNER", "status": "OPEN", "lon": 1.41476, "lat": 43.60614, "update": "2016-02-08T21:06:20", "address": "BD RICHARD WAGNER / ANGLE A.VIVALDI 31000 TOULOUSE"}}, {"type": "Feature", "geometry": {"type": "Point", "coordinates": [1.448244408330328, 43.60629718770727]}, "properties": {"bikes": 3, "stands": 21, "name": "00018 - STRASBOURG JEAN JAURES", "status": "OPEN", "lon": 1.448244408330328, "lat": 43.60629718770727, "update": "2016-02-08T21:07:39", "address": "4 BD DE STRASBOURG"}}, {"type": "Feature", "geometry": {"type": "Point", "coordinates": [1.44002, 43.60459]}, "properties": {"bikes": 1, "stands": 10, "name": "00012 - PARGAMINIERES", "status": "OPEN", "lon": 1.44002, "lat": 43.60459, "update": "2016-02-08T21:05:23", "address": "66 RUE PARGAMINIERES"}}, {"type": "Feature", "geometry": {"type": "Point", "coordinates": [1.425882273289917, 43.596852956620715]}, "properties": {"bikes": 3, "stands": 17, "name": "00117 - BILLIERES -POSTE", "status": "OPEN", "lon": 1.425882273289917, "lat": 43.596852956620715, "update": "2016-02-08T21:08:21", "address": "39 AVENUE ETIENNE BILLIERES"}}, {"type": "Feature", "geometry": {"type": "Point", "coordinates": [1.454093824286969, 43.599990271041186]}, "properties": {"bikes": 20, "stands": 1, "name": "00043 - DUPUY", "status": "OPEN", "lon": 1.454093824286969, "lat": 43.599990271041186, "update": "2016-02-08T21:08:39", "address": "14 PL DOMINIQUE MARTIN DUPUY"}}, {"type": "Feature", "geometry": {"type": "Point", "coordinates": [1.452455826571967, 43.61071810091073]}, "properties": {"bikes": 15, "stands": 13, "name": "00061 - BONREPOS", "status": "OPEN", "lon": 1.452455826571967, "lat": 43.61071810091073, "update": "2016-02-08T21:07:30", "address": "8T BD DE BONREPOS"}}, {"type": "Feature", "geometry": {"type": "Point", "coordinates": [1.460187742067113, 43.57686792022356]}, "properties": {"bikes": 4, "stands": 11, "name": "00165 - PLACE DES AVIONS", "status": "OPEN", "lon": 1.460187742067113, "lat": 43.57686792022356, "update": "2016-02-08T21:03:01", "address": "33 AVENUE DES AVIONS"}}, {"type": "Feature", "geometry": {"type": "Point", "coordinates": [1.42778, 43.62413]}, "properties": {"bikes": 9, "stands": 7, "name": "00270 - SILVIO TRENTIN", "status": "OPEN", "lon": 1.42778, "lat": 43.62413, "update": "2016-02-08T21:07:32", "address": "Rue Jules Verne angle Boulevard Silvio Trentin - 31000 TOULOUSE"}}, {"type": "Feature", "geometry": {"type": "Point", "coordinates": [1.445174430937582, 43.590605082277605]}, "properties": {"bikes": 6, "stands": 14, "name": "00103 - ST MICHEL ST CATHERINE", "status": "OPEN", "lon": 1.445174430937582, "lat": 43.590605082277605, "update": "2016-02-08T21:08:54", "address": "139 GRANDE RUE ST MICHEL"}}, {"type": "Feature", "geometry": {"type": "Point", "coordinates": [1.448061825303155, 43.60610692889793]}, "properties": {"bikes": 23, "stands": 0, "name": "00017 - STRASBOURG SARDANE", "status": "OPEN", "lon": 1.448061825303155, "lat": 43.60610692889793, "update": "2016-02-08T21:03:30", "address": "7 BD DE STRASBOURG"}}, {"type": "Feature", "geometry": {"type": "Point", "coordinates": [1.445315649331453, 43.597401475499026]}, "properties": {"bikes": 0, "stands": 20, "name": "00046 - PLACE DES CARMES", "status": "OPEN", "lon": 1.445315649331453, "lat": 43.597401475499026, "update": "2016-02-08T21:06:13", "address": "1 PL DES CARMES"}}, {"type": "Feature", "geometry": {"type": "Point", "coordinates": [1.461907953641387, 43.627603587351345]}, "properties": {"bikes": 3, "stands": 15, "name": "00218 - AMOUROUX /STE AUGUSTINE", "status": "OPEN", "lon": 1.461907953641387, "lat": 43.627603587351345, "update": "2016-02-08T21:01:06", "address": "24 BIS CHE AMOUROUX"}}, {"type": "Feature", "geometry": {"type": "Point", "coordinates": [1.470077844843929, 43.5834192540153]}, "properties": {"bikes": 13, "stands": 7, "name": "00203 - ST EX. - PETIT PRINCE", "status": "OPEN", "lon": 1.470077844843929, "lat": 43.5834192540153, "update": "2016-02-08T21:02:13", "address": "2 AV ANTOINE DE ST EXUPERY"}}, {"type": "Feature", "geometry": {"type": "Point", "coordinates": [1.441209573825458, 43.60765033417208]}, "properties": {"bikes": 5, "stands": 7, "name": "00032 - MUSEE ST RAYMOND", "status": "OPEN", "lon": 1.441209573825458, "lat": 43.60765033417208, "update": "2016-02-08T21:06:44", "address": "8 RUE DES TROIS RENARDS"}}, {"type": "Feature", "geometry": {"type": "Point", "coordinates": [1.45752, 43.61184]}, "properties": {"bikes": 5, "stands": 12, "name": "00005 - LEDUC", "status": "OPEN", "lon": 1.45752, "lat": 43.61184, "update": "2016-02-08T21:10:18", "address": "5 RUE LEDUC"}}, {"type": "Feature", "geometry": {"type": "Point", "coordinates": [1.432075106068745, 43.59628476386365]}, "properties": {"bikes": 11, "stands": 5, "name": "00073 - FITTE TEINTURIERS", "status": "OPEN", "lon": 1.432075106068745, "lat": 43.59628476386365, "update": "2016-02-08T21:01:06", "address": "40 ALL CHARLES DE FITTE"}}, {"type": "Feature", "geometry": {"type": "Point", "coordinates": [1.440920059367141, 43.594569737633854]}, "properties": {"bikes": 19, "stands": 4, "name": "00050 - GARONNETTE", "status": "OPEN", "lon": 1.440920059367141, "lat": 43.594569737633854, "update": "2016-02-08T21:07:45", "address": "1 AV MAURICE HAURIOU"}}, {"type": "Feature", "geometry": {"type": "Point", "coordinates": [1.449629619920856, 43.604717604204446]}, "properties": {"bikes": 9, "stands": 18, "name": "00020 - CARNOT TROIS JOURNEES", "status": "OPEN", "lon": 1.449629619920856, "lat": 43.604717604204446, "update": "2016-02-08T21:03:12", "address": "69 BD LAZARE CARNOT"}}, {"type": "Feature", "geometry": {"type": "Point", "coordinates": [1.443635078857447, 43.58386908499996]}, "properties": {"bikes": 7, "stands": 13, "name": "00155 - RECOLLETS", "status": "OPEN", "lon": 1.443635078857447, "lat": 43.58386908499996, "update": "2016-02-08T21:02:20", "address": "34 BD DES RECOLLETS"}}, {"type": "Feature", "geometry": {"type": "Point", "coordinates": [1.41028, 43.56507]}, "properties": {"bikes": 9, "stands": 9, "name": "00264 - LAFOURGUETTE", "status": "OPEN", "lon": 1.41028, "lat": 43.56507, "update": "2016-02-08T21:02:50", "address": "Place des Gli\u00e8res"}}, {"type": "Feature", "geometry": {"type": "Point", "coordinates": [1.4842, 43.59666]}, "properties": {"bikes": 5, "stands": 13, "name": "00256 - PLACE DE LA RONTONDE", "status": "OPEN", "lon": 1.4842, "lat": 43.59666, "update": "2016-02-08T21:01:41", "address": "FACE 175 ROUTE DE CASTRES ANGLE RUE CARCASSONNE"}}, {"type": "Feature", "geometry": {"type": "Point", "coordinates": [1.439737579879722, 43.611584087589904]}, "properties": {"bikes": 7, "stands": 14, "name": "00091 - ARCOLE BALANCE", "status": "OPEN", "lon": 1.439737579879722, "lat": 43.611584087589904, "update": "2016-02-08T21:09:59", "address": "48 BD D ARCOLE"}}, {"type": "Feature", "geometry": {"type": "Point", "coordinates": [1.465517338373819, 43.62704846650827]}, "properties": {"bikes": 7, "stands": 7, "name": "00185 - ROUBICHOU ARLES", "status": "OPEN", "lon": 1.465517338373819, "lat": 43.62704846650827, "update": "2016-02-08T21:02:43", "address": "30 RUE ROUBICHOU"}}, {"type": "Feature", "geometry": {"type": "Point", "coordinates": [1.440461106405702, 43.59938372814817]}, "properties": {"bikes": 3, "stands": 20, "name": "00027 - QUAI DE TOUNIS", "status": "OPEN", "lon": 1.440461106405702, "lat": 43.59938372814817, "update": "2016-02-08T21:05:39", "address": "QUAI DE TOUNIS"}}, {"type": "Feature", "geometry": {"type": "Point", "coordinates": [1.478914286004687, 43.589466982143435]}, "properties": {"bikes": 1, "stands": 17, "name": "00209 - BAROUX/ DARASSE", "status": "OPEN", "lon": 1.478914286004687, "lat": 43.589466982143435, "update": "2016-02-08T21:00:42", "address": "4 AV LUCIEN BAROUX"}}, {"type": "Feature", "geometry": {"type": "Point", "coordinates": [1.40230245215212, 43.574612132702526]}, "properties": {"bikes": 0, "stands": 19, "name": "00220 - TABAR /UNIVERSITE", "status": "OPEN", "lon": 1.40230245215212, "lat": 43.574612132702526, "update": "2016-02-08T21:09:35", "address": "3 RUE DE L'UNIVERSITE"}}, {"type": "Feature", "geometry": {"type": "Point", "coordinates": [1.431415230750123, 43.59812186858788]}, "properties": {"bikes": 1, "stands": 15, "name": "00078 - PLACE INT ST CYP. DARRE", "status": "OPEN", "lon": 1.431415230750123, "lat": 43.59812186858788, "update": "2016-02-08T21:09:34", "address": "14 PL INTERIEURE ST CYPRIEN"}}, {"type": "Feature", "geometry": {"type": "Point", "coordinates": [1.448486709552681, 43.615368584913504]}, "properties": {"bikes": 13, "stands": 9, "name": "00149 - RAISIN MINIMES", "status": "OPEN", "lon": 1.448486709552681, "lat": 43.615368584913504, "update": "2016-02-08T21:02:57", "address": "CH DU RAISIN"}}, {"type": "Feature", "geometry": {"type": "Point", "coordinates": [1.446485498451865, 43.613590372531775]}, "properties": {"bikes": 18, "stands": 1, "name": "00059 - CONCORDE", "status": "OPEN", "lon": 1.446485498451865, "lat": 43.613590372531775, "update": "2016-02-08T21:08:23", "address": "61 RUE DE LA CONCORDE"}}, {"type": "Feature", "geometry": {"type": "Point", "coordinates": [1.430389555237135, 43.609753361824794]}, "properties": {"bikes": 6, "stands": 21, "name": "00107 - SEBASTOPOL", "status": "OPEN", "lon": 1.430389555237135, "lat": 43.609753361824794, "update": "2016-02-08T21:07:04", "address": "1 RUE DE SEBASTOPOL"}}, {"type": "Feature", "geometry": {"type": "Point", "coordinates": [1.420141760360439, 43.60390532418828]}, "properties": {"bikes": 19, "stands": 1, "name": "00246 - WAGNER / JEAN BRUNHES", "status": "OPEN", "lon": 1.420141760360439, "lat": 43.60390532418828, "update": "2016-02-08T21:03:30", "address": "29 BOULEVARD RICHARD WAGNER ANG BD JEAN BRUNHES"}}, {"type": "Feature", "geometry": {"type": "Point", "coordinates": [1.450654849861206, 43.60082502483391]}, "properties": {"bikes": 1, "stands": 15, "name": "00099 - REMPART ST ETIENNE", "status": "OPEN", "lon": 1.450654849861206, "lat": 43.60082502483391, "update": "2016-02-08T21:06:23", "address": "7 RUE DU REMPART ST ETIENNE"}}, {"type": "Feature", "geometry": {"type": "Point", "coordinates": [1.48278, 43.57452]}, "properties": {"bikes": 12, "stands": 4, "name": "00267 - GONIN", "status": "OPEN", "lon": 1.48278, "lat": 43.57452, "update": "2016-02-08T21:07:20", "address": "RUE GONIN ANGLE GENIN 31000 TOULOUSE"}}, {"type": "Feature", "geometry": {"type": "Point", "coordinates": [1.449215732146181, 43.592355124495455]}, "properties": {"bikes": 7, "stands": 13, "name": "00113 - MUSEUM LAMARCK", "status": "OPEN", "lon": 1.449215732146181, "lat": 43.592355124495455, "update": "2016-02-08T21:03:58", "address": "FACE 58 RUE DUMERIL"}}, {"type": "Feature", "geometry": {"type": "Point", "coordinates": [1.444528167445985, 43.61692696530316]}, "properties": {"bikes": 10, "stands": 9, "name": "00148 - COLLIGNON", "status": "OPEN", "lon": 1.444528167445985, "lat": 43.61692696530316, "update": "2016-02-08T21:06:22", "address": "5 AV DE COLLIGNON"}}, {"type": "Feature", "geometry": {"type": "Point", "coordinates": [1.454698517821249, 43.62409340165932]}, "properties": {"bikes": 17, "stands": 1, "name": "00167 - LAPUJADE-FLANDRES", "status": "OPEN", "lon": 1.454698517821249, "lat": 43.62409340165932, "update": "2016-02-08T21:07:48", "address": "RUE LAPUJADE ANGLE RUE DES FLANDRES"}}, {"type": "Feature", "geometry": {"type": "Point", "coordinates": [1.41325, 43.56793]}, "properties": {"bikes": 4, "stands": 14, "name": "00265 - PASSAGE BORDELONGUE", "status": "OPEN", "lon": 1.41325, "lat": 43.56793, "update": "2016-02-08T21:02:46", "address": "Face N\u00b0251 route de Seysses"}}, {"type": "Feature", "geometry": {"type": "Point", "coordinates": [1.446483165667178, 43.588359791103294]}, "properties": {"bikes": 8, "stands": 6, "name": "00116 - ST MICHEL NOTRE DAME", "status": "OPEN", "lon": 1.446483165667178, "lat": 43.588359791103294, "update": "2016-02-08T21:00:21", "address": "50 GRANDE RUE ST MICHEL"}}, {"type": "Feature", "geometry": {"type": "Point", "coordinates": [1.446076879873296, 43.609650036285025]}, "properties": {"bikes": 1, "stands": 18, "name": "00034 - SAINT LAZARE", "status": "OPEN", "lon": 1.446076879873296, "lat": 43.609650036285025, "update": "2016-02-08T21:08:37", "address": "2 PETITE RUE SAINT LAZARE"}}, {"type": "Feature", "geometry": {"type": "Point", "coordinates": [1.419524853208122, 43.609967343094006]}, "properties": {"bikes": 24, "stands": 0, "name": "00119 - CHAPOU", "status": "OPEN", "lon": 1.419524853208122, "lat": 43.609967343094006, "update": "2016-02-08T21:06:12", "address": "129 ALL DE BRIENNE"}}, {"type": "Feature", "geometry": {"type": "Point", "coordinates": [1.38887, 43.58171]}, "properties": {"bikes": 2, "stands": 15, "name": "00275 - PLACE DES PRADETTES", "status": "OPEN", "lon": 1.38887, "lat": 43.58171, "update": "2016-02-08T21:01:39", "address": "Place des Pradettes / rue Arthur Huc"}}, {"type": "Feature", "geometry": {"type": "Point", "coordinates": [1.451999386383253, 43.573924940202886]}, "properties": {"bikes": 17, "stands": 0, "name": "00160 - THEATRE JULES JULIEN", "status": "OPEN", "lon": 1.451999386383253, "lat": 43.573924940202886, "update": "2016-02-08T21:09:12", "address": "21 AV DES ECOLES JULES JULIEN"}}, {"type": "Feature", "geometry": {"type": "Point", "coordinates": [1.456086445970436, 43.569437251134566]}, "properties": {"bikes": 15, "stands": 0, "name": "00232 - NARBONNE/ MIROUSE", "status": "OPEN", "lon": 1.456086445970436, "lat": 43.569437251134566, "update": "2016-02-08T21:08:25", "address": "64 RTE DE NARBONNE"}}, {"type": "Feature", "geometry": {"type": "Point", "coordinates": [1.48781984362323, 43.58350615923425]}, "properties": {"bikes": 6, "stands": 12, "name": "00211 - LE DORMEUR/ LA TERRASSE", "status": "OPEN", "lon": 1.48781984362323, "lat": 43.58350615923425, "update": "2016-02-08T21:05:40", "address": "9 RUE LE DORMEUR"}}, {"type": "Feature", "geometry": {"type": "Point", "coordinates": [1.39709, 43.6142]}, "properties": {"bikes": 1, "stands": 17, "name": "00278 - ARENES ROMAINE", "status": "OPEN", "lon": 1.39709, "lat": 43.6142, "update": "2016-02-08T21:02:22", "address": "AVENUE DES ARENES ROMAINES / GUY ESPAGNO DANS ROND POINT 31000 TOULOUSE"}}, {"type": "Feature", "geometry": {"type": "Point", "coordinates": [1.434473692188769, 43.62293779541603]}, "properties": {"bikes": 5, "stands": 14, "name": "00132 - MINIMES BILARD", "status": "OPEN", "lon": 1.434473692188769, "lat": 43.62293779541603, "update": "2016-02-08T21:09:28", "address": "101 AVENUES DES MINIMES"}}, {"type": "Feature", "geometry": {"type": "Point", "coordinates": [1.424941224096277, 43.61395913175851]}, "properties": {"bikes": 18, "stands": 2, "name": "00145 - GOUNOD - GARROS", "status": "OPEN", "lon": 1.424941224096277, "lat": 43.61395913175851, "update": "2016-02-08T21:07:55", "address": "29 RUE ROLAND GARROS"}}, {"type": "Feature", "geometry": {"type": "Point", "coordinates": [1.438157046235524, 43.61375517689823]}, "properties": {"bikes": 10, "stands": 7, "name": "00110 - CABANEL - SERRES", "status": "OPEN", "lon": 1.438157046235524, "lat": 43.61375517689823, "update": "2016-02-08T21:03:06", "address": "16 RUE ALEXANDRE CABANEL"}}, {"type": "Feature", "geometry": {"type": "Point", "coordinates": [1.434225150757254, 43.6269176821576]}, "properties": {"bikes": 22, "stands": 3, "name": "00125 - BARRI\u00c8RE DE PARIS", "status": "OPEN", "lon": 1.434225150757254, "lat": 43.6269176821576, "update": "2016-02-08T21:06:12", "address": "BARRI\u00c8RE DE PARIS"}}, {"type": "Feature", "geometry": {"type": "Point", "coordinates": [1.454189017923435, 43.607433487401345]}, "properties": {"bikes": 7, "stands": 15, "name": "00063 - PISCINE LEO LAGRANGE", "status": "OPEN", "lon": 1.454189017923435, "lat": 43.607433487401345, "update": "2016-02-08T21:04:09", "address": "54 RUE DES SEPT TROUBADOURS"}}, {"type": "Feature", "geometry": {"type": "Point", "coordinates": [1.46539185105244, 43.61743867816197]}, "properties": {"bikes": 3, "stands": 17, "name": "00177 - BAILLAUD BRUNAUD", "status": "OPEN", "lon": 1.46539185105244, "lat": 43.61743867816197, "update": "2016-02-08T21:02:46", "address": "64 RUE BAILLAUD"}}, {"type": "Feature", "geometry": {"type": "Point", "coordinates": [1.483669775054849, 43.57906922965151]}, "properties": {"bikes": 0, "stands": 17, "name": "00200 - PLACE DE L'ORMEAU", "status": "OPEN", "lon": 1.483669775054849, "lat": 43.57906922965151, "update": "2016-02-08T21:10:02", "address": "FACE 345 AV JEAN RIEUX"}}, {"type": "Feature", "geometry": {"type": "Point", "coordinates": [1.444269620551324, 43.60735205357881]}, "properties": {"bikes": 1, "stands": 15, "name": "00014 - PERIGORD", "status": "OPEN", "lon": 1.444269620551324, "lat": 43.60735205357881, "update": "2016-02-08T21:07:03", "address": "26 RUE DE PERIGORD"}}, {"type": "Feature", "geometry": {"type": "Point", "coordinates": [1.4795004816774, 43.610549420565]}, "properties": {"bikes": 5, "stands": 12, "name": "00181 - PLANA GARNIER", "status": "OPEN", "lon": 1.4795004816774, "lat": 43.610549420565, "update": "2016-02-08T21:06:38", "address": "27 Avenue Louis PLANA"}}, {"type": "Feature", "geometry": {"type": "Point", "coordinates": [1.4429, 43.59253]}, "properties": {"bikes": 8, "stands": 10, "name": "00069 - FEUGA", "status": "OPEN", "lon": 1.4429, "lat": 43.59253, "update": "2016-02-08T21:08:12", "address": "11 ALL PAUL FEUGA"}}, {"type": "Feature", "geometry": {"type": "Point", "coordinates": [1.448634234326797, 43.582831686768735]}, "properties": {"bikes": 18, "stands": 1, "name": "00157 - U.R.S.S  PEYROUSET", "status": "OPEN", "lon": 1.448634234326797, "lat": 43.582831686768735, "update": "2016-02-08T21:06:34", "address": "16 AV DE L'U.R.S.S"}}, {"type": "Feature", "geometry": {"type": "Point", "coordinates": [1.425325828280708, 43.581352282638655]}, "properties": {"bikes": 17, "stands": 3, "name": "00189 - MURET BOUTINON", "status": "OPEN", "lon": 1.425325828280708, "lat": 43.581352282638655, "update": "2016-02-08T21:03:03", "address": "44 AVENUE DE MURET"}}]}