{"type": "FeatureCollection", "features": [{"geometry": {"coordinates": [1.441003598726198, 43.608951960496405], "type": "Point"}, "type": "Feature", "properties": {"bikes": 5, "update": "2016-02-08T21:14:07", "name": "00055 - ST SERNIN G. ARNOULT", "address": "2 RUE GATIEN ARNOULT", "lon": 1.441003598726198, "status": "OPEN", "stands": 10, "lat": 43.608951960496405}}, {"geometry": {"coordinates": [1.45907112459247, 43.59723540303583], "type": "Point"}, "type": "Feature", "properties": {"bikes": 11, "update": "2016-02-08T21:15:05", "name": "00195 - LARROUSSE -RIEUX", "address": "FACE 15 RUE PIERRE LAROUSSE", "lon": 1.45907112459247, "status": "OPEN", "stands": 6, "lat": 43.59723540303583}}, {"geometry": {"coordinates": [1.46278065695466, 43.571433064051334], "type": "Point"}, "type": "Feature", "properties": {"bikes": 0, "update": "2016-02-08T21:09:35", "name": "00229 - IUT RANGUEIL", "address": "129 AV DE RANGUEIL", "lon": 1.46278065695466, "status": "OPEN", "stands": 18, "lat": 43.571433064051334}}, {"geometry": {"coordinates": [1.452605307400692, 43.597074846780274], "type": "Point"}, "type": "Feature", "properties": {"bikes": 3, "update": "2016-02-08T21:12:29", "name": "00065 - VERDIER - GRAND ROND", "address": "2 ALL FORAIN FRANCOIS VERDIER", "lon": 1.452605307400692, "status": "OPEN", "stands": 24, "lat": 43.597074846780274}}, {"geometry": {"coordinates": [1.45195665819857, 43.60221990815785], "type": "Point"}, "type": "Feature", "properties": {"bikes": 11, "update": "2016-02-08T21:10:05", "name": "00022 - CARNOT ROLAND", "address": "24 BD LAZARE CARNOT", "lon": 1.45195665819857, "status": "OPEN", "stands": 9, "lat": 43.60221990815785}}, {"geometry": {"coordinates": [1.403872948950036, 43.59729443895585], "type": "Point"}, "type": "Feature", "properties": {"bikes": 9, "update": "2016-02-08T21:08:36", "name": "00236 - TOEC / LEMIRE", "address": "RUE DE L'ABBE JULES LEMIRE", "lon": 1.403872948950036, "status": "OPEN", "stands": 11, "lat": 43.59729443895585}}, {"geometry": {"coordinates": [1.442921175845342, 43.615259799224134], "type": "Point"}, "type": "Feature", "properties": {"bikes": 27, "update": "2016-02-08T21:08:08", "name": "00111 - MINIMES PASSERELLE", "address": "38B BD DES MINIMES", "lon": 1.442921175845342, "status": "OPEN", "stands": 0, "lat": 43.615259799224134}}, {"geometry": {"coordinates": [1.43180804154469, 43.632641237523], "type": "Point"}, "type": "Feature", "properties": {"bikes": 10, "update": "2016-02-08T21:14:53", "name": "00243 - ETATS-UNIS / FERRY", "address": "96 av des Etats-Unis angle rue Jules Ferry", "lon": 1.43180804154469, "status": "OPEN", "stands": 7, "lat": 43.632641237523}}, {"geometry": {"coordinates": [1.452693250180783, 43.63692179179762], "type": "Point"}, "type": "Feature", "properties": {"bikes": 16, "update": "2016-02-08T21:10:55", "name": "00174 - MAUNOURY / MELA", "address": "41 AV MAURICE BOURGES MAUNOURY", "lon": 1.452693250180783, "status": "OPEN", "stands": 3, "lat": 43.63692179179762}}, {"geometry": {"coordinates": [1.420275802412521, 43.60094924792523], "type": "Point"}, "type": "Feature", "properties": {"bikes": 20, "update": "2016-02-08T21:14:57", "name": "00137 - BRUNHES-FONTAINES", "address": "47 BD JEAN BRUNHES", "lon": 1.420275802412521, "status": "OPEN", "stands": 0, "lat": 43.60094924792523}}, {"geometry": {"coordinates": [1.421715694303944, 43.61606217398145], "type": "Point"}, "type": "Feature", "properties": {"bikes": 9, "update": "2016-02-08T21:14:41", "name": "00144 - SUISSE - LAUSANE", "address": "62 BD DE SUISSE", "lon": 1.421715694303944, "status": "OPEN", "stands": 11, "lat": 43.61606217398145}}, {"geometry": {"coordinates": [1.453588691746783, 43.604660136134775], "type": "Point"}, "type": "Feature", "properties": {"bikes": 6, "update": "2016-02-08T21:08:00", "name": "00040 - COLOMBETTE", "address": "41 RUE DE LA COLOMBETTE", "lon": 1.453588691746783, "status": "OPEN", "stands": 10, "lat": 43.604660136134775}}, {"geometry": {"coordinates": [1.445569311598848, 43.60333593826575], "type": "Point"}, "type": "Feature", "properties": {"bikes": 1, "update": "2016-02-08T21:07:10", "name": "00003 - POMME", "address": "62 RUE DE LA POMME", "lon": 1.445569311598848, "status": "OPEN", "stands": 16, "lat": 43.60333593826575}}, {"geometry": {"coordinates": [1.418420510391943, 43.5955673906372], "type": "Point"}, "type": "Feature", "properties": {"bikes": 18, "update": "2016-02-08T21:12:43", "name": "00139 - BARRIERE DE LOMBEZ", "address": "39 BIS AV DE LOMBEZ", "lon": 1.418420510391943, "status": "OPEN", "stands": 7, "lat": 43.5955673906372}}, {"geometry": {"coordinates": [1.44361404386217, 43.614465544425535], "type": "Point"}, "type": "Feature", "properties": {"bikes": 8, "update": "2016-02-08T21:09:31", "name": "00093 - PRINTEMPS", "address": "57 RUE DU PRINTEMPS", "lon": 1.44361404386217, "status": "OPEN", "stands": 9, "lat": 43.614465544425535}}, {"geometry": {"coordinates": [1.429556601823956, 43.59989498759688], "type": "Point"}, "type": "Feature", "properties": {"bikes": 32, "update": "2016-02-08T21:12:15", "name": "00081 - JARDIN RAYMOND VI", "address": "ALL CHARLES DE FITTE", "lon": 1.429556601823956, "status": "OPEN", "stands": 1, "lat": 43.59989498759688}}, {"geometry": {"coordinates": [1.449039275575635, 43.64108958806659], "type": "Point"}, "type": "Feature", "properties": {"bikes": 15, "update": "2016-02-08T21:15:05", "name": "00248 - BOUQUETINS/E. ROSTAND", "address": "RUE DES BOUQUETINS ANGLE RUE EDMOND ROSTAND", "lon": 1.449039275575635, "status": "OPEN", "stands": 5, "lat": 43.64108958806659}}, {"geometry": {"coordinates": [1.437631489341106, 43.60863633636605], "type": "Point"}, "type": "Feature", "properties": {"bikes": 3, "update": "2016-02-08T21:07:28", "name": "00053 - PLACE SAINT JULIEN", "address": "PL SAINT JULIEN", "lon": 1.437631489341106, "status": "OPEN", "stands": 22, "lat": 43.60863633636605}}, {"geometry": {"coordinates": [1.432335729928681, 43.609500004240715], "type": "Point"}, "type": "Feature", "properties": {"bikes": 0, "update": "2016-02-08T21:15:27", "name": "00087 - LASCROSSES LECLERC", "address": "47 BD LASCROSSES", "lon": 1.432335729928681, "status": "OPEN", "stands": 24, "lat": 43.609500004240715}}, {"geometry": {"coordinates": [1.438340345212284, 43.612327522628846], "type": "Point"}, "type": "Feature", "properties": {"bikes": 16, "update": "2016-02-08T21:09:30", "name": "00121 - SERRES - A. BERNARD", "address": "33 AV HONRE SERRES", "lon": 1.438340345212284, "status": "OPEN", "stands": 1, "lat": 43.612327522628846}}, {"geometry": {"coordinates": [1.469393836823441, 43.577166917623245], "type": "Point"}, "type": "Feature", "properties": {"bikes": 11, "update": "2016-02-08T21:10:01", "name": "00239 - LESPINET / HERBETTES", "address": "FACE AU 127 AVENUE DE LESPINET", "lon": 1.469393836823441, "status": "OPEN", "stands": 9, "lat": 43.577166917623245}}, {"geometry": {"coordinates": [1.445420780739279, 43.604134687021045], "type": "Point"}, "type": "Feature", "properties": {"bikes": 0, "update": "2016-02-08T21:10:10", "name": "00001 - POIDS DE L'HUILE", "address": "12 RUE DU POIDS DE L'HUILE", "lon": 1.445420780739279, "status": "OPEN", "stands": 19, "lat": 43.604134687021045}}, {"geometry": {"coordinates": [1.446593812218414, 43.605852162177925], "type": "Point"}, "type": "Feature", "properties": {"bikes": 12, "update": "2016-02-08T21:12:48", "name": "00007 - PLACE VICTOR HUGO", "address": "6 RUE DU REMPART VILLENEUVE", "lon": 1.446593812218414, "status": "OPEN", "stands": 11, "lat": 43.605852162177925}}, {"geometry": {"coordinates": [1.43298, 43.64751], "type": "Point"}, "type": "Feature", "properties": {"bikes": 14, "update": "2016-02-08T21:11:15", "name": "00259 - PLACE RICHE", "address": "Place Riche / Lalande - 31000 TOULOUSE", "lon": 1.43298, "status": "OPEN", "stands": 6, "lat": 43.64751}}, {"geometry": {"coordinates": [1.451330504561275, 43.628236592839514], "type": "Point"}, "type": "Feature", "properties": {"bikes": 12, "update": "2016-02-08T21:12:09", "name": "00234 - LOIN / RAYNAL", "address": "RUE LOIN 100M AVT RAYNAL", "lon": 1.451330504561275, "status": "OPEN", "stands": 3, "lat": 43.628236592839514}}, {"geometry": {"coordinates": [1.409162125552512, 43.587659413053814], "type": "Point"}, "type": "Feature", "properties": {"bikes": 1, "update": "2016-02-08T16:31:44", "name": "00192 - RTE DE ST SIMON/PRADO", "address": "355 route de saint-Simon", "lon": 1.409162125552512, "status": "OPEN", "stands": 19, "lat": 43.587659413053814}}, {"geometry": {"coordinates": [1.444132711268797, 43.59474911973265], "type": "Point"}, "type": "Feature", "properties": {"bikes": 1, "update": "2016-02-08T21:14:15", "name": "00048 - PLACE DU SALIN", "address": "18 PL DU SALIN", "lon": 1.444132711268797, "status": "OPEN", "stands": 21, "lat": 43.59474911973265}}, {"geometry": {"coordinates": [1.45256734914219, 43.6394555737186], "type": "Point"}, "type": "Feature", "properties": {"bikes": 12, "update": "2016-02-08T21:07:52", "name": "00175 - METRO MAUNOURY", "address": "Avenue Maurice BOURGES MAUNOURY", "lon": 1.45256734914219, "status": "OPEN", "stands": 18, "lat": 43.6394555737186}}, {"geometry": {"coordinates": [1.462031097914686, 43.574366149048714], "type": "Point"}, "type": "Feature", "properties": {"bikes": 0, "update": "2016-02-08T21:14:46", "name": "00166 - RANGUEIL GUYOU", "address": "23 RUE GUYOU", "lon": 1.462031097914686, "status": "OPEN", "stands": 20, "lat": 43.574366149048714}}, {"geometry": {"coordinates": [1.458585739964361, 43.62316326019301], "type": "Point"}, "type": "Feature", "properties": {"bikes": 17, "update": "2016-02-08T21:07:23", "name": "00135 - BONNEFOY   LEMAITRE", "address": "183 RUE DU FB  BONNEFOY", "lon": 1.458585739964361, "status": "OPEN", "stands": 1, "lat": 43.62316326019301}}, {"geometry": {"coordinates": [1.453805825078145, 43.590622011025665], "type": "Point"}, "type": "Feature", "properties": {"bikes": 2, "update": "2016-02-08T21:10:20", "name": "00115 - DEMOISELLES MISTRAL", "address": "8 ALL DES DEMOISELLES", "lon": 1.453805825078145, "status": "OPEN", "stands": 15, "lat": 43.590622011025665}}, {"geometry": {"coordinates": [1.44938, 43.59468], "type": "Point"}, "type": "Feature", "properties": {"bikes": 3, "update": "2016-02-08T21:09:38", "name": "00067 - MUSEUM", "address": "35 ALL JULES GUESDE", "lon": 1.44938, "status": "OPEN", "stands": 18, "lat": 43.59468}}, {"geometry": {"coordinates": [1.427517107421507, 43.584282965328995], "type": "Point"}, "type": "Feature", "properties": {"bikes": 9, "update": "2016-02-08T21:14:39", "name": "00188 - MURET/LAFAGE", "address": "121 AVENUE DE MURET", "lon": 1.427517107421507, "status": "OPEN", "stands": 9, "lat": 43.584282965328995}}, {"geometry": {"coordinates": [1.468753766918999, 43.619281402937425], "type": "Point"}, "type": "Feature", "properties": {"bikes": 1, "update": "2016-02-08T21:07:40", "name": "00178 - BRUNAUD / PLANA", "address": "AVENUE YVES BRUNAUD", "lon": 1.468753766918999, "status": "OPEN", "stands": 19, "lat": 43.619281402937425}}, {"geometry": {"coordinates": [1.454436078796189, 43.60265364232074], "type": "Point"}, "type": "Feature", "properties": {"bikes": 8, "update": "2016-02-08T21:15:17", "name": "00041 - ST AUBIN CAMICHEL", "address": "1 RUE CHARLES CAMICHEL", "lon": 1.454436078796189, "status": "OPEN", "stands": 13, "lat": 43.60265364232074}}, {"geometry": {"coordinates": [1.437871385550754, 43.61146971436288], "type": "Point"}, "type": "Feature", "properties": {"bikes": 8, "update": "2016-02-08T21:10:11", "name": "00090 - LASCROSSES- A. BERNARD", "address": "3B BD LASCROSSES", "lon": 1.437871385550754, "status": "OPEN", "stands": 17, "lat": 43.61146971436288}}, {"geometry": {"coordinates": [1.434707777421923, 43.615173611788045], "type": "Point"}, "type": "Feature", "properties": {"bikes": 5, "update": "2016-02-08T21:14:16", "name": "00109 - METRO CANAL DU MIDI", "address": "1 BD DE LA MARQUETTE", "lon": 1.434707777421923, "status": "OPEN", "stands": 20, "lat": 43.615173611788045}}, {"geometry": {"coordinates": [1.464093716152017, 43.60038605818475], "type": "Point"}, "type": "Feature", "properties": {"bikes": 1, "update": "2016-02-08T21:13:35", "name": "00197 - CASERNE PERIGNON", "address": "6 AV LOUIS BLERIOT", "lon": 1.464093716152017, "status": "OPEN", "stands": 19, "lat": 43.60038605818475}}, {"geometry": {"coordinates": [1.452057713684133, 43.60128593726337], "type": "Point"}, "type": "Feature", "properties": {"bikes": 5, "update": "2016-02-08T21:09:44", "name": "00023 - COMBATTANTS", "address": "6 BD LAZARE CARNOT", "lon": 1.452057713684133, "status": "OPEN", "stands": 21, "lat": 43.60128593726337}}, {"geometry": {"coordinates": [1.39262, 43.5792], "type": "Point"}, "type": "Feature", "properties": {"bikes": 4, "update": "2016-02-08T21:10:22", "name": "00273 - PASSERIEU - ST SIMON", "address": "ROND POINT DES IZARD ANGLEPASSERIEU ET ROUTE ST SIMON", "lon": 1.39262, "status": "OPEN", "stands": 14, "lat": 43.5792}}, {"geometry": {"coordinates": [1.437032051956223, 43.605071904633625], "type": "Point"}, "type": "Feature", "properties": {"bikes": 4, "update": "2016-02-08T21:06:47", "name": "00029 - VALADE", "address": "31 RUE VALADE", "lon": 1.437032051956223, "status": "OPEN", "stands": 15, "lat": 43.605071904633625}}, {"geometry": {"coordinates": [1.44871, 43.57383], "type": "Point"}, "type": "Feature", "properties": {"bikes": 18, "update": "2016-02-08T21:08:45", "name": "280 - CHARBONNIERE", "address": "RUE DE LA CHARBONNIERE ANGLE RUE DES PALMIERS 31000 TOULOUSE", "lon": 1.44871, "status": "OPEN", "stands": 0, "lat": 43.57383}}, {"geometry": {"coordinates": [1.441783289134449, 43.579737115748195], "type": "Point"}, "type": "Feature", "properties": {"bikes": 3, "update": "2016-02-08T21:14:52", "name": "00156 - METRO EMPALOT", "address": "38 AV JEAN MOULIN FACE DEBOUCHE RUE DE CANNES", "lon": 1.441783289134449, "status": "OPEN", "stands": 13, "lat": 43.579737115748195}}, {"geometry": {"coordinates": [1.437493796200118, 43.633866178151905], "type": "Point"}, "type": "Feature", "properties": {"bikes": 15, "update": "2016-02-08T21:09:20", "name": "00242 -  RAIMBAUD / COLETTE", "address": "RUE RAIMBAUD ANGLE RUE COLETTE", "lon": 1.437493796200118, "status": "OPEN", "stands": 1, "lat": 43.633866178151905}}, {"geometry": {"coordinates": [1.474881961695726, 43.566595761363736], "type": "Point"}, "type": "Feature", "properties": {"bikes": 0, "update": "2016-02-08T21:10:06", "name": "00224 - CAMPUS SUPAERO", "address": "AVENUE EDOUARD BELIN FACE CH\u00c2TEAU DU CREPS", "lon": 1.474881961695726, "status": "OPEN", "stands": 20, "lat": 43.566595761363736}}, {"geometry": {"coordinates": [1.4420311550308, 43.58995890864312], "type": "Point"}, "type": "Feature", "properties": {"bikes": 3, "update": "2016-02-08T21:14:37", "name": "00154 - GALLOIS", "address": "RUE DES GALLOIS", "lon": 1.4420311550308, "status": "OPEN", "stands": 17, "lat": 43.58995890864312}}, {"geometry": {"coordinates": [1.455204795385279, 43.60974282737991], "type": "Point"}, "type": "Feature", "properties": {"bikes": 6, "update": "2016-02-08T21:12:54", "name": "00096 - MEDIATHEQUE", "address": "50 RUE DU GENERAL COMPANS", "lon": 1.455204795385279, "status": "OPEN", "stands": 19, "lat": 43.60974282737991}}, {"geometry": {"coordinates": [1.438302180907754, 43.624183134252704], "type": "Point"}, "type": "Feature", "properties": {"bikes": 4, "update": "2016-02-08T21:12:56", "name": "00152 - MAZADES", "address": "10 AV DES MAZADES", "lon": 1.438302180907754, "status": "OPEN", "stands": 15, "lat": 43.624183134252704}}, {"geometry": {"coordinates": [1.37975, 43.58132], "type": "Point"}, "type": "Feature", "properties": {"bikes": 18, "update": "2016-02-08T21:14:28", "name": "00276 - MARIN REBOUL", "address": "chemin du Marin angle chemin du Reboul", "lon": 1.37975, "status": "OPEN", "stands": 0, "lat": 43.58132}}, {"geometry": {"coordinates": [1.431605284631358, 43.597835830061406], "type": "Point"}, "type": "Feature", "properties": {"bikes": 5, "update": "2016-02-08T21:15:22", "name": "00077 - PLACE INT SAINT CYPRIEN", "address": "2 PL INTERIEURE ST CYPRIEN", "lon": 1.431605284631358, "status": "OPEN", "stands": 8, "lat": 43.597835830061406}}, {"geometry": {"coordinates": [1.445580732388259, 43.599435045967155], "type": "Point"}, "type": "Feature", "properties": {"bikes": 0, "update": "2016-02-08T21:13:08", "name": "00025 - PLACE ROUAIX", "address": "1 RUE DES TOURNEURS", "lon": 1.445580732388259, "status": "OPEN", "stands": 17, "lat": 43.599435045967155}}, {"geometry": {"coordinates": [1.436175197009508, 43.596660562935625], "type": "Point"}, "type": "Feature", "properties": {"bikes": 5, "update": "2016-02-08T21:13:40", "name": "00074 - LAGANNE TEINTURIERS", "address": "37 RUE LAGANNE", "lon": 1.436175197009508, "status": "OPEN", "stands": 12, "lat": 43.596660562935625}}, {"geometry": {"coordinates": [1.434894328349442, 43.59318934283672], "type": "Point"}, "type": "Feature", "properties": {"bikes": 0, "update": "2016-02-08T21:10:35", "name": "00071 - COURS DILLON", "address": "3 RUE LAGANNE", "lon": 1.434894328349442, "status": "OPEN", "stands": 22, "lat": 43.59318934283672}}, {"geometry": {"coordinates": [1.428862699237109, 43.59764204883991], "type": "Point"}, "type": "Feature", "properties": {"bikes": 15, "update": "2016-02-08T21:13:00", "name": "00105 - BILLIERE -CHAMPETRE", "address": "12  AV  ETIENNE  BILLIERES", "lon": 1.428862699237109, "status": "OPEN", "stands": 4, "lat": 43.59764204883991}}, {"geometry": {"coordinates": [1.454987798766018, 43.60617263070887], "type": "Point"}, "type": "Feature", "properties": {"bikes": 12, "update": "2016-02-08T21:13:28", "name": "00064 - PERI MERCADIER", "address": "0030 RUE GABRIEL PERI", "lon": 1.454987798766018, "status": "OPEN", "stands": 11, "lat": 43.60617263070887}}, {"geometry": {"coordinates": [1.448541598385468, 43.61263652233987], "type": "Point"}, "type": "Feature", "properties": {"bikes": 17, "update": "2016-02-08T21:15:02", "name": "00060 - ROQUELAINE", "address": "32 PL ROQUELAINE", "lon": 1.448541598385468, "status": "OPEN", "stands": 7, "lat": 43.61263652233987}}, {"geometry": {"coordinates": [1.449367822982907, 43.609623167283914], "type": "Point"}, "type": "Feature", "properties": {"bikes": 15, "update": "2016-02-08T21:14:19", "name": "00036 - PLACE SCHUMAN", "address": "5 PL ROBERT SCHUMAN", "lon": 1.449367822982907, "status": "OPEN", "stands": 9, "lat": 43.609623167283914}}, {"geometry": {"coordinates": [1.462869145576551, 43.56160969546884], "type": "Point"}, "type": "Feature", "properties": {"bikes": 0, "update": "2016-02-08T21:11:18", "name": "00227 - METRO UPS", "address": "118  RTE DE NARBONNE", "lon": 1.462869145576551, "status": "OPEN", "stands": 20, "lat": 43.56160969546884}}, {"geometry": {"coordinates": [1.415543960373121, 43.584523123495174], "type": "Point"}, "type": "Feature", "properties": {"bikes": 6, "update": "2016-02-08T21:09:39", "name": "00187 - DESBALS MONTDORE", "address": "187 RUE HENRI DESBALS", "lon": 1.415543960373121, "status": "OPEN", "stands": 10, "lat": 43.584523123495174}}, {"geometry": {"coordinates": [1.473268554354084, 43.56947707206279], "type": "Point"}, "type": "Feature", "properties": {"bikes": 1, "update": "2016-02-08T21:12:28", "name": "00225 - BELIN ONERA", "address": "AVENUE EDOUARD BELIN DEVANT ONERA", "lon": 1.473268554354084, "status": "OPEN", "stands": 19, "lat": 43.56947707206279}}, {"geometry": {"coordinates": [1.432687682718845, 43.60524239596951], "type": "Point"}, "type": "Feature", "properties": {"bikes": 1, "update": "2016-02-08T21:15:37", "name": "00084 - BRIENNE MANUFACTURE", "address": "19T ALL DE BRIENNE", "lon": 1.432687682718845, "status": "OPEN", "stands": 22, "lat": 43.60524239596951}}, {"geometry": {"coordinates": [1.480087483756261, 43.59122002356995], "type": "Point"}, "type": "Feature", "properties": {"bikes": 7, "update": "2016-02-08T21:14:31", "name": "00208 - LIMAYRAC/ DARASSE", "address": "ALL DE LIMAYRAC", "lon": 1.480087483756261, "status": "OPEN", "stands": 9, "lat": 43.59122002356995}}, {"geometry": {"coordinates": [1.414597471267562, 43.61174111564092], "type": "Point"}, "type": "Feature", "properties": {"bikes": 19, "update": "2016-02-08T21:07:58", "name": "00131 - BERNIES", "address": "15 RUE PAUL BERNIES", "lon": 1.414597471267562, "status": "OPEN", "stands": 0, "lat": 43.61174111564092}}, {"geometry": {"coordinates": [1.429880706043356, 43.593506929037055], "type": "Point"}, "type": "Feature", "properties": {"bikes": 13, "update": "2016-02-08T21:07:45", "name": "00037 - STE LUCIE", "address": "53 RUE STE LUCIE", "lon": 1.429880706043356, "status": "OPEN", "stands": 5, "lat": 43.593506929037055}}, {"geometry": {"coordinates": [1.41398, 43.57375], "type": "Point"}, "type": "Feature", "properties": {"bikes": 4, "update": "2016-02-08T21:06:34", "name": "00266 - TOURAINE", "address": "38 RUE DE LA TOURAINE ANGLE RUE D AUVERGNE 31000 TOULOUSE", "lon": 1.41398, "status": "OPEN", "stands": 16, "lat": 43.57375}}, {"geometry": {"coordinates": [1.434138106708093, 43.60112880561738], "type": "Point"}, "type": "Feature", "properties": {"bikes": 5, "update": "2016-02-08T21:16:10", "name": "00079 - PLACE LANGE", "address": "1 PL LANGE", "lon": 1.434138106708093, "status": "OPEN", "stands": 14, "lat": 43.60112880561738}}, {"geometry": {"coordinates": [1.483021040946601, 43.586074956653995], "type": "Point"}, "type": "Feature", "properties": {"bikes": 5, "update": "2016-02-08T21:14:22", "name": "00210 - TERRASSE/ CENTRE CO.", "address": "FACE 42 CHE DE LA TERRASSE", "lon": 1.483021040946601, "status": "OPEN", "stands": 13, "lat": 43.586074956653995}}, {"geometry": {"coordinates": [1.436590757220506, 43.598542607102175], "type": "Point"}, "type": "Feature", "properties": {"bikes": 10, "update": "2016-02-08T21:07:49", "name": "00075 - CHATEAU D EAU", "address": "12 PL LAGANNE", "lon": 1.436590757220506, "status": "OPEN", "stands": 11, "lat": 43.598542607102175}}, {"geometry": {"coordinates": [1.406488768851485, 43.57641895477528], "type": "Point"}, "type": "Feature", "properties": {"bikes": 2, "update": "2016-02-08T21:08:38", "name": "00221 - VAUQUELIN", "address": "FACE 85 RUE VAUQUELIN", "lon": 1.406488768851485, "status": "OPEN", "stands": 18, "lat": 43.57641895477528}}, {"geometry": {"coordinates": [1.447411881616044, 43.58589564207925], "type": "Point"}, "type": "Feature", "properties": {"bikes": 23, "update": "2016-02-08T21:10:02", "name": "00128 - PRISON ST MICHEL", "address": "18 B GRANDE RUE ST MICHEL", "lon": 1.447411881616044, "status": "OPEN", "stands": 0, "lat": 43.58589564207925}}, {"geometry": {"coordinates": [1.450764528471522, 43.58817925392077], "type": "Point"}, "type": "Feature", "properties": {"bikes": 13, "update": "2016-02-08T21:14:21", "name": "00118 - PLACE DU BUSCA", "address": "2 PLACE DU BUSCA", "lon": 1.450764528471522, "status": "OPEN", "stands": 2, "lat": 43.58817925392077}}, {"geometry": {"coordinates": [1.44455, 43.59265], "type": "Point"}, "type": "Feature", "properties": {"bikes": 4, "update": "2016-02-08T21:11:20", "name": "00068 - METRO - PALAIS DE JUSTICE", "address": "1 BIS ALLEE JULES GUESDE", "lon": 1.44455, "status": "OPEN", "stands": 12, "lat": 43.59265}}, {"geometry": {"coordinates": [1.428966282419491, 43.61990748467363], "type": "Point"}, "type": "Feature", "properties": {"bikes": 15, "update": "2016-02-08T21:13:11", "name": "00147 - CHAUSSAS - DAUDET", "address": "96 RUE DE CHAUSSAS", "lon": 1.428966282419491, "status": "OPEN", "stands": 5, "lat": 43.61990748467363}}, {"geometry": {"coordinates": [1.447936286895422, 43.628469420497346], "type": "Point"}, "type": "Feature", "properties": {"bikes": 12, "update": "2016-02-08T21:15:35", "name": "00153 - BOURGES MAUNOURY", "address": "12 AV BOURGES MAUNOURY", "lon": 1.447936286895422, "status": "OPEN", "stands": 5, "lat": 43.628469420497346}}, {"geometry": {"coordinates": [1.45632, 43.64265], "type": "Point"}, "type": "Feature", "properties": {"bikes": 1, "update": "2016-02-08T21:11:05", "name": "00262 - ROND POINT CHEMIN DE BORDEROUGE", "address": "Devant N\u00b026 Chemin de Borderouge", "lon": 1.45632, "status": "OPEN", "stands": 17, "lat": 43.64265}}, {"geometry": {"coordinates": [1.458852500499583, 43.56641276350635], "type": "Point"}, "type": "Feature", "properties": {"bikes": 6, "update": "2016-02-08T21:06:37", "name": "00233 - NARBONNE /SAHUQUE", "address": "105 RTE DE NARBONNE", "lon": 1.458852500499583, "status": "OPEN", "stands": 14, "lat": 43.56641276350635}}, {"geometry": {"coordinates": [1.450245130369442, 43.60411143798555], "type": "Point"}, "type": "Feature", "properties": {"bikes": 8, "update": "2016-02-08T21:11:46", "name": "00021 - CARNOT LABEDA", "address": "63 BD LAZARE CARNOT", "lon": 1.450245130369442, "status": "OPEN", "stands": 17, "lat": 43.60411143798555}}, {"geometry": {"coordinates": [1.45336004007864, 43.609044644058145], "type": "Point"}, "type": "Feature", "properties": {"bikes": 3, "update": "2016-02-08T21:09:06", "name": "00062 - JAURES STALINGRAD", "address": "71 ALL JEAN JAURES", "lon": 1.45336004007864, "status": "OPEN", "stands": 19, "lat": 43.609044644058145}}, {"geometry": {"coordinates": [1.443751822397876, 43.635706776069696], "type": "Point"}, "type": "Feature", "properties": {"bikes": 18, "update": "2016-02-08T21:14:58", "name": "00244 - RENAN / VITRY", "address": "93 RUE ERNEST RENAN ANGLE RUE VITRY", "lon": 1.443751822397876, "status": "OPEN", "stands": 0, "lat": 43.635706776069696}}, {"geometry": {"coordinates": [1.41518438915584, 43.59990824072129], "type": "Point"}, "type": "Feature", "properties": {"bikes": 1, "update": "2016-02-08T21:11:38", "name": "00245 - GRANDE BRETAGNE / BADIOU", "address": "103 BIS AVENUE DE GRANDE BRETAGNE ANGLE RUE BADIOU", "lon": 1.41518438915584, "status": "OPEN", "stands": 0, "lat": 43.59990824072129}}, {"geometry": {"coordinates": [1.43379, 43.64495], "type": "Point"}, "type": "Feature", "properties": {"bikes": 13, "update": "2016-02-08T21:14:46", "name": "00260 - DUCLOS - FRONTON", "address": "Avenue duclos angle Avenue de Fronton", "lon": 1.43379, "status": "OPEN", "stands": 5, "lat": 43.64495}}, {"geometry": {"coordinates": [1.464456852027628, 43.567716505871594], "type": "Point"}, "type": "Feature", "properties": {"bikes": 0, "update": "2016-02-08T21:13:43", "name": "00228 - METRO PHARMACIE", "address": "FACE 35 CHEMIN DES MARAICHERS", "lon": 1.464456852027628, "status": "OPEN", "stands": 18, "lat": 43.567716505871594}}, {"geometry": {"coordinates": [1.43538536091475, 43.6333722270955], "type": "Point"}, "type": "Feature", "properties": {"bikes": 8, "update": "2016-02-08T21:10:32", "name": "00235 - PAUL VERLAINE", "address": "FACE AU 8 RUE PAUL VERLAINE", "lon": 1.43538536091475, "status": "OPEN", "stands": 11, "lat": 43.6333722270955}}, {"geometry": {"coordinates": [1.439870900566373, 43.62593095954932], "type": "Point"}, "type": "Feature", "properties": {"bikes": 11, "update": "2016-02-08T21:12:42", "name": "00150 - CURIE CAMPISTRON", "address": "78 BD PIERRE ET MARIE CURIE", "lon": 1.439870900566373, "status": "OPEN", "stands": 7, "lat": 43.62593095954932}}, {"geometry": {"coordinates": [1.39711, 43.61948], "type": "Point"}, "type": "Feature", "properties": {"bikes": 9, "update": "2016-02-08T21:14:57", "name": "00271 - ANCELY", "address": "151 AVENUE DE CASSELARDIT SORTIE VILLE 31000 TOULOUSE", "lon": 1.39711, "status": "OPEN", "stands": 11, "lat": 43.61948}}, {"geometry": {"coordinates": [1.443570238387108, 43.608568713084686], "type": "Point"}, "type": "Feature", "properties": {"bikes": 12, "update": "2016-02-08T21:11:47", "name": "00033 - BERALDI", "address": "11 RUE HENRI BERALDI", "lon": 1.443570238387108, "status": "OPEN", "stands": 3, "lat": 43.608568713084686}}, {"geometry": {"coordinates": [1.461191671613412, 43.642833569777416], "type": "Point"}, "type": "Feature", "properties": {"bikes": 12, "update": "2016-02-08T21:15:16", "name": "00172 - NETWILLER / LAFORGUE", "address": "RUE HENRI EBELOT", "lon": 1.461191671613412, "status": "OPEN", "stands": 7, "lat": 43.642833569777416}}, {"geometry": {"coordinates": [1.420545407442975, 43.61035351524297], "type": "Point"}, "type": "Feature", "properties": {"bikes": 18, "update": "2016-02-08T21:13:38", "name": "00120 - PONTS JUMEAUX", "address": "152 ALL DE BARCELONE", "lon": 1.420545407442975, "status": "OPEN", "stands": 0, "lat": 43.61035351524297}}, {"geometry": {"coordinates": [1.466442513411802, 43.629671600633195], "type": "Point"}, "type": "Feature", "properties": {"bikes": 12, "update": "2016-02-08T21:15:13", "name": "00217 - AMOUROUX/ ST TROPEZ", "address": "42 CHE AMOUROUX", "lon": 1.466442513411802, "status": "OPEN", "stands": 6, "lat": 43.629671600633195}}, {"geometry": {"coordinates": [1.450535969934731, 43.6331828272491], "type": "Point"}, "type": "Feature", "properties": {"bikes": 10, "update": "2016-02-08T21:11:23", "name": "00173 - MAUNOURY / SEGELA", "address": "25 AV MAURICE BOURGES MAUNOURY", "lon": 1.450535969934731, "status": "OPEN", "stands": 8, "lat": 43.6331828272491}}, {"geometry": {"coordinates": [1.413431676051568, 43.5813322052426], "type": "Point"}, "type": "Feature", "properties": {"bikes": 17, "update": "2016-02-08T21:07:54", "name": "00143 - DESBALS SAINTONGE", "address": "145 RUE HENRI DESBALS", "lon": 1.413431676051568, "status": "OPEN", "stands": 3, "lat": 43.5813322052426}}, {"geometry": {"coordinates": [1.42386687477895, 43.60842211156853], "type": "Point"}, "type": "Feature", "properties": {"bikes": 21, "update": "2016-02-08T21:15:39", "name": "00106 - BRIENNE PASSERELLE", "address": "99 ALL DE BRIENNE", "lon": 1.42386687477895, "status": "OPEN", "stands": 0, "lat": 43.60842211156853}}, {"geometry": {"coordinates": [1.43288072066524, 43.61492465117555], "type": "Point"}, "type": "Feature", "properties": {"bikes": 7, "update": "2016-02-08T21:08:06", "name": "00123 - CHAUSSAS EMBOUCHURE", "address": "1 RUE DE CHAUSSAS", "lon": 1.43288072066524, "status": "OPEN", "stands": 16, "lat": 43.61492465117555}}, {"geometry": {"coordinates": [1.442101445768934, 43.605203861405954], "type": "Point"}, "type": "Feature", "properties": {"bikes": 0, "update": "2016-02-08T21:10:36", "name": "00006 - LOIS", "address": "5 RUE DES LOIS", "lon": 1.442101445768934, "status": "OPEN", "stands": 19, "lat": 43.605203861405954}}, {"geometry": {"coordinates": [1.48346, 43.60086], "type": "Point"}, "type": "Feature", "properties": {"bikes": 5, "update": "2016-02-08T21:07:54", "name": "00257 - CHATEAU DE L'HERS", "address": "CHEMIN DU CHATEAU DE L'HERS ANGLE CHEMIN FONTANELLES 31000 TOULOUSE", "lon": 1.48346, "status": "OPEN", "stands": 11, "lat": 43.60086}}, {"geometry": {"coordinates": [1.451476646620887, 43.61243588156053], "type": "Point"}, "type": "Feature", "properties": {"bikes": 18, "update": "2016-02-08T21:15:21", "name": "00097 - RAYMOND IV", "address": "RUE RAYMOND IV", "lon": 1.451476646620887, "status": "OPEN", "stands": 3, "lat": 43.61243588156053}}, {"geometry": {"coordinates": [1.415183785619737, 43.58998499389323], "type": "Point"}, "type": "Feature", "properties": {"bikes": 10, "update": "2016-02-08T21:15:26", "name": "00191 - RUE DU 14 JUILLET", "address": "395 ROUTE DE SAINT SIMON", "lon": 1.415183785619737, "status": "OPEN", "stands": 8, "lat": 43.58998499389323}}, {"geometry": {"coordinates": [1.449072022617868, 43.60557592007205], "type": "Point"}, "type": "Feature", "properties": {"bikes": 10, "update": "2016-02-08T21:16:17", "name": "00019 - CARNOT PERI", "address": "62 BD LAZARE CARNOT", "lon": 1.449072022617868, "status": "OPEN", "stands": 15, "lat": 43.60557592007205}}, {"geometry": {"coordinates": [1.465376125032407, 43.615227374108336], "type": "Point"}, "type": "Feature", "properties": {"bikes": 0, "update": "2016-02-08T21:11:19", "name": "00212 - CHAUMIERE/ CRETES", "address": "RUE DE LA CHAUMIERE", "lon": 1.465376125032407, "status": "OPEN", "stands": 17, "lat": 43.615227374108336}}, {"geometry": {"coordinates": [1.473505161008297, 43.61680265241856], "type": "Point"}, "type": "Feature", "properties": {"bikes": 14, "update": "2016-02-08T21:14:58", "name": "00179 - CASSAING PLANA", "address": "5 CH CASSAING", "lon": 1.473505161008297, "status": "OPEN", "stands": 3, "lat": 43.61680265241856}}, {"geometry": {"coordinates": [1.463164045792265, 43.58677914294868], "type": "Point"}, "type": "Feature", "properties": {"bikes": 9, "update": "2016-02-08T21:13:53", "name": "00204 - PL. ROGER ARNAUD", "address": "PL ROGER ARNAUD", "lon": 1.463164045792265, "status": "OPEN", "stands": 9, "lat": 43.58677914294868}}, {"geometry": {"coordinates": [1.456658754907086, 43.61894094381528], "type": "Point"}, "type": "Feature", "properties": {"bikes": 6, "update": "2016-02-08T21:15:02", "name": "00134 - EGLISE BONNEFOY", "address": "8 ALLEE DE L EGLISE BONNEFOY", "lon": 1.456658754907086, "status": "OPEN", "stands": 13, "lat": 43.61894094381528}}, {"geometry": {"coordinates": [1.452936514925397, 43.585266840172814], "type": "Point"}, "type": "Feature", "properties": {"bikes": 20, "update": "2016-02-08T21:09:56", "name": "00112 - PLACE RUSSEL - BRANLY", "address": "47 ALLEE BRANLY", "lon": 1.452936514925397, "status": "OPEN", "stands": 0, "lat": 43.585266840172814}}, {"geometry": {"coordinates": [1.424432564672875, 43.574576545136445], "type": "Point"}, "type": "Feature", "properties": {"bikes": 15, "update": "2016-02-08T16:37:02", "name": "00241 - ESPAGNE CHARPENTIER", "address": "57 Route D'Espagne", "lon": 1.424432564672875, "status": "OPEN", "stands": 4, "lat": 43.574576545136445}}, {"geometry": {"coordinates": [1.42463077628583, 43.5931301810241], "type": "Point"}, "type": "Feature", "properties": {"bikes": 7, "update": "2016-02-08T21:16:00", "name": "00183 - RUE DE CUGNAUX", "address": "RUE DE CUGNAUX", "lon": 1.42463077628583, "status": "OPEN", "stands": 11, "lat": 43.5931301810241}}, {"geometry": {"coordinates": [1.454339701099757, 43.61689063107848], "type": "Point"}, "type": "Feature", "properties": {"bikes": 19, "update": "2016-02-08T21:13:54", "name": "00126 - ECOLE BONNEFOY", "address": "18 RUE BONNEFOY", "lon": 1.454339701099757, "status": "OPEN", "stands": 3, "lat": 43.61689063107848}}, {"geometry": {"coordinates": [1.44009, 43.57705], "type": "Point"}, "type": "Feature", "properties": {"bikes": 10, "update": "2016-02-08T21:14:09", "name": "00255 - HENRI SELLIER", "address": "2 RUE DES MOUETTES ANGLE ALLEES SELLIER 31000 TOULOUSE", "lon": 1.44009, "status": "OPEN", "stands": 6, "lat": 43.57705}}, {"geometry": {"coordinates": [1.450179100392055, 43.600398667412286], "type": "Point"}, "type": "Feature", "properties": {"bikes": 9, "update": "2016-02-08T21:06:51", "name": "00024 - PLACE SAINT ETIENNE", "address": "14 PL SAINT ETIENNE", "lon": 1.450179100392055, "status": "OPEN", "stands": 13, "lat": 43.600398667412286}}, {"geometry": {"coordinates": [1.458048662941769, 43.6017932127447], "type": "Point"}, "type": "Feature", "properties": {"bikes": 4, "update": "2016-02-08T21:15:45", "name": "00196 - GOUJON - GUILHEMERY", "address": "6 RUE JEAN GOUJON", "lon": 1.458048662941769, "status": "OPEN", "stands": 16, "lat": 43.6017932127447}}, {"geometry": {"coordinates": [1.44649, 43.57886], "type": "Point"}, "type": "Feature", "properties": {"bikes": 4, "update": "2016-02-08T21:11:31", "name": "281 - NIEL", "address": "RUE ST ROCH FACE RUE ELVIRE 31000 TOULOUSE", "lon": 1.44649, "status": "OPEN", "stands": 14, "lat": 43.57886}}, {"geometry": {"coordinates": [1.436875386155235, 43.61814891164924], "type": "Point"}, "type": "Feature", "properties": {"bikes": 13, "update": "2016-02-08T21:11:47", "name": "00124 - EGLISE DES MINIMES", "address": "27 AV DES MINIMES", "lon": 1.436875386155235, "status": "OPEN", "stands": 4, "lat": 43.61814891164924}}, {"geometry": {"coordinates": [1.481508972569192, 43.58300698375498], "type": "Point"}, "type": "Feature", "properties": {"bikes": 3, "update": "2016-02-08T21:10:53", "name": "00207 - CHRIST ROI", "address": "FACE 25 RUE DE L AUDE", "lon": 1.481508972569192, "status": "OPEN", "stands": 14, "lat": 43.58300698375498}}, {"geometry": {"coordinates": [1.44026, 43.60215], "type": "Point"}, "type": "Feature", "properties": {"bikes": 0, "update": "2016-02-08T21:10:39", "name": "00011 - PLACE DE LA DAURADE", "address": "2 PL DE LA DAURADE", "lon": 1.44026, "status": "OPEN", "stands": 23, "lat": 43.60215}}, {"geometry": {"coordinates": [1.41112908179427, 43.5792182218804], "type": "Point"}, "type": "Feature", "properties": {"bikes": 8, "update": "2016-02-08T21:08:21", "name": "00186 - DESBALS BOUALAM", "address": "1 IMPASSE BACHAGA BOUALAM", "lon": 1.41112908179427, "status": "OPEN", "stands": 10, "lat": 43.5792182218804}}, {"geometry": {"coordinates": [1.44404, 43.62687], "type": "Point"}, "type": "Feature", "properties": {"bikes": 11, "update": "2016-02-08T21:09:49", "name": "00252 - NEGRENEYS /CASENEUVE", "address": "161/163 AV DE NEGRENEYS SUR ILOT CENTRAL", "lon": 1.44404, "status": "OPEN", "stands": 5, "lat": 43.62687}}, {"geometry": {"coordinates": [1.469362217455508, 43.62727712277727], "type": "Point"}, "type": "Feature", "properties": {"bikes": 20, "update": "2016-02-08T21:07:45", "name": "00184 - MICHOUN", "address": "70 CHEMIN MICHOUN", "lon": 1.469362217455508, "status": "OPEN", "stands": 0, "lat": 43.62727712277727}}, {"geometry": {"coordinates": [1.454915112024358, 43.57644751100008], "type": "Point"}, "type": "Feature", "properties": {"bikes": 6, "update": "2016-02-08T21:16:10", "name": "00161 - RANGUEIL - BEDOUCE", "address": "35 AV DE RANGUEIL", "lon": 1.454915112024358, "status": "OPEN", "stands": 8, "lat": 43.57644751100008}}, {"geometry": {"coordinates": [1.3972, 43.60868], "type": "Point"}, "type": "Feature", "properties": {"bikes": 0, "update": "2016-02-08T21:06:20", "name": "00268 - PLACE BAYLAC", "address": "avenue des Ar\u00e8nes Romaines, avant place du docteur Baylac 31000 TOULOUSE", "lon": 1.3972, "status": "OPEN", "stands": 22, "lat": 43.60868}}, {"geometry": {"coordinates": [1.427969819484834, 43.605562378447424], "type": "Point"}, "type": "Feature", "properties": {"bikes": 6, "update": "2016-02-08T21:09:38", "name": "00082 - SEJOURNE CATALANS", "address": "1 AV PAUL SEJOURNE", "lon": 1.427969819484834, "status": "OPEN", "stands": 15, "lat": 43.605562378447424}}, {"geometry": {"coordinates": [1.43421, 43.59253], "type": "Point"}, "type": "Feature", "properties": {"bikes": 11, "update": "2016-02-08T21:08:29", "name": "00070 - FER A CHEVAL", "address": "5 PLACE DU FER A CHEVAL", "lon": 1.43421, "status": "OPEN", "stands": 7, "lat": 43.59253}}, {"geometry": {"coordinates": [1.418128481713567, 43.587583195522946], "type": "Point"}, "type": "Feature", "properties": {"bikes": 11, "update": "2016-02-08T21:07:39", "name": "00141 - FONTAINE LESTANG", "address": "237 RUE HENRI DESBALS", "lon": 1.418128481713567, "status": "OPEN", "stands": 7, "lat": 43.587583195522946}}, {"geometry": {"coordinates": [1.428790629053277, 43.612283701347906], "type": "Point"}, "type": "Feature", "properties": {"bikes": 3, "update": "2016-02-08T21:08:04", "name": "00108 - SEBASTOPOL - RITAY", "address": "2 BD SEBASTOPOL", "lon": 1.428790629053277, "status": "OPEN", "stands": 16, "lat": 43.612283701347906}}, {"geometry": {"coordinates": [1.430598716260075, 43.606708008560005], "type": "Point"}, "type": "Feature", "properties": {"bikes": 13, "update": "2016-02-08T21:12:01", "name": "00085 - MARECHAL LECLERC", "address": "2 BD DU MARECHAL LECLERC", "lon": 1.430598716260075, "status": "OPEN", "stands": 9, "lat": 43.606708008560005}}, {"geometry": {"coordinates": [1.476002176599847, 43.58166894906154], "type": "Point"}, "type": "Feature", "properties": {"bikes": 2, "update": "2016-02-08T21:08:57", "name": "00202 - ST EX. - COURREGE", "address": "165 AV ANTOINE DE ST EXUPERY", "lon": 1.476002176599847, "status": "OPEN", "stands": 15, "lat": 43.58166894906154}}, {"geometry": {"coordinates": [1.453042492588597, 43.593599912488976], "type": "Point"}, "type": "Feature", "properties": {"bikes": 14, "update": "2016-02-08T21:11:44", "name": "00102 -  MISTRAL - FLEURANCE", "address": "18 ALLEE FREDERIC MISTRAL", "lon": 1.453042492588597, "status": "OPEN", "stands": 5, "lat": 43.593599912488976}}, {"geometry": {"coordinates": [1.438224999266949, 43.60629527233212], "type": "Point"}, "type": "Feature", "properties": {"bikes": 1, "update": "2016-02-08T21:07:42", "name": "00030 - PLACE ANATOLE FRANCE", "address": "40 PL ANATOLE FRANCE", "lon": 1.438224999266949, "status": "OPEN", "stands": 22, "lat": 43.60629527233212}}, {"geometry": {"coordinates": [1.464148138450798, 43.635666512128225], "type": "Point"}, "type": "Feature", "properties": {"bikes": 16, "update": "2016-02-08T21:10:48", "name": "00170 - ROUTE D ALBI   / CUVIER", "address": "FACE 163 CHEMIN NICOLE", "lon": 1.464148138450798, "status": "OPEN", "stands": 1, "lat": 43.635666512128225}}, {"geometry": {"coordinates": [1.41954, 43.574], "type": "Point"}, "type": "Feature", "properties": {"bikes": 15, "update": "2016-02-08T21:15:55", "name": "00274 - GALLIENI", "address": "296 route de Seysses", "lon": 1.41954, "status": "OPEN", "stands": 3, "lat": 43.574}}, {"geometry": {"coordinates": [1.467514131065815, 43.60075517705335], "type": "Point"}, "type": "Feature", "properties": {"bikes": 2, "update": "2016-02-08T21:08:16", "name": "00213 - PUJOL/ CHAUBET", "address": "129 AV DE CASTRES", "lon": 1.467514131065815, "status": "OPEN", "stands": 15, "lat": 43.60075517705335}}, {"geometry": {"coordinates": [1.441434965295236, 43.599589544431005], "type": "Point"}, "type": "Feature", "properties": {"bikes": 0, "update": "2016-02-08T21:07:13", "name": "00049 - COUTELIER - METZ", "address": "52 RUE DES COUTELIERS", "lon": 1.441434965295236, "status": "OPEN", "stands": 16, "lat": 43.599589544431005}}, {"geometry": {"coordinates": [1.434650096062823, 43.60864745421513], "type": "Point"}, "type": "Feature", "properties": {"bikes": 7, "update": "2016-02-08T21:12:53", "name": "00052 - DUPORTAL CITE ADMIN.", "address": "41 BD ARMAND DUPORTAL", "lon": 1.434650096062823, "status": "OPEN", "stands": 14, "lat": 43.60864745421513}}, {"geometry": {"coordinates": [1.43104, 43.58903], "type": "Point"}, "type": "Feature", "properties": {"bikes": 9, "update": "2016-02-08T21:14:07", "name": "00104 - MURET BARTHERE", "address": "219 AV DE MURET", "lon": 1.43104, "status": "OPEN", "stands": 7, "lat": 43.58903}}, {"geometry": {"coordinates": [1.441331077590377, 43.60621318190248], "type": "Point"}, "type": "Feature", "properties": {"bikes": 3, "update": "2016-02-08T21:06:56", "name": "00013 - LOIS ESQUILE", "address": "1 RUE DE L ESQUILE", "lon": 1.441331077590377, "status": "OPEN", "stands": 12, "lat": 43.60621318190248}}, {"geometry": {"coordinates": [1.4278, 43.58588], "type": "Point"}, "type": "Feature", "properties": {"bikes": 7, "update": "2016-02-08T21:15:34", "name": "00129 - CROIX DE PIERRE", "address": "2 BD DEODAT DE SEVERAC", "lon": 1.4278, "status": "OPEN", "stands": 9, "lat": 43.58588}}, {"geometry": {"coordinates": [1.449135738584587, 43.580795461338795], "type": "Point"}, "type": "Feature", "properties": {"bikes": 18, "update": "2016-02-08T21:11:47", "name": "00158 - URSS ST THOMAS D AQUIN", "address": "57 AV DE L URSS", "lon": 1.449135738584587, "status": "OPEN", "stands": 2, "lat": 43.580795461338795}}, {"geometry": {"coordinates": [1.458930207887618, 43.626509813353074], "type": "Point"}, "type": "Feature", "properties": {"bikes": 3, "update": "2016-02-08T21:14:26", "name": "00168 - BILA   /  ROUTE D ALBI", "address": "RUE CREMON", "lon": 1.458930207887618, "status": "OPEN", "stands": 17, "lat": 43.626509813353074}}, {"geometry": {"coordinates": [1.46521198710394, 43.63812899582609], "type": "Point"}, "type": "Feature", "properties": {"bikes": 13, "update": "2016-02-08T21:11:18", "name": "00249 - CROIX DAURADE", "address": "147 RTE D'ALBI", "lon": 1.46521198710394, "status": "OPEN", "stands": 6, "lat": 43.63812899582609}}, {"geometry": {"coordinates": [1.4565, 43.59642], "type": "Point"}, "type": "Feature", "properties": {"bikes": 8, "update": "2016-02-08T21:09:01", "name": "00015 - PONT MONTAUDRAN", "address": "face au 20 port st sauveur", "lon": 1.4565, "status": "OPEN", "stands": 12, "lat": 43.59642}}, {"geometry": {"coordinates": [1.439230135508607, 43.63677495879212], "type": "Point"}, "type": "Feature", "properties": {"bikes": 12, "update": "2016-02-08T21:13:41", "name": "00247 - LAUNAGUET / AUDIBERT", "address": "ROUTE DE LAUNAGUET ANGLE CHEMIN AUDIBERT", "lon": 1.439230135508607, "status": "OPEN", "stands": 5, "lat": 43.63677495879212}}, {"geometry": {"coordinates": [1.435181557097925, 43.59849490883457], "type": "Point"}, "type": "Feature", "properties": {"bikes": 19, "update": "2016-02-08T21:13:01", "name": "00076 - REPUBLIQUE PL. OLIVIER", "address": "34 RUE DE LA REPUBLIQUE", "lon": 1.435181557097925, "status": "OPEN", "stands": 3, "lat": 43.59849490883457}}, {"geometry": {"coordinates": [1.415377349047291, 43.594849382545554], "type": "Point"}, "type": "Feature", "properties": {"bikes": 14, "update": "2016-02-08T21:08:54", "name": "00193 - LOMBEZ / PETITE VITESSE", "address": "59 AV DE LOMBEZ", "lon": 1.415377349047291, "status": "OPEN", "stands": 6, "lat": 43.594849382545554}}, {"geometry": {"coordinates": [1.423916022506519, 43.57827536338912], "type": "Point"}, "type": "Feature", "properties": {"bikes": 19, "update": "2016-02-08T21:07:54", "name": "00190 - ESPAGNE LES OUSTALOUS", "address": "39 RTE D'Espagne", "lon": 1.423916022506519, "status": "OPEN", "stands": 1, "lat": 43.57827536338912}}, {"geometry": {"coordinates": [1.43168347755474, 43.6319121122554], "type": "Point"}, "type": "Feature", "properties": {"bikes": 16, "update": "2016-02-08T21:08:47", "name": "00253 - ETATS-UNIS / ROBERT", "address": "AV DES Etats-Unis FACE AU 68 / 70", "lon": 1.43168347755474, "status": "OPEN", "stands": 4, "lat": 43.6319121122554}}, {"geometry": {"coordinates": [1.47765639323401, 43.6122515815792], "type": "Point"}, "type": "Feature", "properties": {"bikes": 4, "update": "2016-02-08T21:10:10", "name": "00180 - PLACE SOUPETARD", "address": "3 Place SOUPETARD", "lon": 1.47765639323401, "status": "OPEN", "stands": 14, "lat": 43.6122515815792}}, {"geometry": {"coordinates": [1.460094426022393, 43.579725432743686], "type": "Point"}, "type": "Feature", "properties": {"bikes": 7, "update": "2016-02-08T21:13:50", "name": "00164 - BEDOUCE SAOUZELONG", "address": "AV ALBERT BEDOUCE", "lon": 1.460094426022393, "status": "OPEN", "stands": 13, "lat": 43.579725432743686}}, {"geometry": {"coordinates": [1.434843235786321, 43.605035688745794], "type": "Point"}, "type": "Feature", "properties": {"bikes": 17, "update": "2016-02-08T21:11:47", "name": "00051 - DUPORTAL BRIENNE", "address": "1 BD ARMAND DUPORTAL", "lon": 1.434843235786321, "status": "OPEN", "stands": 1, "lat": 43.605035688745794}}, {"geometry": {"coordinates": [1.4469, 43.60964], "type": "Point"}, "type": "Feature", "properties": {"bikes": 2, "update": "2016-02-08T21:15:09", "name": "00035 - PLACE JEANNE D'ARC", "address": "1 RUE RAYMOND IV", "lon": 1.4469, "status": "OPEN", "stands": 23, "lat": 43.60964}}, {"geometry": {"coordinates": [1.45174992410964, 43.59800264157314], "type": "Point"}, "type": "Feature", "properties": {"bikes": 4, "update": "2016-02-08T21:07:06", "name": "00044 - PALAIS NIEL", "address": "1 ALL FORAIN FRANCOIS VERDIER", "lon": 1.45174992410964, "status": "OPEN", "stands": 18, "lat": 43.59800264157314}}, {"geometry": {"coordinates": [1.466308391813157, 43.640897350426606], "type": "Point"}, "type": "Feature", "properties": {"bikes": 14, "update": "2016-02-08T21:15:10", "name": "00171 - ROUTE D ALBI / CACTUS", "address": "191 RTE D'ALBI", "lon": 1.466308391813157, "status": "OPEN", "stands": 4, "lat": 43.640897350426606}}, {"geometry": {"coordinates": [1.45491780578712, 43.580276538637605], "type": "Point"}, "type": "Feature", "properties": {"bikes": 17, "update": "2016-02-08T21:12:02", "name": "00162 - PLACE D'ITALIE", "address": "AV D' ITALIE", "lon": 1.45491780578712, "status": "OPEN", "stands": 0, "lat": 43.580276538637605}}, {"geometry": {"coordinates": [1.43922052825561, 43.60749002329994], "type": "Point"}, "type": "Feature", "properties": {"bikes": 4, "update": "2016-02-08T21:12:58", "name": "00031 - SALENQUES", "address": "7 RUE DES SALENQUES", "lon": 1.43922052825561, "status": "OPEN", "stands": 16, "lat": 43.60749002329994}}, {"geometry": {"coordinates": [1.41997369298729, 43.598196214598815], "type": "Point"}, "type": "Feature", "properties": {"bikes": 19, "update": "2016-02-08T21:11:33", "name": "00138 - BARRIERE DE BAYONNE", "address": "3 BD JEAN BRUNHES", "lon": 1.41997369298729, "status": "OPEN", "stands": 0, "lat": 43.598196214598815}}, {"geometry": {"coordinates": [1.459836309553229, 43.587677990128874], "type": "Point"}, "type": "Feature", "properties": {"bikes": 17, "update": "2016-02-08T21:15:59", "name": "00098 - PONT DES DEMOISELLES", "address": "80 ALL DES DEMOISELLES", "lon": 1.459836309553229, "status": "OPEN", "stands": 5, "lat": 43.587677990128874}}, {"geometry": {"coordinates": [1.446610770547085, 43.60793763027584], "type": "Point"}, "type": "Feature", "properties": {"bikes": 6, "update": "2016-02-08T21:09:30", "name": "00016 - STRASBOURG BAYARD", "address": "32 BD DE STRASBOURG", "lon": 1.446610770547085, "status": "OPEN", "stands": 15, "lat": 43.60793763027584}}, {"geometry": {"coordinates": [1.473457600659471, 43.59622771557735], "type": "Point"}, "type": "Feature", "properties": {"bikes": 0, "update": "2016-02-08T21:16:12", "name": "00198 - LAFILAIRE - DELTOUR", "address": "FACE 25 CHEMIN LAFILAIRE", "lon": 1.473457600659471, "status": "OPEN", "stands": 20, "lat": 43.59622771557735}}, {"geometry": {"coordinates": [1.442808436675486, 43.609029818757634], "type": "Point"}, "type": "Feature", "properties": {"bikes": 8, "update": "2016-02-08T21:12:01", "name": "00056 - SAINT SERNIN  MERLY", "address": "1 RUE MERLY", "lon": 1.442808436675486, "status": "OPEN", "stands": 7, "lat": 43.609029818757634}}, {"geometry": {"coordinates": [1.428493330933498, 43.61541821044434], "type": "Point"}, "type": "Feature", "properties": {"bikes": 9, "update": "2016-02-08T21:07:38", "name": "00146 - SANG DE SERP - DAGNAUX", "address": "57 CH DU SANG DE SERP", "lon": 1.428493330933498, "status": "OPEN", "stands": 11, "lat": 43.61541821044434}}, {"geometry": {"coordinates": [1.37764, 43.58996], "type": "Point"}, "type": "Feature", "properties": {"bikes": 18, "update": "2016-02-08T21:15:07", "name": "00269 - PLACE SAUVEGRAIN", "address": "Place Sauvegrain - angle avenue de Lardenne", "lon": 1.37764, "status": "OPEN", "stands": 0, "lat": 43.58996}}, {"geometry": {"coordinates": [1.425222752953333, 43.602528105503815], "type": "Point"}, "type": "Feature", "properties": {"bikes": 12, "update": "2016-02-08T21:15:24", "name": "00095 - THEATRE GARONNE", "address": "4 AVENUE DU CH\u00c2TEAU D'EAU", "lon": 1.425222752953333, "status": "OPEN", "stands": 10, "lat": 43.602528105503815}}, {"geometry": {"coordinates": [1.441220679302088, 43.61325027179293], "type": "Point"}, "type": "Feature", "properties": {"bikes": 9, "update": "2016-02-08T21:11:40", "name": "00092 - CHALETS", "address": "31 RUE DES CHALETS", "lon": 1.441220679302088, "status": "OPEN", "stands": 6, "lat": 43.61325027179293}}, {"geometry": {"coordinates": [1.451651418090918, 43.60754756868432], "type": "Point"}, "type": "Feature", "properties": {"bikes": 7, "update": "2016-02-08T21:11:07", "name": "00038 - JAURES BACHELIER", "address": "56 ALL JEAN JAURES", "lon": 1.451651418090918, "status": "OPEN", "stands": 11, "lat": 43.60754756868432}}, {"geometry": {"coordinates": [1.41868, 43.59175], "type": "Point"}, "type": "Feature", "properties": {"bikes": 2, "update": "2016-02-08T21:14:15", "name": "00140 - EMILE MALE", "address": "PLACE EMILE MALE", "lon": 1.41868, "status": "OPEN", "stands": 26, "lat": 43.59175}}, {"geometry": {"coordinates": [1.458008846441328, 43.606790468455905], "type": "Point"}, "type": "Feature", "properties": {"bikes": 9, "update": "2016-02-08T21:07:37", "name": "00176 - GENERAL COMPANS", "address": "1 RUE DU GENERAL COMPANS", "lon": 1.458008846441328, "status": "OPEN", "stands": 9, "lat": 43.606790468455905}}, {"geometry": {"coordinates": [1.479772209704475, 43.56361464501064], "type": "Point"}, "type": "Feature", "properties": {"bikes": 0, "update": "2016-02-08T21:07:04", "name": "00237 - CNRS", "address": "AVENUE EDOUARD BELIN FACE CNRS", "lon": 1.479772209704475, "status": "OPEN", "stands": 20, "lat": 43.56361464501064}}, {"geometry": {"coordinates": [1.464668419108617, 43.594341505924845], "type": "Point"}, "type": "Feature", "properties": {"bikes": 1, "update": "2016-02-08T21:12:57", "name": "00206 - LEYGUE/ RIEUX", "address": "20 AV ARMAND LEYGUE", "lon": 1.464668419108617, "status": "OPEN", "stands": 17, "lat": 43.594341505924845}}, {"geometry": {"coordinates": [1.435070094381549, 43.610250914040755], "type": "Point"}, "type": "Feature", "properties": {"bikes": 2, "update": "2016-02-08T21:11:37", "name": "00088 - DUPORTAL LASCROSSES", "address": "17T BD LASCROSSES", "lon": 1.435070094381549, "status": "OPEN", "stands": 23, "lat": 43.610250914040755}}, {"geometry": {"coordinates": [1.436628759028233, 43.611036915218165], "type": "Point"}, "type": "Feature", "properties": {"bikes": 18, "update": "2016-02-08T21:07:01", "name": "00089 - ESP COMPANS CAFFARELLI", "address": "1 ESP COMPANS CAFFARELLI", "lon": 1.436628759028233, "status": "OPEN", "stands": 5, "lat": 43.611036915218165}}, {"geometry": {"coordinates": [1.455674042776099, 43.59697406705044], "type": "Point"}, "type": "Feature", "properties": {"bikes": 18, "update": "2016-02-08T21:15:32", "name": "00100 - PORT ST SAUVEUR", "address": "16 ALL PAUL SABATIER", "lon": 1.455674042776099, "status": "OPEN", "stands": 2, "lat": 43.59697406705044}}, {"geometry": {"coordinates": [1.475849028782433, 43.623814424096544], "type": "Point"}, "type": "Feature", "properties": {"bikes": 14, "update": "2016-02-08T21:10:47", "name": "00215 - METRO ARGOULETS", "address": "FACE 8 RUE DE GAILLAC", "lon": 1.475849028782433, "status": "OPEN", "stands": 6, "lat": 43.623814424096544}}, {"geometry": {"coordinates": [1.439762556768512, 43.60842033750804], "type": "Point"}, "type": "Feature", "properties": {"bikes": 17, "update": "2016-02-08T21:14:45", "name": "00054 - CHAINE", "address": "10 RUE DE LA CHAINE", "lon": 1.439762556768512, "status": "OPEN", "stands": 0, "lat": 43.60842033750804}}, {"geometry": {"coordinates": [1.448047137954633, 43.60307769477977], "type": "Point"}, "type": "Feature", "properties": {"bikes": 0, "update": "2016-02-08T21:15:17", "name": "00008 - ESPACE SAINT GEORGES", "address": "19 RUE PAUL VIDAL", "lon": 1.448047137954633, "status": "OPEN", "stands": 24, "lat": 43.60307769477977}}, {"geometry": {"coordinates": [1.37708, 43.58549], "type": "Point"}, "type": "Feature", "properties": {"bikes": 14, "update": "2016-02-08T21:10:27", "name": "00277 - ZAMENHOF", "address": "10/12 rue zamenhof - 31000 TOuLOUSE", "lon": 1.37708, "status": "OPEN", "stands": 3, "lat": 43.58549}}, {"geometry": {"coordinates": [1.473660631896838, 43.600795440313355], "type": "Point"}, "type": "Feature", "properties": {"bikes": 1, "update": "2016-02-08T21:06:50", "name": "00214 - CASTRES/ ACHIARY", "address": "48 AV DE CASTRES", "lon": 1.473660631896838, "status": "OPEN", "stands": 16, "lat": 43.600795440313355}}, {"geometry": {"coordinates": [1.458007861390548, 43.59239101222708], "type": "Point"}, "type": "Feature", "properties": {"bikes": 6, "update": "2016-02-08T21:15:57", "name": "00114 - BD MONTPLAISIR - CANAL", "address": "8 BD MONPLAISIR", "lon": 1.458007861390548, "status": "OPEN", "stands": 14, "lat": 43.59239101222708}}, {"geometry": {"coordinates": [1.445285876671779, 43.60485265221502], "type": "Point"}, "type": "Feature", "properties": {"bikes": 1, "update": "2016-02-08T21:14:28", "name": "00002 - LAFAYETTE", "address": "21 RUE LAFAYETTE", "lon": 1.445285876671779, "status": "OPEN", "stands": 20, "lat": 43.60485265221502}}, {"geometry": {"coordinates": [1.470276283956405, 43.591528310013615], "type": "Point"}, "type": "Feature", "properties": {"bikes": 2, "update": "2016-02-08T21:12:17", "name": "00199 - DELTOUR - RIEUX", "address": "4 BD DELTOUR", "lon": 1.470276283956405, "status": "OPEN", "stands": 20, "lat": 43.591528310013615}}, {"geometry": {"coordinates": [1.478340741030179, 43.565104300575406], "type": "Point"}, "type": "Feature", "properties": {"bikes": 15, "update": "2016-02-08T14:46:07", "name": "00223 - ENAC", "address": "AVENUE EDOUARD BELIN ANGLE AV ROCHE", "lon": 1.478340741030179, "status": "OPEN", "stands": 7, "lat": 43.565104300575406}}, {"geometry": {"coordinates": [1.44544233356215, 43.6003776908545], "type": "Point"}, "type": "Feature", "properties": {"bikes": 0, "update": "2016-02-08T21:15:06", "name": "00010 - PLACE ESQUIROL", "address": "15 PL ETIENNE ESQUIROL", "lon": 1.44544233356215, "status": "OPEN", "stands": 33, "lat": 43.6003776908545}}, {"geometry": {"coordinates": [1.414428635946386, 43.593097534292575], "type": "Point"}, "type": "Feature", "properties": {"bikes": 12, "update": "2016-02-08T21:14:18", "name": "00250 - 11 NOVEMBRE", "address": "RUE DU 11 NOVEMBRE", "lon": 1.414428635946386, "status": "OPEN", "stands": 6, "lat": 43.593097534292575}}, {"geometry": {"coordinates": [1.447014394243565, 43.596327873693475], "type": "Point"}, "type": "Feature", "properties": {"bikes": 4, "update": "2016-02-08T21:14:47", "name": "00045 - OZENNE", "address": "10 RUE THEODORE OZENNE", "lon": 1.447014394243565, "status": "OPEN", "stands": 12, "lat": 43.596327873693475}}, {"geometry": {"coordinates": [1.428253851896989, 43.6055917312578], "type": "Point"}, "type": "Feature", "properties": {"bikes": 12, "update": "2016-02-08T21:15:24", "name": "00083 - SEJOURNE AMIDONNIERS", "address": "2 AV PAUL SEJOURNE", "lon": 1.428253851896989, "status": "OPEN", "stands": 5, "lat": 43.6055917312578}}, {"geometry": {"coordinates": [1.445531445171338, 43.59546175758775], "type": "Point"}, "type": "Feature", "properties": {"bikes": 2, "update": "2016-02-08T21:10:57", "name": "00047 - NAZARETH LANGUEDOC", "address": "12 RUE DU LANGUEDOC", "lon": 1.445531445171338, "status": "OPEN", "stands": 23, "lat": 43.59546175758775}}, {"geometry": {"coordinates": [1.465370657992508, 43.557243695153005], "type": "Point"}, "type": "Feature", "properties": {"bikes": 3, "update": "2016-02-08T21:12:31", "name": "00231 - NARBONNE MARFAING", "address": "RANGUEIL / CL ROCHE", "lon": 1.465370657992508, "status": "OPEN", "stands": 17, "lat": 43.557243695153005}}, {"geometry": {"coordinates": [1.474057401308612, 43.622829380921075], "type": "Point"}, "type": "Feature", "properties": {"bikes": 7, "update": "2016-02-08T21:11:48", "name": "00216 - ARGOULETS HOUDON", "address": "3 RUE JEAN HOUDON", "lon": 1.474057401308612, "status": "OPEN", "stands": 10, "lat": 43.622829380921075}}, {"geometry": {"coordinates": [1.410651114174017, 43.594206765269206], "type": "Point"}, "type": "Feature", "properties": {"bikes": 12, "update": "2016-02-08T21:08:41", "name": "00194 - LOMBEZ / HIPPODROME", "address": "138 AV DE LOMBEZ", "lon": 1.410651114174017, "status": "OPEN", "stands": 8, "lat": 43.594206765269206}}, {"geometry": {"coordinates": [1.39867, 43.58444], "type": "Point"}, "type": "Feature", "properties": {"bikes": 3, "update": "2016-02-08T21:14:45", "name": "00263 - LYCEE POLYVALENT", "address": "87 AVENUE JEAN BAYLET ANGLE CHEMIN CEPIERES", "lon": 1.39867, "status": "OPEN", "stands": 15, "lat": 43.58444}}, {"geometry": {"coordinates": [1.462248097516892, 43.63124672931264], "type": "Point"}, "type": "Feature", "properties": {"bikes": 14, "update": "2016-02-08T21:16:02", "name": "00169 - ALBI  / JAFFARY", "address": "65 RTE D'ALBI", "lon": 1.462248097516892, "status": "OPEN", "stands": 3, "lat": 43.63124672931264}}, {"geometry": {"coordinates": [1.452939708828422, 43.60583232118379], "type": "Point"}, "type": "Feature", "properties": {"bikes": 7, "update": "2016-02-08T21:11:07", "name": "00039 - PLACE DAMLOUP", "address": "9 PL DE DAMLOUP", "lon": 1.452939708828422, "status": "OPEN", "stands": 12, "lat": 43.60583232118379}}, {"geometry": {"coordinates": [1.48049587613679, 43.57965532664315], "type": "Point"}, "type": "Feature", "properties": {"bikes": 2, "update": "2016-02-08T21:07:02", "name": "00201 - POTEZ -ST EXUPERY", "address": "256 AV ANTOINE DE ST EXUPERY", "lon": 1.48049587613679, "status": "OPEN", "stands": 16, "lat": 43.57965532664315}}, {"geometry": {"coordinates": [1.456321836591291, 43.59426485044087], "type": "Point"}, "type": "Feature", "properties": {"bikes": 20, "update": "2016-02-08T21:13:48", "name": "00101 - CAPT PORT ST SAUVEUR", "address": "5 PORT SAINT SAUVEUR", "lon": 1.456321836591291, "status": "OPEN", "stands": 0, "lat": 43.59426485044087}}, {"geometry": {"coordinates": [1.47643, 43.62957], "type": "Point"}, "type": "Feature", "properties": {"bikes": 6, "update": "2016-02-08T21:07:16", "name": "00258 - CAMBARD", "address": "Boulevard Atlanta / Cambard", "lon": 1.47643, "status": "OPEN", "stands": 12, "lat": 43.62957}}, {"geometry": {"coordinates": [1.450284083376377, 43.5785038852904], "type": "Point"}, "type": "Feature", "properties": {"bikes": 17, "update": "2016-02-08T21:10:50", "name": "00159 - U.R.S.S DEVIC", "address": "96 AV JULES JULIEN", "lon": 1.450284083376377, "status": "OPEN", "stands": 3, "lat": 43.5785038852904}}, {"geometry": {"coordinates": [1.432688307877285, 43.59504949175626], "type": "Point"}, "type": "Feature", "properties": {"bikes": 8, "update": "2016-02-08T21:12:07", "name": "00072 - FITTE CUGNAUX", "address": "23 ALL CHARLES DE FITTE", "lon": 1.432688307877285, "status": "OPEN", "stands": 12, "lat": 43.59504949175626}}, {"geometry": {"coordinates": [1.4401, 43.64066], "type": "Point"}, "type": "Feature", "properties": {"bikes": 8, "update": "2016-02-08T21:08:35", "name": "00261 - VAN DYCK - LAUNAGUET", "address": "Devant le N\u00b06 rue Van Dyck avant angle rue Raphael - 31000 TOULOUSE", "lon": 1.4401, "status": "OPEN", "stands": 10, "lat": 43.64066}}, {"geometry": {"coordinates": [1.443059611732516, 43.62459108857192], "type": "Point"}, "type": "Feature", "properties": {"bikes": 16, "update": "2016-02-08T21:14:02", "name": "00151 - CURIE - NEGRENEYS", "address": "27 BD PIERRE ET MARIE CURIE", "lon": 1.443059611732516, "status": "OPEN", "stands": 8, "lat": 43.62459108857192}}, {"geometry": {"coordinates": [1.473118127213999, 43.579425835630786], "type": "Point"}, "type": "Feature", "properties": {"bikes": 9, "update": "2016-02-08T21:07:49", "name": "00238 - HERBETTES / BUTTE", "address": "AVENUE DES HERBETTES", "lon": 1.473118127213999, "status": "OPEN", "stands": 8, "lat": 43.579425835630786}}, {"geometry": {"coordinates": [1.429275168509917, 43.59970386767416], "type": "Point"}, "type": "Feature", "properties": {"bikes": 21, "update": "2016-02-08T21:13:39", "name": "00080 - FITTE VARSI", "address": "89B ALL CHARLES DE FITTE", "lon": 1.429275168509917, "status": "OPEN", "stands": 2, "lat": 43.59970386767416}}, {"geometry": {"coordinates": [1.4431072280246, 43.610488427425665], "type": "Point"}, "type": "Feature", "properties": {"bikes": 4, "update": "2016-02-08T21:16:14", "name": "00057 - MERLY ARCOLE", "address": "15 RUE MERLY", "lon": 1.4431072280246, "status": "OPEN", "stands": 10, "lat": 43.610488427425665}}, {"geometry": {"coordinates": [1.443637125697445, 43.6106186453129], "type": "Point"}, "type": "Feature", "properties": {"bikes": 3, "update": "2016-02-08T21:15:58", "name": "00058 - CONCORDE ARCOLE", "address": "4 RUE DE LA CONCORDE", "lon": 1.443637125697445, "status": "OPEN", "stands": 22, "lat": 43.6106186453129}}, {"geometry": {"coordinates": [1.47297, 43.63539], "type": "Point"}, "type": "Feature", "properties": {"bikes": 12, "update": "2016-02-08T21:06:51", "name": "00272 - ANDRE VASSEUR", "address": "Boulevard Atlanta / apr\u00e8s angle rue vasseur - 31000 TOULOUSE", "lon": 1.47297, "status": "OPEN", "stands": 5, "lat": 43.63539}}, {"geometry": {"coordinates": [1.47517386253435, 43.5628140764194], "type": "Point"}, "type": "Feature", "properties": {"bikes": 1, "update": "2016-02-08T21:16:11", "name": "00222 - CAMBOU / ROCHE", "address": "AVENUE DU COLONEL ROCHE", "lon": 1.47517386253435, "status": "OPEN", "stands": 19, "lat": 43.5628140764194}}, {"geometry": {"coordinates": [1.442047437838665, 43.60233609279122], "type": "Point"}, "type": "Feature", "properties": {"bikes": 1, "update": "2016-02-08T21:15:45", "name": "00004 - STE URSULE", "address": "15 RUE SAINTE URSULE", "lon": 1.442047437838665, "status": "OPEN", "stands": 18, "lat": 43.60233609279122}}, {"geometry": {"coordinates": [1.414531359571464, 43.602050919601446], "type": "Point"}, "type": "Feature", "properties": {"bikes": 9, "update": "2016-02-08T21:15:38", "name": "00136 - FONTAINES", "address": "RUE DES FONTAINES", "lon": 1.414531359571464, "status": "OPEN", "stands": 6, "lat": 43.602050919601446}}, {"geometry": {"coordinates": [1.42438, 43.58807], "type": "Point"}, "type": "Feature", "properties": {"bikes": 13, "update": "2016-02-08T21:13:18", "name": "00142 - SEVERAC", "address": "BD DEODAT DE SEVERAC", "lon": 1.42438, "status": "OPEN", "stands": 6, "lat": 43.58807}}, {"geometry": {"coordinates": [1.481957162051808, 43.60593083247726], "type": "Point"}, "type": "Feature", "properties": {"bikes": 12, "update": "2016-02-08T21:14:16", "name": "00182 - CHAUBET", "address": "AV JEAN CHAUBET", "lon": 1.481957162051808, "status": "OPEN", "stands": 8, "lat": 43.60593083247726}}, {"geometry": {"coordinates": [1.451479779266325, 43.613829128033615], "type": "Point"}, "type": "Feature", "properties": {"bikes": 15, "update": "2016-02-08T21:12:49", "name": "00094 - SEMARD GARE ROUTIERE", "address": "73 BD PIERRE SEMARD", "lon": 1.451479779266325, "status": "OPEN", "stands": 7, "lat": 43.613829128033615}}, {"geometry": {"coordinates": [1.455945448109943, 43.589803552331645], "type": "Point"}, "type": "Feature", "properties": {"bikes": 4, "update": "2016-02-08T21:06:59", "name": "00127 - BEGUE - DEMOISELLES", "address": "1 RUE BEGUE", "lon": 1.455945448109943, "status": "OPEN", "stands": 10, "lat": 43.589803552331645}}, {"geometry": {"coordinates": [1.40142, 43.61354], "type": "Point"}, "type": "Feature", "properties": {"bikes": 13, "update": "2016-02-08T21:13:20", "name": "00279 - GUY ESPAGNO", "address": "229 AVENUE DE CASSELARDIT CROISEMENT ESPAGNO / CASSELARDIT 31000 TOULOUSE", "lon": 1.40142, "status": "OPEN", "stands": 5, "lat": 43.61354}}, {"geometry": {"coordinates": [1.4616307898919, 43.614208387732], "type": "Point"}, "type": "Feature", "properties": {"bikes": 2, "update": "2016-02-08T21:08:47", "name": "00251 - BLUM / JOUHAUX", "address": "26 AVENUE LEON BLUM ANGLE RUE LEON JOUHAUX", "lon": 1.4616307898919, "status": "OPEN", "stands": 18, "lat": 43.614208387732}}, {"geometry": {"coordinates": [1.407211289929025, 43.60419040838992], "type": "Point"}, "type": "Feature", "properties": {"bikes": 12, "update": "2016-02-08T21:11:38", "name": "00226 - FONTAINES /CASSELARDIT", "address": "292 RUE DES FONTAINES", "lon": 1.407211289929025, "status": "OPEN", "stands": 5, "lat": 43.60419040838992}}, {"geometry": {"coordinates": [1.430120187266013, 43.613472358330974], "type": "Point"}, "type": "Feature", "properties": {"bikes": 1, "update": "2016-02-08T21:14:32", "name": "00122 - PASSERELLE HAEDENS", "address": "57 BD DE L EMBOUCHURE", "lon": 1.430120187266013, "status": "OPEN", "stands": 18, "lat": 43.613472358330974}}, {"geometry": {"coordinates": [1.443005133993703, 43.59804753924319], "type": "Point"}, "type": "Feature", "properties": {"bikes": 9, "update": "2016-02-08T21:13:22", "name": "00026 - DALBADE - DE GORSSE", "address": "9 RUE HENRY DE GORSSE", "lon": 1.443005133993703, "status": "OPEN", "stands": 13, "lat": 43.59804753924319}}, {"geometry": {"coordinates": [1.467678323560475, 43.567221153708445], "type": "Point"}, "type": "Feature", "properties": {"bikes": 0, "update": "2016-02-08T21:10:51", "name": "00230 - RANGUEIL TRIPODE B", "address": "141 AV DE RANGUEIL", "lon": 1.467678323560475, "status": "OPEN", "stands": 20, "lat": 43.567221153708445}}, {"geometry": {"coordinates": [1.456048100267833, 43.601588174955744], "type": "Point"}, "type": "Feature", "properties": {"bikes": 10, "update": "2016-02-08T21:14:41", "name": "00042 - DAURIAC ESCANDE", "address": "3 BD PR LEOPOLD ESCANDE", "lon": 1.456048100267833, "status": "OPEN", "stands": 10, "lat": 43.601588174955744}}, {"geometry": {"coordinates": [1.411359591750251, 43.614589794633694], "type": "Point"}, "type": "Feature", "properties": {"bikes": 17, "update": "2016-02-08T21:09:54", "name": "00219 - PUCCINI/ BLAGNAC", "address": "35 RUE PUCCINI", "lon": 1.411359591750251, "status": "OPEN", "stands": 1, "lat": 43.614589794633694}}, {"geometry": {"coordinates": [1.462194464667426, 43.581459211587536], "type": "Point"}, "type": "Feature", "properties": {"bikes": 10, "update": "2016-02-08T21:10:06", "name": "00163 - BEDOUCE / MIDI", "address": "115 AV ALBERT BEDOUCE", "lon": 1.462194464667426, "status": "OPEN", "stands": 10, "lat": 43.581459211587536}}, {"geometry": {"coordinates": [1.435597311467436, 43.620735968782895], "type": "Point"}, "type": "Feature", "properties": {"bikes": 8, "update": "2016-02-08T21:13:36", "name": "00133 - MARCHE AUX COCHONS", "address": "71 AV DES MINIMES", "lon": 1.435597311467436, "status": "OPEN", "stands": 14, "lat": 43.620735968782895}}, {"geometry": {"coordinates": [1.47508540800772, 43.58588613821349], "type": "Point"}, "type": "Feature", "properties": {"bikes": 4, "update": "2016-02-08T21:10:28", "name": "00205 - COTTAGE/ RIEUX", "address": "58 AV DES COTTAGES", "lon": 1.47508540800772, "status": "OPEN", "stands": 14, "lat": 43.58588613821349}}, {"geometry": {"coordinates": [1.428450231443648, 43.60802027853654], "type": "Point"}, "type": "Feature", "properties": {"bikes": 5, "update": "2016-02-08T21:15:39", "name": "00086 - HERACLES - BEARNAIS", "address": "23 RUE DU BEARNAIS", "lon": 1.428450231443648, "status": "OPEN", "stands": 15, "lat": 43.60802027853654}}, {"geometry": {"coordinates": [1.451093339873272, 43.596478222107635], "type": "Point"}, "type": "Feature", "properties": {"bikes": 0, "update": "2016-02-08T21:13:29", "name": "00066 - JARDIN ROYAL", "address": "HUIT MAI 1945", "lon": 1.451093339873272, "status": "OPEN", "stands": 23, "lat": 43.596478222107635}}, {"geometry": {"coordinates": [1.408124460028565, 43.6172496485261], "type": "Point"}, "type": "Feature", "properties": {"bikes": 18, "update": "2016-02-08T21:15:29", "name": "00240 - RTE DE BLAGNAC / JOB", "address": "FACE 103 BIS ROUTE DE BLAGNAC", "lon": 1.408124460028565, "status": "OPEN", "stands": 0, "lat": 43.6172496485261}}, {"geometry": {"coordinates": [1.41476, 43.60614], "type": "Point"}, "type": "Feature", "properties": {"bikes": 17, "update": "2016-02-08T21:06:20", "name": "282 - RICHARD WAGNER", "address": "BD RICHARD WAGNER / ANGLE A.VIVALDI 31000 TOULOUSE", "lon": 1.41476, "status": "OPEN", "stands": 1, "lat": 43.60614}}, {"geometry": {"coordinates": [1.448244408330328, 43.60629718770727], "type": "Point"}, "type": "Feature", "properties": {"bikes": 3, "update": "2016-02-08T21:07:39", "name": "00018 - STRASBOURG JEAN JAURES", "address": "4 BD DE STRASBOURG", "lon": 1.448244408330328, "status": "OPEN", "stands": 21, "lat": 43.60629718770727}}, {"geometry": {"coordinates": [1.44002, 43.60459], "type": "Point"}, "type": "Feature", "properties": {"bikes": 1, "update": "2016-02-08T21:15:27", "name": "00012 - PARGAMINIERES", "address": "66 RUE PARGAMINIERES", "lon": 1.44002, "status": "OPEN", "stands": 10, "lat": 43.60459}}, {"geometry": {"coordinates": [1.425882273289917, 43.596852956620715], "type": "Point"}, "type": "Feature", "properties": {"bikes": 3, "update": "2016-02-08T21:08:21", "name": "00117 - BILLIERES -POSTE", "address": "39 AVENUE ETIENNE BILLIERES", "lon": 1.425882273289917, "status": "OPEN", "stands": 17, "lat": 43.596852956620715}}, {"geometry": {"coordinates": [1.454093824286969, 43.599990271041186], "type": "Point"}, "type": "Feature", "properties": {"bikes": 19, "update": "2016-02-08T21:12:41", "name": "00043 - DUPUY", "address": "14 PL DOMINIQUE MARTIN DUPUY", "lon": 1.454093824286969, "status": "OPEN", "stands": 2, "lat": 43.599990271041186}}, {"geometry": {"coordinates": [1.452455826571967, 43.61071810091073], "type": "Point"}, "type": "Feature", "properties": {"bikes": 15, "update": "2016-02-08T21:16:10", "name": "00061 - BONREPOS", "address": "8T BD DE BONREPOS", "lon": 1.452455826571967, "status": "OPEN", "stands": 13, "lat": 43.61071810091073}}, {"geometry": {"coordinates": [1.460187742067113, 43.57686792022356], "type": "Point"}, "type": "Feature", "properties": {"bikes": 4, "update": "2016-02-08T21:13:05", "name": "00165 - PLACE DES AVIONS", "address": "33 AVENUE DES AVIONS", "lon": 1.460187742067113, "status": "OPEN", "stands": 11, "lat": 43.57686792022356}}, {"geometry": {"coordinates": [1.42778, 43.62413], "type": "Point"}, "type": "Feature", "properties": {"bikes": 9, "update": "2016-02-08T21:07:32", "name": "00270 - SILVIO TRENTIN", "address": "Rue Jules Verne angle Boulevard Silvio Trentin - 31000 TOULOUSE", "lon": 1.42778, "status": "OPEN", "stands": 7, "lat": 43.62413}}, {"geometry": {"coordinates": [1.445174430937582, 43.590605082277605], "type": "Point"}, "type": "Feature", "properties": {"bikes": 6, "update": "2016-02-08T21:08:54", "name": "00103 - ST MICHEL ST CATHERINE", "address": "139 GRANDE RUE ST MICHEL", "lon": 1.445174430937582, "status": "OPEN", "stands": 14, "lat": 43.590605082277605}}, {"geometry": {"coordinates": [1.448061825303155, 43.60610692889793], "type": "Point"}, "type": "Feature", "properties": {"bikes": 23, "update": "2016-02-08T21:13:34", "name": "00017 - STRASBOURG SARDANE", "address": "7 BD DE STRASBOURG", "lon": 1.448061825303155, "status": "OPEN", "stands": 0, "lat": 43.60610692889793}}, {"geometry": {"coordinates": [1.445315649331453, 43.597401475499026], "type": "Point"}, "type": "Feature", "properties": {"bikes": 0, "update": "2016-02-08T21:16:17", "name": "00046 - PLACE DES CARMES", "address": "1 PL DES CARMES", "lon": 1.445315649331453, "status": "OPEN", "stands": 20, "lat": 43.597401475499026}}, {"geometry": {"coordinates": [1.461907953641387, 43.627603587351345], "type": "Point"}, "type": "Feature", "properties": {"bikes": 3, "update": "2016-02-08T21:11:10", "name": "00218 - AMOUROUX /STE AUGUSTINE", "address": "24 BIS CHE AMOUROUX", "lon": 1.461907953641387, "status": "OPEN", "stands": 15, "lat": 43.627603587351345}}, {"geometry": {"coordinates": [1.470077844843929, 43.5834192540153], "type": "Point"}, "type": "Feature", "properties": {"bikes": 13, "update": "2016-02-08T21:12:16", "name": "00203 - ST EX. - PETIT PRINCE", "address": "2 AV ANTOINE DE ST EXUPERY", "lon": 1.470077844843929, "status": "OPEN", "stands": 7, "lat": 43.5834192540153}}, {"geometry": {"coordinates": [1.441209573825458, 43.60765033417208], "type": "Point"}, "type": "Feature", "properties": {"bikes": 4, "update": "2016-02-08T21:11:04", "name": "00032 - MUSEE ST RAYMOND", "address": "8 RUE DES TROIS RENARDS", "lon": 1.441209573825458, "status": "OPEN", "stands": 8, "lat": 43.60765033417208}}, {"geometry": {"coordinates": [1.45752, 43.61184], "type": "Point"}, "type": "Feature", "properties": {"bikes": 5, "update": "2016-02-08T21:10:18", "name": "00005 - LEDUC", "address": "5 RUE LEDUC", "lon": 1.45752, "status": "OPEN", "stands": 12, "lat": 43.61184}}, {"geometry": {"coordinates": [1.432075106068745, 43.59628476386365], "type": "Point"}, "type": "Feature", "properties": {"bikes": 11, "update": "2016-02-08T21:11:09", "name": "00073 - FITTE TEINTURIERS", "address": "40 ALL CHARLES DE FITTE", "lon": 1.432075106068745, "status": "OPEN", "stands": 5, "lat": 43.59628476386365}}, {"geometry": {"coordinates": [1.440920059367141, 43.594569737633854], "type": "Point"}, "type": "Feature", "properties": {"bikes": 19, "update": "2016-02-08T21:07:45", "name": "00050 - GARONNETTE", "address": "1 AV MAURICE HAURIOU", "lon": 1.440920059367141, "status": "OPEN", "stands": 4, "lat": 43.594569737633854}}, {"geometry": {"coordinates": [1.449629619920856, 43.604717604204446], "type": "Point"}, "type": "Feature", "properties": {"bikes": 9, "update": "2016-02-08T21:13:16", "name": "00020 - CARNOT TROIS JOURNEES", "address": "69 BD LAZARE CARNOT", "lon": 1.449629619920856, "status": "OPEN", "stands": 18, "lat": 43.604717604204446}}, {"geometry": {"coordinates": [1.443635078857447, 43.58386908499996], "type": "Point"}, "type": "Feature", "properties": {"bikes": 7, "update": "2016-02-08T21:12:24", "name": "00155 - RECOLLETS", "address": "34 BD DES RECOLLETS", "lon": 1.443635078857447, "status": "OPEN", "stands": 13, "lat": 43.58386908499996}}, {"geometry": {"coordinates": [1.41028, 43.56507], "type": "Point"}, "type": "Feature", "properties": {"bikes": 7, "update": "2016-02-08T21:15:21", "name": "00264 - LAFOURGUETTE", "address": "Place des Gli\u00e8res", "lon": 1.41028, "status": "OPEN", "stands": 11, "lat": 43.56507}}, {"geometry": {"coordinates": [1.4842, 43.59666], "type": "Point"}, "type": "Feature", "properties": {"bikes": 5, "update": "2016-02-08T21:11:45", "name": "00256 - PLACE DE LA RONTONDE", "address": "FACE 175 ROUTE DE CASTRES ANGLE RUE CARCASSONNE", "lon": 1.4842, "status": "OPEN", "stands": 13, "lat": 43.59666}}, {"geometry": {"coordinates": [1.439737579879722, 43.611584087589904], "type": "Point"}, "type": "Feature", "properties": {"bikes": 6, "update": "2016-02-08T21:11:43", "name": "00091 - ARCOLE BALANCE", "address": "48 BD D ARCOLE", "lon": 1.439737579879722, "status": "OPEN", "stands": 15, "lat": 43.611584087589904}}, {"geometry": {"coordinates": [1.465517338373819, 43.62704846650827], "type": "Point"}, "type": "Feature", "properties": {"bikes": 7, "update": "2016-02-08T21:12:47", "name": "00185 - ROUBICHOU ARLES", "address": "30 RUE ROUBICHOU", "lon": 1.465517338373819, "status": "OPEN", "stands": 7, "lat": 43.62704846650827}}, {"geometry": {"coordinates": [1.440461106405702, 43.59938372814817], "type": "Point"}, "type": "Feature", "properties": {"bikes": 4, "update": "2016-02-08T21:16:05", "name": "00027 - QUAI DE TOUNIS", "address": "QUAI DE TOUNIS", "lon": 1.440461106405702, "status": "OPEN", "stands": 19, "lat": 43.59938372814817}}, {"geometry": {"coordinates": [1.478914286004687, 43.589466982143435], "type": "Point"}, "type": "Feature", "properties": {"bikes": 1, "update": "2016-02-08T21:10:46", "name": "00209 - BAROUX/ DARASSE", "address": "4 AV LUCIEN BAROUX", "lon": 1.478914286004687, "status": "OPEN", "stands": 17, "lat": 43.589466982143435}}, {"geometry": {"coordinates": [1.40230245215212, 43.574612132702526], "type": "Point"}, "type": "Feature", "properties": {"bikes": 0, "update": "2016-02-08T21:09:35", "name": "00220 - TABAR /UNIVERSITE", "address": "3 RUE DE L'UNIVERSITE", "lon": 1.40230245215212, "status": "OPEN", "stands": 19, "lat": 43.574612132702526}}, {"geometry": {"coordinates": [1.431415230750123, 43.59812186858788], "type": "Point"}, "type": "Feature", "properties": {"bikes": 1, "update": "2016-02-08T21:15:17", "name": "00078 - PLACE INT ST CYP. DARRE", "address": "14 PL INTERIEURE ST CYPRIEN", "lon": 1.431415230750123, "status": "OPEN", "stands": 15, "lat": 43.59812186858788}}, {"geometry": {"coordinates": [1.448486709552681, 43.615368584913504], "type": "Point"}, "type": "Feature", "properties": {"bikes": 13, "update": "2016-02-08T21:13:00", "name": "00149 - RAISIN MINIMES", "address": "CH DU RAISIN", "lon": 1.448486709552681, "status": "OPEN", "stands": 9, "lat": 43.615368584913504}}, {"geometry": {"coordinates": [1.446485498451865, 43.613590372531775], "type": "Point"}, "type": "Feature", "properties": {"bikes": 18, "update": "2016-02-08T21:08:23", "name": "00059 - CONCORDE", "address": "61 RUE DE LA CONCORDE", "lon": 1.446485498451865, "status": "OPEN", "stands": 1, "lat": 43.613590372531775}}, {"geometry": {"coordinates": [1.430389555237135, 43.609753361824794], "type": "Point"}, "type": "Feature", "properties": {"bikes": 7, "update": "2016-02-08T21:12:15", "name": "00107 - SEBASTOPOL", "address": "1 RUE DE SEBASTOPOL", "lon": 1.430389555237135, "status": "OPEN", "stands": 20, "lat": 43.609753361824794}}, {"geometry": {"coordinates": [1.420141760360439, 43.60390532418828], "type": "Point"}, "type": "Feature", "properties": {"bikes": 19, "update": "2016-02-08T21:13:34", "name": "00246 - WAGNER / JEAN BRUNHES", "address": "29 BOULEVARD RICHARD WAGNER ANG BD JEAN BRUNHES", "lon": 1.420141760360439, "status": "OPEN", "stands": 1, "lat": 43.60390532418828}}, {"geometry": {"coordinates": [1.450654849861206, 43.60082502483391], "type": "Point"}, "type": "Feature", "properties": {"bikes": 1, "update": "2016-02-08T21:06:23", "name": "00099 - REMPART ST ETIENNE", "address": "7 RUE DU REMPART ST ETIENNE", "lon": 1.450654849861206, "status": "OPEN", "stands": 15, "lat": 43.60082502483391}}, {"geometry": {"coordinates": [1.48278, 43.57452], "type": "Point"}, "type": "Feature", "properties": {"bikes": 12, "update": "2016-02-08T21:07:20", "name": "00267 - GONIN", "address": "RUE GONIN ANGLE GENIN 31000 TOULOUSE", "lon": 1.48278, "status": "OPEN", "stands": 4, "lat": 43.57452}}, {"geometry": {"coordinates": [1.449215732146181, 43.592355124495455], "type": "Point"}, "type": "Feature", "properties": {"bikes": 6, "update": "2016-02-08T21:11:28", "name": "00113 - MUSEUM LAMARCK", "address": "FACE 58 RUE DUMERIL", "lon": 1.449215732146181, "status": "OPEN", "stands": 14, "lat": 43.592355124495455}}, {"geometry": {"coordinates": [1.444528167445985, 43.61692696530316], "type": "Point"}, "type": "Feature", "properties": {"bikes": 10, "update": "2016-02-08T21:06:22", "name": "00148 - COLLIGNON", "address": "5 AV DE COLLIGNON", "lon": 1.444528167445985, "status": "OPEN", "stands": 9, "lat": 43.61692696530316}}, {"geometry": {"coordinates": [1.454698517821249, 43.62409340165932], "type": "Point"}, "type": "Feature", "properties": {"bikes": 17, "update": "2016-02-08T21:07:48", "name": "00167 - LAPUJADE-FLANDRES", "address": "RUE LAPUJADE ANGLE RUE DES FLANDRES", "lon": 1.454698517821249, "status": "OPEN", "stands": 1, "lat": 43.62409340165932}}, {"geometry": {"coordinates": [1.41325, 43.56793], "type": "Point"}, "type": "Feature", "properties": {"bikes": 4, "update": "2016-02-08T21:12:50", "name": "00265 - PASSAGE BORDELONGUE", "address": "Face N\u00b0251 route de Seysses", "lon": 1.41325, "status": "OPEN", "stands": 14, "lat": 43.56793}}, {"geometry": {"coordinates": [1.446483165667178, 43.588359791103294], "type": "Point"}, "type": "Feature", "properties": {"bikes": 7, "update": "2016-02-08T21:12:20", "name": "00116 - ST MICHEL NOTRE DAME", "address": "50 GRANDE RUE ST MICHEL", "lon": 1.446483165667178, "status": "OPEN", "stands": 7, "lat": 43.588359791103294}}, {"geometry": {"coordinates": [1.446076879873296, 43.609650036285025], "type": "Point"}, "type": "Feature", "properties": {"bikes": 1, "update": "2016-02-08T21:08:37", "name": "00034 - SAINT LAZARE", "address": "2 PETITE RUE SAINT LAZARE", "lon": 1.446076879873296, "status": "OPEN", "stands": 18, "lat": 43.609650036285025}}, {"geometry": {"coordinates": [1.419524853208122, 43.609967343094006], "type": "Point"}, "type": "Feature", "properties": {"bikes": 24, "update": "2016-02-08T21:16:15", "name": "00119 - CHAPOU", "address": "129 ALL DE BRIENNE", "lon": 1.419524853208122, "status": "OPEN", "stands": 0, "lat": 43.609967343094006}}, {"geometry": {"coordinates": [1.38887, 43.58171], "type": "Point"}, "type": "Feature", "properties": {"bikes": 2, "update": "2016-02-08T21:11:45", "name": "00275 - PLACE DES PRADETTES", "address": "Place des Pradettes / rue Arthur Huc", "lon": 1.38887, "status": "OPEN", "stands": 15, "lat": 43.58171}}, {"geometry": {"coordinates": [1.451999386383253, 43.573924940202886], "type": "Point"}, "type": "Feature", "properties": {"bikes": 17, "update": "2016-02-08T21:09:12", "name": "00160 - THEATRE JULES JULIEN", "address": "21 AV DES ECOLES JULES JULIEN", "lon": 1.451999386383253, "status": "OPEN", "stands": 0, "lat": 43.573924940202886}}, {"geometry": {"coordinates": [1.456086445970436, 43.569437251134566], "type": "Point"}, "type": "Feature", "properties": {"bikes": 15, "update": "2016-02-08T21:08:25", "name": "00232 - NARBONNE/ MIROUSE", "address": "64 RTE DE NARBONNE", "lon": 1.456086445970436, "status": "OPEN", "stands": 0, "lat": 43.569437251134566}}, {"geometry": {"coordinates": [1.48781984362323, 43.58350615923425], "type": "Point"}, "type": "Feature", "properties": {"bikes": 6, "update": "2016-02-08T21:15:43", "name": "00211 - LE DORMEUR/ LA TERRASSE", "address": "9 RUE LE DORMEUR", "lon": 1.48781984362323, "status": "OPEN", "stands": 12, "lat": 43.58350615923425}}, {"geometry": {"coordinates": [1.39709, 43.6142], "type": "Point"}, "type": "Feature", "properties": {"bikes": 1, "update": "2016-02-08T21:12:27", "name": "00278 - ARENES ROMAINE", "address": "AVENUE DES ARENES ROMAINES / GUY ESPAGNO DANS ROND POINT 31000 TOULOUSE", "lon": 1.39709, "status": "OPEN", "stands": 17, "lat": 43.6142}}, {"geometry": {"coordinates": [1.434473692188769, 43.62293779541603], "type": "Point"}, "type": "Feature", "properties": {"bikes": 5, "update": "2016-02-08T21:09:28", "name": "00132 - MINIMES BILARD", "address": "101 AVENUES DES MINIMES", "lon": 1.434473692188769, "status": "OPEN", "stands": 14, "lat": 43.62293779541603}}, {"geometry": {"coordinates": [1.424941224096277, 43.61395913175851], "type": "Point"}, "type": "Feature", "properties": {"bikes": 19, "update": "2016-02-08T21:15:00", "name": "00145 - GOUNOD - GARROS", "address": "29 RUE ROLAND GARROS", "lon": 1.424941224096277, "status": "OPEN", "stands": 1, "lat": 43.61395913175851}}, {"geometry": {"coordinates": [1.438157046235524, 43.61375517689823], "type": "Point"}, "type": "Feature", "properties": {"bikes": 10, "update": "2016-02-08T21:13:10", "name": "00110 - CABANEL - SERRES", "address": "16 RUE ALEXANDRE CABANEL", "lon": 1.438157046235524, "status": "OPEN", "stands": 7, "lat": 43.61375517689823}}, {"geometry": {"coordinates": [1.434225150757254, 43.6269176821576], "type": "Point"}, "type": "Feature", "properties": {"bikes": 22, "update": "2016-02-08T21:16:15", "name": "00125 - BARRI\u00c8RE DE PARIS", "address": "BARRI\u00c8RE DE PARIS", "lon": 1.434225150757254, "status": "OPEN", "stands": 3, "lat": 43.6269176821576}}, {"geometry": {"coordinates": [1.454189017923435, 43.607433487401345], "type": "Point"}, "type": "Feature", "properties": {"bikes": 6, "update": "2016-02-08T21:11:50", "name": "00063 - PISCINE LEO LAGRANGE", "address": "54 RUE DES SEPT TROUBADOURS", "lon": 1.454189017923435, "status": "OPEN", "stands": 16, "lat": 43.607433487401345}}, {"geometry": {"coordinates": [1.46539185105244, 43.61743867816197], "type": "Point"}, "type": "Feature", "properties": {"bikes": 3, "update": "2016-02-08T21:12:49", "name": "00177 - BAILLAUD BRUNAUD", "address": "64 RUE BAILLAUD", "lon": 1.46539185105244, "status": "OPEN", "stands": 17, "lat": 43.61743867816197}}, {"geometry": {"coordinates": [1.483669775054849, 43.57906922965151], "type": "Point"}, "type": "Feature", "properties": {"bikes": 0, "update": "2016-02-08T21:10:02", "name": "00200 - PLACE DE L'ORMEAU", "address": "FACE 345 AV JEAN RIEUX", "lon": 1.483669775054849, "status": "OPEN", "stands": 17, "lat": 43.57906922965151}}, {"geometry": {"coordinates": [1.444269620551324, 43.60735205357881], "type": "Point"}, "type": "Feature", "properties": {"bikes": 1, "update": "2016-02-08T21:07:03", "name": "00014 - PERIGORD", "address": "26 RUE DE PERIGORD", "lon": 1.444269620551324, "status": "OPEN", "stands": 15, "lat": 43.60735205357881}}, {"geometry": {"coordinates": [1.4795004816774, 43.610549420565], "type": "Point"}, "type": "Feature", "properties": {"bikes": 5, "update": "2016-02-08T21:06:38", "name": "00181 - PLANA GARNIER", "address": "27 Avenue Louis PLANA", "lon": 1.4795004816774, "status": "OPEN", "stands": 12, "lat": 43.610549420565}}, {"geometry": {"coordinates": [1.4429, 43.59253], "type": "Point"}, "type": "Feature", "properties": {"bikes": 8, "update": "2016-02-08T21:16:14", "name": "00069 - FEUGA", "address": "11 ALL PAUL FEUGA", "lon": 1.4429, "status": "OPEN", "stands": 10, "lat": 43.59253}}, {"geometry": {"coordinates": [1.448634234326797, 43.582831686768735], "type": "Point"}, "type": "Feature", "properties": {"bikes": 18, "update": "2016-02-08T21:06:34", "name": "00157 - U.R.S.S  PEYROUSET", "address": "16 AV DE L'U.R.S.S", "lon": 1.448634234326797, "status": "OPEN", "stands": 1, "lat": 43.582831686768735}}, {"geometry": {"coordinates": [1.425325828280708, 43.581352282638655], "type": "Point"}, "type": "Feature", "properties": {"bikes": 17, "update": "2016-02-08T21:13:07", "name": "00189 - MURET BOUTINON", "address": "44 AVENUE DE MURET", "lon": 1.425325828280708, "status": "OPEN", "stands": 3, "lat": 43.581352282638655}}]}