{"features": [{"properties": {"stands": 12, "address": "2 RUE GATIEN ARNOULT", "bikes": 3, "lon": 1.441003598726198, "status": "OPEN", "update": "2015-12-21T11:43:49", "name": "00055 - ST SERNIN G. ARNOULT", "lat": 43.608951960496405}, "type": "Feature", "geometry": {"type": "Point", "coordinates": [1.441003598726198, 43.608951960496405]}}, {"properties": {"stands": 14, "address": "FACE 15 RUE PIERRE LAROUSSE", "bikes": 4, "lon": 1.45907112459247, "status": "OPEN", "update": "2015-12-21T11:44:34", "name": "00195 - LARROUSSE -RIEUX", "lat": 43.59723540303583}, "type": "Feature", "geometry": {"type": "Point", "coordinates": [1.45907112459247, 43.59723540303583]}}, {"properties": {"stands": 13, "address": "129 AV DE RANGUEIL", "bikes": 5, "lon": 1.46278065695466, "status": "OPEN", "update": "2015-12-21T11:35:46", "name": "00229 - IUT RANGUEIL", "lat": 43.571433064051334}, "type": "Feature", "geometry": {"type": "Point", "coordinates": [1.46278065695466, 43.571433064051334]}}, {"properties": {"stands": 23, "address": "2 ALL FORAIN FRANCOIS VERDIER", "bikes": 3, "lon": 1.452605307400692, "status": "OPEN", "update": "2015-12-21T11:39:13", "name": "00065 - VERDIER - GRAND ROND", "lat": 43.597074846780274}, "type": "Feature", "geometry": {"type": "Point", "coordinates": [1.452605307400692, 43.597074846780274]}}, {"properties": {"stands": 18, "address": "24 BD LAZARE CARNOT", "bikes": 2, "lon": 1.45195665819857, "status": "OPEN", "update": "2015-12-21T11:40:54", "name": "00022 - CARNOT ROLAND", "lat": 43.60221990815785}, "type": "Feature", "geometry": {"type": "Point", "coordinates": [1.45195665819857, 43.60221990815785]}}, {"properties": {"stands": 13, "address": "RUE DE L'ABBE JULES LEMIRE", "bikes": 7, "lon": 1.403872948950036, "status": "OPEN", "update": "2015-12-21T11:44:59", "name": "00236 - TOEC / LEMIRE", "lat": 43.59729443895585}, "type": "Feature", "geometry": {"type": "Point", "coordinates": [1.403872948950036, 43.59729443895585]}}, {"properties": {"stands": 19, "address": "38B BD DES MINIMES", "bikes": 8, "lon": 1.442921175845342, "status": "OPEN", "update": "2015-12-21T11:44:06", "name": "00111 - MINIMES PASSERELLE", "lat": 43.615259799224134}, "type": "Feature", "geometry": {"type": "Point", "coordinates": [1.442921175845342, 43.615259799224134]}}, {"properties": {"stands": 11, "address": "96 av des Etats-Unis angle rue Jules Ferry", "bikes": 6, "lon": 1.43180804154469, "status": "OPEN", "update": "2015-12-21T11:43:32", "name": "00243 - ETATS-UNIS / FERRY", "lat": 43.632641237523}, "type": "Feature", "geometry": {"type": "Point", "coordinates": [1.43180804154469, 43.632641237523]}}, {"properties": {"stands": 15, "address": "41 AV MAURICE BOURGES MAUNOURY", "bikes": 4, "lon": 1.452693250180783, "status": "OPEN", "update": "2015-12-21T11:42:39", "name": "00174 - MAUNOURY / MELA", "lat": 43.63692179179762}, "type": "Feature", "geometry": {"type": "Point", "coordinates": [1.452693250180783, 43.63692179179762]}}, {"properties": {"stands": 12, "address": "47 BD JEAN BRUNHES", "bikes": 8, "lon": 1.420275802412521, "status": "OPEN", "update": "2015-12-21T11:42:44", "name": "00137 - BRUNHES-FONTAINES", "lat": 43.60094924792523}, "type": "Feature", "geometry": {"type": "Point", "coordinates": [1.420275802412521, 43.60094924792523]}}, {"properties": {"stands": 15, "address": "62 BD DE SUISSE", "bikes": 5, "lon": 1.421715694303944, "status": "OPEN", "update": "2015-12-21T11:36:52", "name": "00144 - SUISSE - LAUSANE", "lat": 43.61606217398145}, "type": "Feature", "geometry": {"type": "Point", "coordinates": [1.421715694303944, 43.61606217398145]}}, {"properties": {"stands": 10, "address": "41 RUE DE LA COLOMBETTE", "bikes": 6, "lon": 1.453588691746783, "status": "OPEN", "update": "2015-12-21T11:43:22", "name": "00040 - COLOMBETTE", "lat": 43.604660136134775}, "type": "Feature", "geometry": {"type": "Point", "coordinates": [1.453588691746783, 43.604660136134775]}}, {"properties": {"stands": 6, "address": "62 RUE DE LA POMME", "bikes": 11, "lon": 1.445569311598848, "status": "OPEN", "update": "2015-12-21T11:44:59", "name": "00003 - POMME", "lat": 43.60333593826575}, "type": "Feature", "geometry": {"type": "Point", "coordinates": [1.445569311598848, 43.60333593826575]}}, {"properties": {"stands": 17, "address": "57 RUE DU PRINTEMPS", "bikes": 0, "lon": 1.44361404386217, "status": "OPEN", "update": "2015-12-21T11:42:20", "name": "00093 - PRINTEMPS", "lat": 43.614465544425535}, "type": "Feature", "geometry": {"type": "Point", "coordinates": [1.44361404386217, 43.614465544425535]}}, {"properties": {"stands": 5, "address": "39 BIS AV DE LOMBEZ", "bikes": 20, "lon": 1.418420510391943, "status": "OPEN", "update": "2015-12-21T11:41:23", "name": "00139 - BARRIERE DE LOMBEZ", "lat": 43.5955673906372}, "type": "Feature", "geometry": {"type": "Point", "coordinates": [1.418420510391943, 43.5955673906372]}}, {"properties": {"stands": 16, "address": "ALL CHARLES DE FITTE", "bikes": 17, "lon": 1.429556601823956, "status": "OPEN", "update": "2015-12-21T11:38:45", "name": "00081 - JARDIN RAYMOND VI", "lat": 43.59989498759688}, "type": "Feature", "geometry": {"type": "Point", "coordinates": [1.429556601823956, 43.59989498759688]}}, {"properties": {"stands": 12, "address": "RUE DES BOUQUETINS ANGLE RUE EDMOND ROSTAND", "bikes": 8, "lon": 1.449039275575635, "status": "OPEN", "update": "2015-12-21T11:36:37", "name": "00248 - BOUQUETINS/E. ROSTAND", "lat": 43.64108958806659}, "type": "Feature", "geometry": {"type": "Point", "coordinates": [1.449039275575635, 43.64108958806659]}}, {"properties": {"stands": 10, "address": "PL SAINT JULIEN", "bikes": 13, "lon": 1.437631489341106, "status": "OPEN", "update": "2015-12-21T11:36:30", "name": "00053 - PLACE SAINT JULIEN", "lat": 43.60863633636605}, "type": "Feature", "geometry": {"type": "Point", "coordinates": [1.437631489341106, 43.60863633636605]}}, {"properties": {"stands": 14, "address": "47 BD LASCROSSES", "bikes": 11, "lon": 1.432335729928681, "status": "OPEN", "update": "2015-12-21T11:39:01", "name": "00087 - LASCROSSES LECLERC", "lat": 43.609500004240715}, "type": "Feature", "geometry": {"type": "Point", "coordinates": [1.432335729928681, 43.609500004240715]}}, {"properties": {"stands": 14, "address": "33 AV HONRE SERRES", "bikes": 2, "lon": 1.438340345212284, "status": "OPEN", "update": "2015-12-21T11:44:45", "name": "00121 - SERRES - A. BERNARD", "lat": 43.612327522628846}, "type": "Feature", "geometry": {"type": "Point", "coordinates": [1.438340345212284, 43.612327522628846]}}, {"properties": {"stands": 9, "address": "FACE AU 127 AVENUE DE LESPINET", "bikes": 11, "lon": 1.469393836823441, "status": "OPEN", "update": "2015-12-21T11:38:14", "name": "00239 - LESPINET / HERBETTES", "lat": 43.577166917623245}, "type": "Feature", "geometry": {"type": "Point", "coordinates": [1.469393836823441, 43.577166917623245]}}, {"properties": {"stands": 0, "address": "12 RUE DU POIDS DE L'HUILE", "bikes": 19, "lon": 1.445420780739279, "status": "OPEN", "update": "2015-12-21T11:37:03", "name": "00001 - POIDS DE L'HUILE", "lat": 43.604134687021045}, "type": "Feature", "geometry": {"type": "Point", "coordinates": [1.445420780739279, 43.604134687021045]}}, {"properties": {"stands": 2, "address": "6 RUE DU REMPART VILLENEUVE", "bikes": 23, "lon": 1.446593812218414, "status": "OPEN", "update": "2015-12-21T11:45:04", "name": "00007 - PLACE VICTOR HUGO", "lat": 43.605852162177925}, "type": "Feature", "geometry": {"type": "Point", "coordinates": [1.446593812218414, 43.605852162177925]}}, {"properties": {"stands": 7, "address": "Place Riche / Lalande - 31000 TOULOUSE", "bikes": 13, "lon": 1.43298, "status": "OPEN", "update": "2015-12-21T11:41:57", "name": "00259 - PLACE RICHE", "lat": 43.64751}, "type": "Feature", "geometry": {"type": "Point", "coordinates": [1.43298, 43.64751]}}, {"properties": {"stands": 8, "address": "RUE LOIN 100M AVT RAYNAL", "bikes": 7, "lon": 1.451330504561275, "status": "OPEN", "update": "2015-12-21T11:39:52", "name": "00234 - LOIN / RAYNAL", "lat": 43.628236592839514}, "type": "Feature", "geometry": {"type": "Point", "coordinates": [1.451330504561275, 43.628236592839514]}}, {"properties": {"stands": 8, "address": "355 route de saint-Simon", "bikes": 12, "lon": 1.409162125552512, "status": "OPEN", "update": "2015-12-21T11:38:47", "name": "00192 - RTE DE ST SIMON/PRADO", "lat": 43.587659413053814}, "type": "Feature", "geometry": {"type": "Point", "coordinates": [1.409162125552512, 43.587659413053814]}}, {"properties": {"stands": 15, "address": "18 PL DU SALIN", "bikes": 7, "lon": 1.444132711268797, "status": "OPEN", "update": "2015-12-21T11:42:02", "name": "00048 - PLACE DU SALIN", "lat": 43.59474911973265}, "type": "Feature", "geometry": {"type": "Point", "coordinates": [1.444132711268797, 43.59474911973265]}}, {"properties": {"stands": 8, "address": "Avenue Maurice BOURGES MAUNOURY", "bikes": 22, "lon": 1.45256734914219, "status": "OPEN", "update": "2015-12-21T11:40:27", "name": "00175 - METRO MAUNOURY", "lat": 43.6394555737186}, "type": "Feature", "geometry": {"type": "Point", "coordinates": [1.45256734914219, 43.6394555737186]}}, {"properties": {"stands": 17, "address": "23 RUE GUYOU", "bikes": 3, "lon": 1.462031097914686, "status": "OPEN", "update": "2015-12-21T11:36:11", "name": "00166 - RANGUEIL GUYOU", "lat": 43.574366149048714}, "type": "Feature", "geometry": {"type": "Point", "coordinates": [1.462031097914686, 43.574366149048714]}}, {"properties": {"stands": 10, "address": "183 RUE DU FB  BONNEFOY", "bikes": 8, "lon": 1.458585739964361, "status": "OPEN", "update": "2015-12-21T11:37:03", "name": "00135 - BONNEFOY   LEMAITRE", "lat": 43.62316326019301}, "type": "Feature", "geometry": {"type": "Point", "coordinates": [1.458585739964361, 43.62316326019301]}}, {"properties": {"stands": 14, "address": "8 ALL DES DEMOISELLES", "bikes": 4, "lon": 1.453805825078145, "status": "OPEN", "update": "2015-12-21T11:45:10", "name": "00115 - DEMOISELLES MISTRAL", "lat": 43.590622011025665}, "type": "Feature", "geometry": {"type": "Point", "coordinates": [1.453805825078145, 43.590622011025665]}}, {"properties": {"stands": 9, "address": "35 ALL JULES GUESDE", "bikes": 13, "lon": 1.44938, "status": "OPEN", "update": "2015-12-21T11:37:03", "name": "00067 - MUSEUM", "lat": 43.59468}, "type": "Feature", "geometry": {"type": "Point", "coordinates": [1.44938, 43.59468]}}, {"properties": {"stands": 5, "address": "121 AVENUE DE MURET", "bikes": 13, "lon": 1.427517107421507, "status": "OPEN", "update": "2015-12-21T11:43:48", "name": "00188 - MURET/LAFAGE", "lat": 43.584282965328995}, "type": "Feature", "geometry": {"type": "Point", "coordinates": [1.427517107421507, 43.584282965328995]}}, {"properties": {"stands": 14, "address": "AVENUE YVES BRUNAUD", "bikes": 6, "lon": 1.468753766918999, "status": "OPEN", "update": "2015-12-21T11:37:14", "name": "00178 - BRUNAUD / PLANA", "lat": 43.619281402937425}, "type": "Feature", "geometry": {"type": "Point", "coordinates": [1.468753766918999, 43.619281402937425]}}, {"properties": {"stands": 5, "address": "1 RUE CHARLES CAMICHEL", "bikes": 16, "lon": 1.454436078796189, "status": "OPEN", "update": "2015-12-21T11:45:14", "name": "00041 - ST AUBIN CAMICHEL", "lat": 43.60265364232074}, "type": "Feature", "geometry": {"type": "Point", "coordinates": [1.454436078796189, 43.60265364232074]}}, {"properties": {"stands": 21, "address": "3B BD LASCROSSES", "bikes": 4, "lon": 1.437871385550754, "status": "OPEN", "update": "2015-12-21T11:44:48", "name": "00090 - LASCROSSES- A. BERNARD", "lat": 43.61146971436288}, "type": "Feature", "geometry": {"type": "Point", "coordinates": [1.437871385550754, 43.61146971436288]}}, {"properties": {"stands": 8, "address": "1 BD DE LA MARQUETTE", "bikes": 17, "lon": 1.434707777421923, "status": "OPEN", "update": "2015-12-21T11:37:26", "name": "00109 - METRO CANAL DU MIDI", "lat": 43.615173611788045}, "type": "Feature", "geometry": {"type": "Point", "coordinates": [1.434707777421923, 43.615173611788045]}}, {"properties": {"stands": 20, "address": "6 AV LOUIS BLERIOT", "bikes": 0, "lon": 1.464093716152017, "status": "OPEN", "update": "2015-12-21T11:36:39", "name": "00197 - CASERNE PERIGNON", "lat": 43.60038605818475}, "type": "Feature", "geometry": {"type": "Point", "coordinates": [1.464093716152017, 43.60038605818475]}}, {"properties": {"stands": 14, "address": "6 BD LAZARE CARNOT", "bikes": 11, "lon": 1.452057713684133, "status": "OPEN", "update": "2015-12-21T11:41:45", "name": "00023 - COMBATTANTS", "lat": 43.60128593726337}, "type": "Feature", "geometry": {"type": "Point", "coordinates": [1.452057713684133, 43.60128593726337]}}, {"properties": {"stands": 13, "address": "ROND POINT DES IZARD ANGLEPASSERIEU ET ROUTE ST SIMON", "bikes": 5, "lon": 1.39262, "status": "OPEN", "update": "2015-12-21T11:36:40", "name": "00273 - PASSERIEU - ST SIMON", "lat": 43.5792}, "type": "Feature", "geometry": {"type": "Point", "coordinates": [1.39262, 43.5792]}}, {"properties": {"stands": 2, "address": "31 RUE VALADE", "bikes": 17, "lon": 1.437032051956223, "status": "OPEN", "update": "2015-12-21T11:40:21", "name": "00029 - VALADE", "lat": 43.605071904633625}, "type": "Feature", "geometry": {"type": "Point", "coordinates": [1.437032051956223, 43.605071904633625]}}, {"properties": {"stands": 10, "address": "RUE DE LA CHARBONNIERE ANGLE RUE DES PALMIERS 31000 TOULOUSE", "bikes": 8, "lon": 1.44871, "status": "OPEN", "update": "2015-12-21T11:44:51", "name": "280 - CHARBONNIERE", "lat": 43.57383}, "type": "Feature", "geometry": {"type": "Point", "coordinates": [1.44871, 43.57383]}}, {"properties": {"stands": 5, "address": "38 AV JEAN MOULIN FACE DEBOUCHE RUE DE CANNES", "bikes": 14, "lon": 1.441783289134449, "status": "OPEN", "update": "2015-12-21T11:44:54", "name": "00156 - METRO EMPALOT", "lat": 43.579737115748195}, "type": "Feature", "geometry": {"type": "Point", "coordinates": [1.441783289134449, 43.579737115748195]}}, {"properties": {"stands": 5, "address": "RUE RAIMBAUD ANGLE RUE COLETTE", "bikes": 11, "lon": 1.437493796200118, "status": "OPEN", "update": "2015-12-21T11:42:13", "name": "00242 -  RAIMBAUD / COLETTE", "lat": 43.633866178151905}, "type": "Feature", "geometry": {"type": "Point", "coordinates": [1.437493796200118, 43.633866178151905]}}, {"properties": {"stands": 17, "address": "AVENUE EDOUARD BELIN FACE CH\u00c2TEAU DU CREPS", "bikes": 3, "lon": 1.474881961695726, "status": "OPEN", "update": "2015-12-21T11:45:06", "name": "00224 - CAMPUS SUPAERO", "lat": 43.566595761363736}, "type": "Feature", "geometry": {"type": "Point", "coordinates": [1.474881961695726, 43.566595761363736]}}, {"properties": {"stands": 13, "address": "RUE DES GALLOIS", "bikes": 7, "lon": 1.4420311550308, "status": "OPEN", "update": "2015-12-21T11:43:05", "name": "00154 - GALLOIS", "lat": 43.58995890864312}, "type": "Feature", "geometry": {"type": "Point", "coordinates": [1.4420311550308, 43.58995890864312]}}, {"properties": {"stands": 20, "address": "50 RUE DU GENERAL COMPANS", "bikes": 5, "lon": 1.455204795385279, "status": "OPEN", "update": "2015-12-21T11:43:52", "name": "00096 - MEDIATHEQUE", "lat": 43.60974282737991}, "type": "Feature", "geometry": {"type": "Point", "coordinates": [1.455204795385279, 43.60974282737991]}}, {"properties": {"stands": 3, "address": "10 AV DES MAZADES", "bikes": 17, "lon": 1.438302180907754, "status": "OPEN", "update": "2015-12-21T11:45:15", "name": "00152 - MAZADES", "lat": 43.624183134252704}, "type": "Feature", "geometry": {"type": "Point", "coordinates": [1.438302180907754, 43.624183134252704]}}, {"properties": {"stands": 11, "address": "chemin du Marin angle chemin du Reboul", "bikes": 7, "lon": 1.37975, "status": "OPEN", "update": "2015-12-21T11:37:01", "name": "00276 - MARIN REBOUL", "lat": 43.58132}, "type": "Feature", "geometry": {"type": "Point", "coordinates": [1.37975, 43.58132]}}, {"properties": {"stands": 3, "address": "2 PL INTERIEURE ST CYPRIEN", "bikes": 10, "lon": 1.431605284631358, "status": "OPEN", "update": "2015-12-21T11:45:02", "name": "00077 - PLACE INT SAINT CYPRIEN", "lat": 43.597835830061406}, "type": "Feature", "geometry": {"type": "Point", "coordinates": [1.431605284631358, 43.597835830061406]}}, {"properties": {"stands": 3, "address": "1 RUE DES TOURNEURS", "bikes": 15, "lon": 1.445580732388259, "status": "OPEN", "update": "2015-12-21T11:41:29", "name": "00025 - PLACE ROUAIX", "lat": 43.599435045967155}, "type": "Feature", "geometry": {"type": "Point", "coordinates": [1.445580732388259, 43.599435045967155]}}, {"properties": {"stands": 14, "address": "37 RUE LAGANNE", "bikes": 4, "lon": 1.436175197009508, "status": "OPEN", "update": "2015-12-21T11:36:13", "name": "00074 - LAGANNE TEINTURIERS", "lat": 43.596660562935625}, "type": "Feature", "geometry": {"type": "Point", "coordinates": [1.436175197009508, 43.596660562935625]}}, {"properties": {"stands": 20, "address": "3 RUE LAGANNE", "bikes": 2, "lon": 1.434894328349442, "status": "OPEN", "update": "2015-12-21T11:40:18", "name": "00071 - COURS DILLON", "lat": 43.59318934283672}, "type": "Feature", "geometry": {"type": "Point", "coordinates": [1.434894328349442, 43.59318934283672]}}, {"properties": {"stands": 3, "address": "12  AV  ETIENNE  BILLIERES", "bikes": 16, "lon": 1.428862699237109, "status": "OPEN", "update": "2015-12-21T11:42:08", "name": "00105 - BILLIERE -CHAMPETRE", "lat": 43.59764204883991}, "type": "Feature", "geometry": {"type": "Point", "coordinates": [1.428862699237109, 43.59764204883991]}}, {"properties": {"stands": 23, "address": "0030 RUE GABRIEL PERI", "bikes": 0, "lon": 1.454987798766018, "status": "OPEN", "update": "2015-12-21T11:36:08", "name": "00064 - PERI MERCADIER", "lat": 43.60617263070887}, "type": "Feature", "geometry": {"type": "Point", "coordinates": [1.454987798766018, 43.60617263070887]}}, {"properties": {"stands": 24, "address": "32 PL ROQUELAINE", "bikes": 0, "lon": 1.448541598385468, "status": "OPEN", "update": "2015-12-21T11:44:44", "name": "00060 - ROQUELAINE", "lat": 43.61263652233987}, "type": "Feature", "geometry": {"type": "Point", "coordinates": [1.448541598385468, 43.61263652233987]}}, {"properties": {"stands": 22, "address": "5 PL ROBERT SCHUMAN", "bikes": 2, "lon": 1.449367822982907, "status": "OPEN", "update": "2015-12-21T11:39:18", "name": "00036 - PLACE SCHUMAN", "lat": 43.609623167283914}, "type": "Feature", "geometry": {"type": "Point", "coordinates": [1.449367822982907, 43.609623167283914]}}, {"properties": {"stands": 13, "address": "118  RTE DE NARBONNE", "bikes": 7, "lon": 1.462869145576551, "status": "OPEN", "update": "2015-12-21T11:39:26", "name": "00227 - METRO UPS", "lat": 43.56160969546884}, "type": "Feature", "geometry": {"type": "Point", "coordinates": [1.462869145576551, 43.56160969546884]}}, {"properties": {"stands": 3, "address": "187 RUE HENRI DESBALS", "bikes": 14, "lon": 1.415543960373121, "status": "OPEN", "update": "2015-12-21T11:44:00", "name": "00187 - DESBALS MONTDORE", "lat": 43.584523123495174}, "type": "Feature", "geometry": {"type": "Point", "coordinates": [1.415543960373121, 43.584523123495174]}}, {"properties": {"stands": 13, "address": "AVENUE EDOUARD BELIN DEVANT ONERA", "bikes": 7, "lon": 1.473268554354084, "status": "OPEN", "update": "2015-12-21T11:44:50", "name": "00225 - BELIN ONERA", "lat": 43.56947707206279}, "type": "Feature", "geometry": {"type": "Point", "coordinates": [1.473268554354084, 43.56947707206279]}}, {"properties": {"stands": 20, "address": "19T ALL DE BRIENNE", "bikes": 4, "lon": 1.432687682718845, "status": "OPEN", "update": "2015-12-21T11:38:23", "name": "00084 - BRIENNE MANUFACTURE", "lat": 43.60524239596951}, "type": "Feature", "geometry": {"type": "Point", "coordinates": [1.432687682718845, 43.60524239596951]}}, {"properties": {"stands": 17, "address": "ALL DE LIMAYRAC", "bikes": 1, "lon": 1.480087483756261, "status": "OPEN", "update": "2015-12-21T11:35:27", "name": "00208 - LIMAYRAC/ DARASSE", "lat": 43.59122002356995}, "type": "Feature", "geometry": {"type": "Point", "coordinates": [1.480087483756261, 43.59122002356995]}}, {"properties": {"stands": 18, "address": "15 RUE PAUL BERNIES", "bikes": 0, "lon": 1.414597471267562, "status": "OPEN", "update": "2015-12-21T11:37:05", "name": "00131 - BERNIES", "lat": 43.61174111564092}, "type": "Feature", "geometry": {"type": "Point", "coordinates": [1.414597471267562, 43.61174111564092]}}, {"properties": {"stands": 18, "address": "53 RUE STE LUCIE", "bikes": 0, "lon": 1.429880706043356, "status": "OPEN", "update": "2015-12-21T11:37:34", "name": "00037 - STE LUCIE", "lat": 43.593506929037055}, "type": "Feature", "geometry": {"type": "Point", "coordinates": [1.429880706043356, 43.593506929037055]}}, {"properties": {"stands": 9, "address": "38 RUE DE LA TOURAINE ANGLE RUE D AUVERGNE 31000 TOULOUSE", "bikes": 10, "lon": 1.41398, "status": "OPEN", "update": "2015-12-21T11:37:51", "name": "00266 - TOURAINE", "lat": 43.57375}, "type": "Feature", "geometry": {"type": "Point", "coordinates": [1.41398, 43.57375]}}, {"properties": {"stands": 2, "address": "1 PL LANGE", "bikes": 17, "lon": 1.434138106708093, "status": "OPEN", "update": "2015-12-21T11:36:55", "name": "00079 - PLACE LANGE", "lat": 43.60112880561738}, "type": "Feature", "geometry": {"type": "Point", "coordinates": [1.434138106708093, 43.60112880561738]}}, {"properties": {"stands": 11, "address": "FACE 42 CHE DE LA TERRASSE", "bikes": 7, "lon": 1.483021040946601, "status": "OPEN", "update": "2015-12-21T11:35:36", "name": "00210 - TERRASSE/ CENTRE CO.", "lat": 43.586074956653995}, "type": "Feature", "geometry": {"type": "Point", "coordinates": [1.483021040946601, 43.586074956653995]}}, {"properties": {"stands": 10, "address": "12 PL LAGANNE", "bikes": 11, "lon": 1.436590757220506, "status": "OPEN", "update": "2015-12-21T11:37:40", "name": "00075 - CHATEAU D EAU", "lat": 43.598542607102175}, "type": "Feature", "geometry": {"type": "Point", "coordinates": [1.436590757220506, 43.598542607102175]}}, {"properties": {"stands": 8, "address": "FACE 85 RUE VAUQUELIN", "bikes": 12, "lon": 1.406488768851485, "status": "OPEN", "update": "2015-12-21T11:39:01", "name": "00221 - VAUQUELIN", "lat": 43.57641895477528}, "type": "Feature", "geometry": {"type": "Point", "coordinates": [1.406488768851485, 43.57641895477528]}}, {"properties": {"stands": 16, "address": "18 B GRANDE RUE ST MICHEL", "bikes": 7, "lon": 1.447411881616044, "status": "OPEN", "update": "2015-12-21T11:37:43", "name": "00128 - PRISON ST MICHEL", "lat": 43.58589564207925}, "type": "Feature", "geometry": {"type": "Point", "coordinates": [1.447411881616044, 43.58589564207925]}}, {"properties": {"stands": 12, "address": "2 PLACE DU BUSCA", "bikes": 5, "lon": 1.450764528471522, "status": "OPEN", "update": "2015-12-21T11:35:43", "name": "00118 - PLACE DU BUSCA", "lat": 43.58817925392077}, "type": "Feature", "geometry": {"type": "Point", "coordinates": [1.450764528471522, 43.58817925392077]}}, {"properties": {"stands": 2, "address": "1 BIS ALLEE JULES GUESDE", "bikes": 14, "lon": 1.44455, "status": "OPEN", "update": "2015-12-21T11:44:48", "name": "00068 - METRO - PALAIS DE JUSTICE", "lat": 43.59265}, "type": "Feature", "geometry": {"type": "Point", "coordinates": [1.44455, 43.59265]}}, {"properties": {"stands": 13, "address": "96 RUE DE CHAUSSAS", "bikes": 6, "lon": 1.428966282419491, "status": "OPEN", "update": "2015-12-21T11:42:54", "name": "00147 - CHAUSSAS - DAUDET", "lat": 43.61990748467363}, "type": "Feature", "geometry": {"type": "Point", "coordinates": [1.428966282419491, 43.61990748467363]}}, {"properties": {"stands": 5, "address": "12 AV BOURGES MAUNOURY", "bikes": 13, "lon": 1.447936286895422, "status": "OPEN", "update": "2015-12-21T11:42:11", "name": "00153 - BOURGES MAUNOURY", "lat": 43.628469420497346}, "type": "Feature", "geometry": {"type": "Point", "coordinates": [1.447936286895422, 43.628469420497346]}}, {"properties": {"stands": 13, "address": "Devant N\u00b026 Chemin de Borderouge", "bikes": 5, "lon": 1.45632, "status": "OPEN", "update": "2015-12-21T11:39:43", "name": "00262 - ROND POINT CHEMIN DE BORDEROUGE", "lat": 43.64265}, "type": "Feature", "geometry": {"type": "Point", "coordinates": [1.45632, 43.64265]}}, {"properties": {"stands": 10, "address": "105 RTE DE NARBONNE", "bikes": 10, "lon": 1.458852500499583, "status": "OPEN", "update": "2015-12-21T11:38:49", "name": "00233 - NARBONNE /SAHUQUE", "lat": 43.56641276350635}, "type": "Feature", "geometry": {"type": "Point", "coordinates": [1.458852500499583, 43.56641276350635]}}, {"properties": {"stands": 14, "address": "63 BD LAZARE CARNOT", "bikes": 11, "lon": 1.450245130369442, "status": "OPEN", "update": "2015-12-21T11:40:05", "name": "00021 - CARNOT LABEDA", "lat": 43.60411143798555}, "type": "Feature", "geometry": {"type": "Point", "coordinates": [1.450245130369442, 43.60411143798555]}}, {"properties": {"stands": 19, "address": "71 ALL JEAN JAURES", "bikes": 3, "lon": 1.45336004007864, "status": "OPEN", "update": "2015-12-21T11:40:08", "name": "00062 - JAURES STALINGRAD", "lat": 43.609044644058145}, "type": "Feature", "geometry": {"type": "Point", "coordinates": [1.45336004007864, 43.609044644058145]}}, {"properties": {"stands": 9, "address": "93 RUE ERNEST RENAN ANGLE RUE VITRY", "bikes": 9, "lon": 1.443751822397876, "status": "OPEN", "update": "2015-12-21T11:39:36", "name": "00244 - RENAN / VITRY", "lat": 43.635706776069696}, "type": "Feature", "geometry": {"type": "Point", "coordinates": [1.443751822397876, 43.635706776069696]}}, {"properties": {"stands": 5, "address": "103 BIS AVENUE DE GRANDE BRETAGNE ANGLE RUE BADIOU", "bikes": 15, "lon": 1.41518438915584, "status": "OPEN", "update": "2015-12-21T11:44:13", "name": "00245 - GRANDE BRETAGNE / BADIOU", "lat": 43.59990824072129}, "type": "Feature", "geometry": {"type": "Point", "coordinates": [1.41518438915584, 43.59990824072129]}}, {"properties": {"stands": 8, "address": "Avenue duclos angle Avenue de Fronton", "bikes": 10, "lon": 1.43379, "status": "OPEN", "update": "2015-12-21T11:43:37", "name": "00260 - DUCLOS - FRONTON", "lat": 43.64495}, "type": "Feature", "geometry": {"type": "Point", "coordinates": [1.43379, 43.64495]}}, {"properties": {"stands": 13, "address": "FACE 35 CHEMIN DES MARAICHERS", "bikes": 5, "lon": 1.464456852027628, "status": "OPEN", "update": "2015-12-21T11:40:29", "name": "00228 - METRO PHARMACIE", "lat": 43.567716505871594}, "type": "Feature", "geometry": {"type": "Point", "coordinates": [1.464456852027628, 43.567716505871594]}}, {"properties": {"stands": 8, "address": "FACE AU 8 RUE PAUL VERLAINE", "bikes": 11, "lon": 1.43538536091475, "status": "OPEN", "update": "2015-12-21T11:42:27", "name": "00235 - PAUL VERLAINE", "lat": 43.6333722270955}, "type": "Feature", "geometry": {"type": "Point", "coordinates": [1.43538536091475, 43.6333722270955]}}, {"properties": {"stands": 3, "address": "78 BD PIERRE ET MARIE CURIE", "bikes": 15, "lon": 1.439870900566373, "status": "OPEN", "update": "2015-12-21T11:41:46", "name": "00150 - CURIE CAMPISTRON", "lat": 43.62593095954932}, "type": "Feature", "geometry": {"type": "Point", "coordinates": [1.439870900566373, 43.62593095954932]}}, {"properties": {"stands": 5, "address": "151 AVENUE DE CASSELARDIT SORTIE VILLE 31000 TOULOUSE", "bikes": 15, "lon": 1.39711, "status": "OPEN", "update": "2015-12-21T11:45:13", "name": "00271 - ANCELY", "lat": 43.61948}, "type": "Feature", "geometry": {"type": "Point", "coordinates": [1.39711, 43.61948]}}, {"properties": {"stands": 14, "address": "11 RUE HENRI BERALDI", "bikes": 1, "lon": 1.443570238387108, "status": "OPEN", "update": "2015-12-21T11:38:00", "name": "00033 - BERALDI", "lat": 43.608568713084686}, "type": "Feature", "geometry": {"type": "Point", "coordinates": [1.443570238387108, 43.608568713084686]}}, {"properties": {"stands": 9, "address": "RUE HENRI EBELOT", "bikes": 11, "lon": 1.461191671613412, "status": "OPEN", "update": "2015-12-21T11:39:16", "name": "00172 - NETWILLER / LAFORGUE", "lat": 43.642833569777416}, "type": "Feature", "geometry": {"type": "Point", "coordinates": [1.461191671613412, 43.642833569777416]}}, {"properties": {"stands": 7, "address": "152 ALL DE BARCELONE", "bikes": 11, "lon": 1.420545407442975, "status": "OPEN", "update": "2015-12-21T11:35:31", "name": "00120 - PONTS JUMEAUX", "lat": 43.61035351524297}, "type": "Feature", "geometry": {"type": "Point", "coordinates": [1.420545407442975, 43.61035351524297]}}, {"properties": {"stands": 5, "address": "42 CHE AMOUROUX", "bikes": 13, "lon": 1.466442513411802, "status": "OPEN", "update": "2015-12-21T11:37:09", "name": "00217 - AMOUROUX/ ST TROPEZ", "lat": 43.629671600633195}, "type": "Feature", "geometry": {"type": "Point", "coordinates": [1.466442513411802, 43.629671600633195]}}, {"properties": {"stands": 8, "address": "25 AV MAURICE BOURGES MAUNOURY", "bikes": 11, "lon": 1.450535969934731, "status": "OPEN", "update": "2015-12-21T11:41:53", "name": "00173 - MAUNOURY / SEGELA", "lat": 43.6331828272491}, "type": "Feature", "geometry": {"type": "Point", "coordinates": [1.450535969934731, 43.6331828272491]}}, {"properties": {"stands": 7, "address": "145 RUE HENRI DESBALS", "bikes": 13, "lon": 1.413431676051568, "status": "OPEN", "update": "2015-12-21T11:37:42", "name": "00143 - DESBALS SAINTONGE", "lat": 43.5813322052426}, "type": "Feature", "geometry": {"type": "Point", "coordinates": [1.413431676051568, 43.5813322052426]}}, {"properties": {"stands": 4, "address": "99 ALL DE BRIENNE", "bikes": 17, "lon": 1.42386687477895, "status": "OPEN", "update": "2015-12-21T11:37:36", "name": "00106 - BRIENNE PASSERELLE", "lat": 43.60842211156853}, "type": "Feature", "geometry": {"type": "Point", "coordinates": [1.42386687477895, 43.60842211156853]}}, {"properties": {"stands": 7, "address": "1 RUE DE CHAUSSAS", "bikes": 16, "lon": 1.43288072066524, "status": "OPEN", "update": "2015-12-21T11:43:19", "name": "00123 - CHAUSSAS EMBOUCHURE", "lat": 43.61492465117555}, "type": "Feature", "geometry": {"type": "Point", "coordinates": [1.43288072066524, 43.61492465117555]}}, {"properties": {"stands": 7, "address": "5 RUE DES LOIS", "bikes": 13, "lon": 1.442101445768934, "status": "OPEN", "update": "2015-12-21T11:44:37", "name": "00006 - LOIS", "lat": 43.605203861405954}, "type": "Feature", "geometry": {"type": "Point", "coordinates": [1.442101445768934, 43.605203861405954]}}, {"properties": {"stands": 10, "address": "CHEMIN DU CHATEAU DE L'HERS ANGLE CHEMIN FONTANELLES 31000 TOULOUSE", "bikes": 6, "lon": 1.48346, "status": "OPEN", "update": "2015-12-21T11:44:29", "name": "00257 - CHATEAU DE L'HERS", "lat": 43.60086}, "type": "Feature", "geometry": {"type": "Point", "coordinates": [1.48346, 43.60086]}}, {"properties": {"stands": 12, "address": "RUE RAYMOND IV", "bikes": 9, "lon": 1.451476646620887, "status": "OPEN", "update": "2015-12-21T11:38:03", "name": "00097 - RAYMOND IV", "lat": 43.61243588156053}, "type": "Feature", "geometry": {"type": "Point", "coordinates": [1.451476646620887, 43.61243588156053]}}, {"properties": {"stands": 4, "address": "395 ROUTE DE SAINT SIMON", "bikes": 14, "lon": 1.415183785619737, "status": "OPEN", "update": "2015-12-21T11:36:41", "name": "00191 - RUE DU 14 JUILLET", "lat": 43.58998499389323}, "type": "Feature", "geometry": {"type": "Point", "coordinates": [1.415183785619737, 43.58998499389323]}}, {"properties": {"stands": 6, "address": "62 BD LAZARE CARNOT", "bikes": 18, "lon": 1.449072022617868, "status": "OPEN", "update": "2015-12-21T11:41:03", "name": "00019 - CARNOT PERI", "lat": 43.60557592007205}, "type": "Feature", "geometry": {"type": "Point", "coordinates": [1.449072022617868, 43.60557592007205]}}, {"properties": {"stands": 14, "address": "RUE DE LA CHAUMIERE", "bikes": 2, "lon": 1.465376125032407, "status": "OPEN", "update": "2015-12-21T11:44:10", "name": "00212 - CHAUMIERE/ CRETES", "lat": 43.615227374108336}, "type": "Feature", "geometry": {"type": "Point", "coordinates": [1.465376125032407, 43.615227374108336]}}, {"properties": {"stands": 11, "address": "5 CH CASSAING", "bikes": 6, "lon": 1.473505161008297, "status": "OPEN", "update": "2015-12-21T11:35:51", "name": "00179 - CASSAING PLANA", "lat": 43.61680265241856}, "type": "Feature", "geometry": {"type": "Point", "coordinates": [1.473505161008297, 43.61680265241856]}}, {"properties": {"stands": 12, "address": "PL ROGER ARNAUD", "bikes": 6, "lon": 1.463164045792265, "status": "OPEN", "update": "2015-12-21T11:41:23", "name": "00204 - PL. ROGER ARNAUD", "lat": 43.58677914294868}, "type": "Feature", "geometry": {"type": "Point", "coordinates": [1.463164045792265, 43.58677914294868]}}, {"properties": {"stands": 13, "address": "8 ALLEE DE L EGLISE BONNEFOY", "bikes": 6, "lon": 1.456658754907086, "status": "OPEN", "update": "2015-12-21T11:41:37", "name": "00134 - EGLISE BONNEFOY", "lat": 43.61894094381528}, "type": "Feature", "geometry": {"type": "Point", "coordinates": [1.456658754907086, 43.61894094381528]}}, {"properties": {"stands": 6, "address": "47 ALLEE BRANLY", "bikes": 14, "lon": 1.452936514925397, "status": "OPEN", "update": "2015-12-21T11:44:57", "name": "00112 - PLACE RUSSEL - BRANLY", "lat": 43.585266840172814}, "type": "Feature", "geometry": {"type": "Point", "coordinates": [1.452936514925397, 43.585266840172814]}}, {"properties": {"stands": 7, "address": "57 Route D'Espagne", "bikes": 13, "lon": 1.424432564672875, "status": "OPEN", "update": "2015-12-21T11:44:11", "name": "00241 - ESPAGNE CHARPENTIER", "lat": 43.574576545136445}, "type": "Feature", "geometry": {"type": "Point", "coordinates": [1.424432564672875, 43.574576545136445]}}, {"properties": {"stands": 9, "address": "RUE DE CUGNAUX", "bikes": 9, "lon": 1.42463077628583, "status": "OPEN", "update": "2015-12-21T11:44:55", "name": "00183 - RUE DE CUGNAUX", "lat": 43.5931301810241}, "type": "Feature", "geometry": {"type": "Point", "coordinates": [1.42463077628583, 43.5931301810241]}}, {"properties": {"stands": 3, "address": "18 RUE BONNEFOY", "bikes": 19, "lon": 1.454339701099757, "status": "OPEN", "update": "2015-12-21T11:39:18", "name": "00126 - ECOLE BONNEFOY", "lat": 43.61689063107848}, "type": "Feature", "geometry": {"type": "Point", "coordinates": [1.454339701099757, 43.61689063107848]}}, {"properties": {"stands": 1, "address": "2 RUE DES MOUETTES ANGLE ALLEES SELLIER 31000 TOULOUSE", "bikes": 15, "lon": 1.44009, "status": "OPEN", "update": "2015-12-21T11:36:13", "name": "00255 - HENRI SELLIER", "lat": 43.57705}, "type": "Feature", "geometry": {"type": "Point", "coordinates": [1.44009, 43.57705]}}, {"properties": {"stands": 0, "address": "14 PL SAINT ETIENNE", "bikes": 22, "lon": 1.450179100392055, "status": "OPEN", "update": "2015-12-21T11:44:12", "name": "00024 - PLACE SAINT ETIENNE", "lat": 43.600398667412286}, "type": "Feature", "geometry": {"type": "Point", "coordinates": [1.450179100392055, 43.600398667412286]}}, {"properties": {"stands": 19, "address": "6 RUE JEAN GOUJON", "bikes": 1, "lon": 1.458048662941769, "status": "OPEN", "update": "2015-12-21T11:38:45", "name": "00196 - GOUJON - GUILHEMERY", "lat": 43.6017932127447}, "type": "Feature", "geometry": {"type": "Point", "coordinates": [1.458048662941769, 43.6017932127447]}}, {"properties": {"stands": 9, "address": "RUE ST ROCH FACE RUE ELVIRE 31000 TOULOUSE", "bikes": 9, "lon": 1.44649, "status": "OPEN", "update": "2015-12-21T11:45:14", "name": "281 - NIEL", "lat": 43.57886}, "type": "Feature", "geometry": {"type": "Point", "coordinates": [1.44649, 43.57886]}}, {"properties": {"stands": 15, "address": "27 AV DES MINIMES", "bikes": 3, "lon": 1.436875386155235, "status": "OPEN", "update": "2015-12-21T11:39:41", "name": "00124 - EGLISE DES MINIMES", "lat": 43.61814891164924}, "type": "Feature", "geometry": {"type": "Point", "coordinates": [1.436875386155235, 43.61814891164924]}}, {"properties": {"stands": 15, "address": "FACE 25 RUE DE L AUDE", "bikes": 2, "lon": 1.481508972569192, "status": "OPEN", "update": "2015-12-21T11:39:50", "name": "00207 - CHRIST ROI", "lat": 43.58300698375498}, "type": "Feature", "geometry": {"type": "Point", "coordinates": [1.481508972569192, 43.58300698375498]}}, {"properties": {"stands": 15, "address": "2 PL DE LA DAURADE", "bikes": 8, "lon": 1.44026, "status": "OPEN", "update": "2015-12-21T11:35:22", "name": "00011 - PLACE DE LA DAURADE", "lat": 43.60215}, "type": "Feature", "geometry": {"type": "Point", "coordinates": [1.44026, 43.60215]}}, {"properties": {"stands": 15, "address": "1 IMPASSE BACHAGA BOUALAM", "bikes": 3, "lon": 1.41112908179427, "status": "OPEN", "update": "2015-12-21T11:40:28", "name": "00186 - DESBALS BOUALAM", "lat": 43.5792182218804}, "type": "Feature", "geometry": {"type": "Point", "coordinates": [1.41112908179427, 43.5792182218804]}}, {"properties": {"stands": 10, "address": "161/163 AV DE NEGRENEYS SUR ILOT CENTRAL", "bikes": 7, "lon": 1.44404, "status": "OPEN", "update": "2015-12-21T11:39:56", "name": "00252 - NEGRENEYS /CASENEUVE", "lat": 43.62687}, "type": "Feature", "geometry": {"type": "Point", "coordinates": [1.44404, 43.62687]}}, {"properties": {"stands": 9, "address": "70 CHEMIN MICHOUN", "bikes": 11, "lon": 1.469362217455508, "status": "OPEN", "update": "2015-12-21T11:37:45", "name": "00184 - MICHOUN", "lat": 43.62727712277727}, "type": "Feature", "geometry": {"type": "Point", "coordinates": [1.469362217455508, 43.62727712277727]}}, {"properties": {"stands": 8, "address": "35 AV DE RANGUEIL", "bikes": 6, "lon": 1.454915112024358, "status": "OPEN", "update": "2015-12-21T11:45:13", "name": "00161 - RANGUEIL - BEDOUCE", "lat": 43.57644751100008}, "type": "Feature", "geometry": {"type": "Point", "coordinates": [1.454915112024358, 43.57644751100008]}}, {"properties": {"stands": 14, "address": "avenue des Ar\u00e8nes Romaines, avant place du docteur Baylac 31000 TOULOUSE", "bikes": 8, "lon": 1.3972, "status": "OPEN", "update": "2015-12-21T11:42:40", "name": "00268 - PLACE BAYLAC", "lat": 43.60868}, "type": "Feature", "geometry": {"type": "Point", "coordinates": [1.3972, 43.60868]}}, {"properties": {"stands": 12, "address": "1 AV PAUL SEJOURNE", "bikes": 9, "lon": 1.427969819484834, "status": "OPEN", "update": "2015-12-21T11:40:09", "name": "00082 - SEJOURNE CATALANS", "lat": 43.605562378447424}, "type": "Feature", "geometry": {"type": "Point", "coordinates": [1.427969819484834, 43.605562378447424]}}, {"properties": {"stands": 12, "address": "5 PLACE DU FER A CHEVAL", "bikes": 4, "lon": 1.43421, "status": "OPEN", "update": "2015-12-21T11:38:54", "name": "00070 - FER A CHEVAL", "lat": 43.59253}, "type": "Feature", "geometry": {"type": "Point", "coordinates": [1.43421, 43.59253]}}, {"properties": {"stands": 2, "address": "237 RUE HENRI DESBALS", "bikes": 16, "lon": 1.418128481713567, "status": "OPEN", "update": "2015-12-21T11:37:46", "name": "00141 - FONTAINE LESTANG", "lat": 43.587583195522946}, "type": "Feature", "geometry": {"type": "Point", "coordinates": [1.418128481713567, 43.587583195522946]}}, {"properties": {"stands": 14, "address": "2 BD SEBASTOPOL", "bikes": 6, "lon": 1.428790629053277, "status": "OPEN", "update": "2015-12-21T11:39:30", "name": "00108 - SEBASTOPOL - RITAY", "lat": 43.612283701347906}, "type": "Feature", "geometry": {"type": "Point", "coordinates": [1.428790629053277, 43.612283701347906]}}, {"properties": {"stands": 16, "address": "2 BD DU MARECHAL LECLERC", "bikes": 6, "lon": 1.430598716260075, "status": "OPEN", "update": "2015-12-21T11:39:47", "name": "00085 - MARECHAL LECLERC", "lat": 43.606708008560005}, "type": "Feature", "geometry": {"type": "Point", "coordinates": [1.430598716260075, 43.606708008560005]}}, {"properties": {"stands": 9, "address": "165 AV ANTOINE DE ST EXUPERY", "bikes": 8, "lon": 1.476002176599847, "status": "OPEN", "update": "2015-12-21T11:42:56", "name": "00202 - ST EX. - COURREGE", "lat": 43.58166894906154}, "type": "Feature", "geometry": {"type": "Point", "coordinates": [1.476002176599847, 43.58166894906154]}}, {"properties": {"stands": 18, "address": "18 ALLEE FREDERIC MISTRAL", "bikes": 1, "lon": 1.453042492588597, "status": "OPEN", "update": "2015-12-21T11:37:05", "name": "00102 -  MISTRAL - FLEURANCE", "lat": 43.593599912488976}, "type": "Feature", "geometry": {"type": "Point", "coordinates": [1.453042492588597, 43.593599912488976]}}, {"properties": {"stands": 13, "address": "40 PL ANATOLE FRANCE", "bikes": 12, "lon": 1.438224999266949, "status": "OPEN", "update": "2015-12-21T11:38:00", "name": "00030 - PLACE ANATOLE FRANCE", "lat": 43.60629527233212}, "type": "Feature", "geometry": {"type": "Point", "coordinates": [1.438224999266949, 43.60629527233212]}}, {"properties": {"stands": 9, "address": "FACE 163 CHEMIN NICOLE", "bikes": 8, "lon": 1.464148138450798, "status": "OPEN", "update": "2015-12-21T11:37:06", "name": "00170 - ROUTE D ALBI   / CUVIER", "lat": 43.635666512128225}, "type": "Feature", "geometry": {"type": "Point", "coordinates": [1.464148138450798, 43.635666512128225]}}, {"properties": {"stands": 0, "address": "296 route de Seysses", "bikes": 18, "lon": 1.41954, "status": "OPEN", "update": "2015-12-21T11:37:52", "name": "00274 - GALLIENI", "lat": 43.574}, "type": "Feature", "geometry": {"type": "Point", "coordinates": [1.41954, 43.574]}}, {"properties": {"stands": 17, "address": "129 AV DE CASTRES", "bikes": 0, "lon": 1.467514131065815, "status": "OPEN", "update": "2015-12-21T11:40:31", "name": "00213 - PUJOL/ CHAUBET", "lat": 43.60075517705335}, "type": "Feature", "geometry": {"type": "Point", "coordinates": [1.467514131065815, 43.60075517705335]}}, {"properties": {"stands": 1, "address": "52 RUE DES COUTELIERS", "bikes": 15, "lon": 1.441434965295236, "status": "OPEN", "update": "2015-12-21T11:45:13", "name": "00049 - COUTELIER - METZ", "lat": 43.599589544431005}, "type": "Feature", "geometry": {"type": "Point", "coordinates": [1.441434965295236, 43.599589544431005]}}, {"properties": {"stands": 13, "address": "41 BD ARMAND DUPORTAL", "bikes": 8, "lon": 1.434650096062823, "status": "OPEN", "update": "2015-12-21T11:39:48", "name": "00052 - DUPORTAL CITE ADMIN.", "lat": 43.60864745421513}, "type": "Feature", "geometry": {"type": "Point", "coordinates": [1.434650096062823, 43.60864745421513]}}, {"properties": {"stands": 17, "address": "219 AV DE MURET", "bikes": 1, "lon": 1.43104, "status": "OPEN", "update": "2015-12-21T11:41:00", "name": "00104 - MURET BARTHERE", "lat": 43.58903}, "type": "Feature", "geometry": {"type": "Point", "coordinates": [1.43104, 43.58903]}}, {"properties": {"stands": 5, "address": "1 RUE DE L ESQUILE", "bikes": 10, "lon": 1.441331077590377, "status": "OPEN", "update": "2015-12-21T11:42:00", "name": "00013 - LOIS ESQUILE", "lat": 43.60621318190248}, "type": "Feature", "geometry": {"type": "Point", "coordinates": [1.441331077590377, 43.60621318190248]}}, {"properties": {"stands": 7, "address": "2 BD DEODAT DE SEVERAC", "bikes": 9, "lon": 1.4278, "status": "OPEN", "update": "2015-12-21T11:43:13", "name": "00129 - CROIX DE PIERRE", "lat": 43.58588}, "type": "Feature", "geometry": {"type": "Point", "coordinates": [1.4278, 43.58588]}}, {"properties": {"stands": 10, "address": "57 AV DE L URSS", "bikes": 10, "lon": 1.449135738584587, "status": "OPEN", "update": "2015-12-21T11:45:19", "name": "00158 - URSS ST THOMAS D AQUIN", "lat": 43.580795461338795}, "type": "Feature", "geometry": {"type": "Point", "coordinates": [1.449135738584587, 43.580795461338795]}}, {"properties": {"stands": 16, "address": "RUE CREMON", "bikes": 4, "lon": 1.458930207887618, "status": "OPEN", "update": "2015-12-21T11:44:41", "name": "00168 - BILA   /  ROUTE D ALBI", "lat": 43.626509813353074}, "type": "Feature", "geometry": {"type": "Point", "coordinates": [1.458930207887618, 43.626509813353074]}}, {"properties": {"stands": 6, "address": "147 RTE D'ALBI", "bikes": 13, "lon": 1.46521198710394, "status": "OPEN", "update": "2015-12-21T11:40:13", "name": "00249 - CROIX DAURADE", "lat": 43.63812899582609}, "type": "Feature", "geometry": {"type": "Point", "coordinates": [1.46521198710394, 43.63812899582609]}}, {"properties": {"stands": 18, "address": "face au 20 port st sauveur", "bikes": 2, "lon": 1.4565, "status": "OPEN", "update": "2015-12-21T11:40:07", "name": "00015 - PONT MONTAUDRAN", "lat": 43.59642}, "type": "Feature", "geometry": {"type": "Point", "coordinates": [1.4565, 43.59642]}}, {"properties": {"stands": 7, "address": "ROUTE DE LAUNAGUET ANGLE CHEMIN AUDIBERT", "bikes": 11, "lon": 1.439230135508607, "status": "OPEN", "update": "2015-12-21T11:37:45", "name": "00247 - LAUNAGUET / AUDIBERT", "lat": 43.63677495879212}, "type": "Feature", "geometry": {"type": "Point", "coordinates": [1.439230135508607, 43.63677495879212]}}, {"properties": {"stands": 8, "address": "34 RUE DE LA REPUBLIQUE", "bikes": 14, "lon": 1.435181557097925, "status": "OPEN", "update": "2015-12-21T11:43:02", "name": "00076 - REPUBLIQUE PL. OLIVIER", "lat": 43.59849490883457}, "type": "Feature", "geometry": {"type": "Point", "coordinates": [1.435181557097925, 43.59849490883457]}}, {"properties": {"stands": 11, "address": "59 AV DE LOMBEZ", "bikes": 9, "lon": 1.415377349047291, "status": "OPEN", "update": "2015-12-21T11:43:54", "name": "00193 - LOMBEZ / PETITE VITESSE", "lat": 43.594849382545554}, "type": "Feature", "geometry": {"type": "Point", "coordinates": [1.415377349047291, 43.594849382545554]}}, {"properties": {"stands": 3, "address": "39 RTE D'Espagne", "bikes": 16, "lon": 1.423916022506519, "status": "OPEN", "update": "2015-12-21T11:40:45", "name": "00190 - ESPAGNE LES OUSTALOUS", "lat": 43.57827536338912}, "type": "Feature", "geometry": {"type": "Point", "coordinates": [1.423916022506519, 43.57827536338912]}}, {"properties": {"stands": 6, "address": "AV DES Etats-Unis FACE AU 68 / 70", "bikes": 14, "lon": 1.43168347755474, "status": "OPEN", "update": "2015-12-21T11:44:31", "name": "00253 - ETATS-UNIS / ROBERT", "lat": 43.6319121122554}, "type": "Feature", "geometry": {"type": "Point", "coordinates": [1.43168347755474, 43.6319121122554]}}, {"properties": {"stands": 12, "address": "3 Place SOUPETARD", "bikes": 6, "lon": 1.47765639323401, "status": "OPEN", "update": "2015-12-21T11:35:53", "name": "00180 - PLACE SOUPETARD", "lat": 43.6122515815792}, "type": "Feature", "geometry": {"type": "Point", "coordinates": [1.47765639323401, 43.6122515815792]}}, {"properties": {"stands": 7, "address": "AV ALBERT BEDOUCE", "bikes": 13, "lon": 1.460094426022393, "status": "OPEN", "update": "2015-12-21T11:45:05", "name": "00164 - BEDOUCE SAOUZELONG", "lat": 43.579725432743686}, "type": "Feature", "geometry": {"type": "Point", "coordinates": [1.460094426022393, 43.579725432743686]}}, {"properties": {"stands": 12, "address": "1 BD ARMAND DUPORTAL", "bikes": 6, "lon": 1.434843235786321, "status": "OPEN", "update": "2015-12-21T11:42:56", "name": "00051 - DUPORTAL BRIENNE", "lat": 43.605035688745794}, "type": "Feature", "geometry": {"type": "Point", "coordinates": [1.434843235786321, 43.605035688745794]}}, {"properties": {"stands": 21, "address": "1 RUE RAYMOND IV", "bikes": 4, "lon": 1.4469, "status": "OPEN", "update": "2015-12-21T11:38:15", "name": "00035 - PLACE JEANNE D'ARC", "lat": 43.60964}, "type": "Feature", "geometry": {"type": "Point", "coordinates": [1.4469, 43.60964]}}, {"properties": {"stands": 18, "address": "1 ALL FORAIN FRANCOIS VERDIER", "bikes": 4, "lon": 1.45174992410964, "status": "OPEN", "update": "2015-12-21T11:38:16", "name": "00044 - PALAIS NIEL", "lat": 43.59800264157314}, "type": "Feature", "geometry": {"type": "Point", "coordinates": [1.45174992410964, 43.59800264157314]}}, {"properties": {"stands": 6, "address": "191 RTE D'ALBI", "bikes": 12, "lon": 1.466308391813157, "status": "OPEN", "update": "2015-12-21T11:44:11", "name": "00171 - ROUTE D ALBI / CACTUS", "lat": 43.640897350426606}, "type": "Feature", "geometry": {"type": "Point", "coordinates": [1.466308391813157, 43.640897350426606]}}, {"properties": {"stands": 14, "address": "AV D' ITALIE", "bikes": 2, "lon": 1.45491780578712, "status": "OPEN", "update": "2015-12-21T11:38:26", "name": "00162 - PLACE D'ITALIE", "lat": 43.580276538637605}, "type": "Feature", "geometry": {"type": "Point", "coordinates": [1.45491780578712, 43.580276538637605]}}, {"properties": {"stands": 18, "address": "7 RUE DES SALENQUES", "bikes": 2, "lon": 1.43922052825561, "status": "OPEN", "update": "2015-12-21T11:44:20", "name": "00031 - SALENQUES", "lat": 43.60749002329994}, "type": "Feature", "geometry": {"type": "Point", "coordinates": [1.43922052825561, 43.60749002329994]}}, {"properties": {"stands": 9, "address": "3 BD JEAN BRUNHES", "bikes": 11, "lon": 1.41997369298729, "status": "OPEN", "update": "2015-12-21T11:43:15", "name": "00138 - BARRIERE DE BAYONNE", "lat": 43.598196214598815}, "type": "Feature", "geometry": {"type": "Point", "coordinates": [1.41997369298729, 43.598196214598815]}}, {"properties": {"stands": 22, "address": "80 ALL DES DEMOISELLES", "bikes": 0, "lon": 1.459836309553229, "status": "OPEN", "update": "2015-12-21T11:43:27", "name": "00098 - PONT DES DEMOISELLES", "lat": 43.587677990128874}, "type": "Feature", "geometry": {"type": "Point", "coordinates": [1.459836309553229, 43.587677990128874]}}, {"properties": {"stands": 14, "address": "32 BD DE STRASBOURG", "bikes": 7, "lon": 1.446610770547085, "status": "OPEN", "update": "2015-12-21T11:45:10", "name": "00016 - STRASBOURG BAYARD", "lat": 43.60793763027584}, "type": "Feature", "geometry": {"type": "Point", "coordinates": [1.446610770547085, 43.60793763027584]}}, {"properties": {"stands": 16, "address": "FACE 25 CHEMIN LAFILAIRE", "bikes": 4, "lon": 1.473457600659471, "status": "OPEN", "update": "2015-12-21T11:41:37", "name": "00198 - LAFILAIRE - DELTOUR", "lat": 43.59622771557735}, "type": "Feature", "geometry": {"type": "Point", "coordinates": [1.473457600659471, 43.59622771557735]}}, {"properties": {"stands": 9, "address": "1 RUE MERLY", "bikes": 6, "lon": 1.442808436675486, "status": "OPEN", "update": "2015-12-21T11:44:30", "name": "00056 - SAINT SERNIN  MERLY", "lat": 43.609029818757634}, "type": "Feature", "geometry": {"type": "Point", "coordinates": [1.442808436675486, 43.609029818757634]}}, {"properties": {"stands": 7, "address": "57 CH DU SANG DE SERP", "bikes": 13, "lon": 1.428493330933498, "status": "OPEN", "update": "2015-12-21T11:39:20", "name": "00146 - SANG DE SERP - DAGNAUX", "lat": 43.61541821044434}, "type": "Feature", "geometry": {"type": "Point", "coordinates": [1.428493330933498, 43.61541821044434]}}, {"properties": {"stands": 12, "address": "Place Sauvegrain - angle avenue de Lardenne", "bikes": 6, "lon": 1.37764, "status": "OPEN", "update": "2015-12-21T11:44:40", "name": "00269 - PLACE SAUVEGRAIN", "lat": 43.58996}, "type": "Feature", "geometry": {"type": "Point", "coordinates": [1.37764, 43.58996]}}, {"properties": {"stands": 15, "address": "4 AVENUE DU CH\u00c2TEAU D'EAU", "bikes": 7, "lon": 1.425222752953333, "status": "OPEN", "update": "2015-12-21T11:40:30", "name": "00095 - THEATRE GARONNE", "lat": 43.602528105503815}, "type": "Feature", "geometry": {"type": "Point", "coordinates": [1.425222752953333, 43.602528105503815]}}, {"properties": {"stands": 9, "address": "31 RUE DES CHALETS", "bikes": 6, "lon": 1.441220679302088, "status": "OPEN", "update": "2015-12-21T11:38:52", "name": "00092 - CHALETS", "lat": 43.61325027179293}, "type": "Feature", "geometry": {"type": "Point", "coordinates": [1.441220679302088, 43.61325027179293]}}, {"properties": {"stands": 9, "address": "56 ALL JEAN JAURES", "bikes": 9, "lon": 1.451651418090918, "status": "OPEN", "update": "2015-12-21T11:43:28", "name": "00038 - JAURES BACHELIER", "lat": 43.60754756868432}, "type": "Feature", "geometry": {"type": "Point", "coordinates": [1.451651418090918, 43.60754756868432]}}, {"properties": {"stands": 14, "address": "PLACE EMILE MALE", "bikes": 15, "lon": 1.41868, "status": "OPEN", "update": "2015-12-21T11:42:39", "name": "00140 - EMILE MALE", "lat": 43.59175}, "type": "Feature", "geometry": {"type": "Point", "coordinates": [1.41868, 43.59175]}}, {"properties": {"stands": 18, "address": "1 RUE DU GENERAL COMPANS", "bikes": 0, "lon": 1.458008846441328, "status": "OPEN", "update": "2015-12-21T11:45:19", "name": "00176 - GENERAL COMPANS", "lat": 43.606790468455905}, "type": "Feature", "geometry": {"type": "Point", "coordinates": [1.458008846441328, 43.606790468455905]}}, {"properties": {"stands": 5, "address": "AVENUE EDOUARD BELIN FACE CNRS", "bikes": 15, "lon": 1.479772209704475, "status": "OPEN", "update": "2015-12-21T11:42:51", "name": "00237 - CNRS", "lat": 43.56361464501064}, "type": "Feature", "geometry": {"type": "Point", "coordinates": [1.479772209704475, 43.56361464501064]}}, {"properties": {"stands": 14, "address": "20 AV ARMAND LEYGUE", "bikes": 4, "lon": 1.464668419108617, "status": "OPEN", "update": "2015-12-21T11:43:28", "name": "00206 - LEYGUE/ RIEUX", "lat": 43.594341505924845}, "type": "Feature", "geometry": {"type": "Point", "coordinates": [1.464668419108617, 43.594341505924845]}}, {"properties": {"stands": 8, "address": "17T BD LASCROSSES", "bikes": 16, "lon": 1.435070094381549, "status": "OPEN", "update": "2015-12-21T11:44:24", "name": "00088 - DUPORTAL LASCROSSES", "lat": 43.610250914040755}, "type": "Feature", "geometry": {"type": "Point", "coordinates": [1.435070094381549, 43.610250914040755]}}, {"properties": {"stands": 12, "address": "1 ESP COMPANS CAFFARELLI", "bikes": 11, "lon": 1.436628759028233, "status": "OPEN", "update": "2015-12-21T11:43:56", "name": "00089 - ESP COMPANS CAFFARELLI", "lat": 43.611036915218165}, "type": "Feature", "geometry": {"type": "Point", "coordinates": [1.436628759028233, 43.611036915218165]}}, {"properties": {"stands": 14, "address": "16 ALL PAUL SABATIER", "bikes": 5, "lon": 1.455674042776099, "status": "OPEN", "update": "2015-12-21T11:45:18", "name": "00100 - PORT ST SAUVEUR", "lat": 43.59697406705044}, "type": "Feature", "geometry": {"type": "Point", "coordinates": [1.455674042776099, 43.59697406705044]}}, {"properties": {"stands": 7, "address": "FACE 8 RUE DE GAILLAC", "bikes": 13, "lon": 1.475849028782433, "status": "OPEN", "update": "2015-12-21T11:42:55", "name": "00215 - METRO ARGOULETS", "lat": 43.623814424096544}, "type": "Feature", "geometry": {"type": "Point", "coordinates": [1.475849028782433, 43.623814424096544]}}, {"properties": {"stands": 12, "address": "10 RUE DE LA CHAINE", "bikes": 5, "lon": 1.439762556768512, "status": "OPEN", "update": "2015-12-21T11:35:16", "name": "00054 - CHAINE", "lat": 43.60842033750804}, "type": "Feature", "geometry": {"type": "Point", "coordinates": [1.439762556768512, 43.60842033750804]}}, {"properties": {"stands": 1, "address": "19 RUE PAUL VIDAL", "bikes": 24, "lon": 1.448047137954633, "status": "OPEN", "update": "2015-12-21T11:45:18", "name": "00008 - ESPACE SAINT GEORGES", "lat": 43.60307769477977}, "type": "Feature", "geometry": {"type": "Point", "coordinates": [1.448047137954633, 43.60307769477977]}}, {"properties": {"stands": 11, "address": "10/12 rue zamenhof - 31000 TOuLOUSE", "bikes": 7, "lon": 1.37708, "status": "OPEN", "update": "2015-12-21T11:39:10", "name": "00277 - ZAMENHOF", "lat": 43.58549}, "type": "Feature", "geometry": {"type": "Point", "coordinates": [1.37708, 43.58549]}}, {"properties": {"stands": 15, "address": "48 AV DE CASTRES", "bikes": 2, "lon": 1.473660631896838, "status": "OPEN", "update": "2015-12-21T11:35:22", "name": "00214 - CASTRES/ ACHIARY", "lat": 43.600795440313355}, "type": "Feature", "geometry": {"type": "Point", "coordinates": [1.473660631896838, 43.600795440313355]}}, {"properties": {"stands": 19, "address": "8 BD MONPLAISIR", "bikes": 1, "lon": 1.458007861390548, "status": "OPEN", "update": "2015-12-21T11:36:46", "name": "00114 - BD MONTPLAISIR - CANAL", "lat": 43.59239101222708}, "type": "Feature", "geometry": {"type": "Point", "coordinates": [1.458007861390548, 43.59239101222708]}}, {"properties": {"stands": 2, "address": "21 RUE LAFAYETTE", "bikes": 22, "lon": 1.445285876671779, "status": "OPEN", "update": "2015-12-21T11:43:51", "name": "00002 - LAFAYETTE", "lat": 43.60485265221502}, "type": "Feature", "geometry": {"type": "Point", "coordinates": [1.445285876671779, 43.60485265221502]}}, {"properties": {"stands": 19, "address": "4 BD DELTOUR", "bikes": 2, "lon": 1.470276283956405, "status": "OPEN", "update": "2015-12-21T11:42:35", "name": "00199 - DELTOUR - RIEUX", "lat": 43.591528310013615}, "type": "Feature", "geometry": {"type": "Point", "coordinates": [1.470276283956405, 43.591528310013615]}}, {"properties": {"stands": 18, "address": "AVENUE EDOUARD BELIN ANGLE AV ROCHE", "bikes": 4, "lon": 1.478340741030179, "status": "OPEN", "update": "2015-12-21T11:40:43", "name": "00223 - ENAC", "lat": 43.565104300575406}, "type": "Feature", "geometry": {"type": "Point", "coordinates": [1.478340741030179, 43.565104300575406]}}, {"properties": {"stands": 8, "address": "15 PL ETIENNE ESQUIROL", "bikes": 25, "lon": 1.44544233356215, "status": "OPEN", "update": "2015-12-21T11:43:34", "name": "00010 - PLACE ESQUIROL", "lat": 43.6003776908545}, "type": "Feature", "geometry": {"type": "Point", "coordinates": [1.44544233356215, 43.6003776908545]}}, {"properties": {"stands": 5, "address": "RUE DU 11 NOVEMBRE", "bikes": 13, "lon": 1.414428635946386, "status": "OPEN", "update": "2015-12-21T11:36:23", "name": "00250 - 11 NOVEMBRE", "lat": 43.593097534292575}, "type": "Feature", "geometry": {"type": "Point", "coordinates": [1.414428635946386, 43.593097534292575]}}, {"properties": {"stands": 6, "address": "10 RUE THEODORE OZENNE", "bikes": 13, "lon": 1.447014394243565, "status": "OPEN", "update": "2015-12-21T11:36:37", "name": "00045 - OZENNE", "lat": 43.596327873693475}, "type": "Feature", "geometry": {"type": "Point", "coordinates": [1.447014394243565, 43.596327873693475]}}, {"properties": {"stands": 11, "address": "2 AV PAUL SEJOURNE", "bikes": 6, "lon": 1.428253851896989, "status": "OPEN", "update": "2015-12-21T11:45:06", "name": "00083 - SEJOURNE AMIDONNIERS", "lat": 43.6055917312578}, "type": "Feature", "geometry": {"type": "Point", "coordinates": [1.428253851896989, 43.6055917312578]}}, {"properties": {"stands": 23, "address": "12 RUE DU LANGUEDOC", "bikes": 2, "lon": 1.445531445171338, "status": "OPEN", "update": "2015-12-21T11:37:37", "name": "00047 - NAZARETH LANGUEDOC", "lat": 43.59546175758775}, "type": "Feature", "geometry": {"type": "Point", "coordinates": [1.445531445171338, 43.59546175758775]}}, {"properties": {"stands": 9, "address": "RANGUEIL / CL ROCHE", "bikes": 11, "lon": 1.465370657992508, "status": "OPEN", "update": "2015-12-21T11:43:53", "name": "00231 - NARBONNE MARFAING", "lat": 43.557243695153005}, "type": "Feature", "geometry": {"type": "Point", "coordinates": [1.465370657992508, 43.557243695153005]}}, {"properties": {"stands": 8, "address": "3 RUE JEAN HOUDON", "bikes": 9, "lon": 1.474057401308612, "status": "OPEN", "update": "2015-12-21T11:40:30", "name": "00216 - ARGOULETS HOUDON", "lat": 43.622829380921075}, "type": "Feature", "geometry": {"type": "Point", "coordinates": [1.474057401308612, 43.622829380921075]}}, {"properties": {"stands": 8, "address": "138 AV DE LOMBEZ", "bikes": 12, "lon": 1.410651114174017, "status": "OPEN", "update": "2015-12-21T11:43:13", "name": "00194 - LOMBEZ / HIPPODROME", "lat": 43.594206765269206}, "type": "Feature", "geometry": {"type": "Point", "coordinates": [1.410651114174017, 43.594206765269206]}}, {"properties": {"stands": 10, "address": "87 AVENUE JEAN BAYLET ANGLE CHEMIN CEPIERES", "bikes": 8, "lon": 1.39867, "status": "OPEN", "update": "2015-12-21T11:37:01", "name": "00263 - LYCEE POLYVALENT", "lat": 43.58444}, "type": "Feature", "geometry": {"type": "Point", "coordinates": [1.39867, 43.58444]}}, {"properties": {"stands": 10, "address": "65 RTE D'ALBI", "bikes": 7, "lon": 1.462248097516892, "status": "OPEN", "update": "2015-12-21T11:44:53", "name": "00169 - ALBI  / JAFFARY", "lat": 43.63124672931264}, "type": "Feature", "geometry": {"type": "Point", "coordinates": [1.462248097516892, 43.63124672931264]}}, {"properties": {"stands": 14, "address": "9 PL DE DAMLOUP", "bikes": 5, "lon": 1.452939708828422, "status": "OPEN", "update": "2015-12-21T11:41:06", "name": "00039 - PLACE DAMLOUP", "lat": 43.60583232118379}, "type": "Feature", "geometry": {"type": "Point", "coordinates": [1.452939708828422, 43.60583232118379]}}, {"properties": {"stands": 5, "address": "256 AV ANTOINE DE ST EXUPERY", "bikes": 12, "lon": 1.48049587613679, "status": "OPEN", "update": "2015-12-21T11:39:15", "name": "00201 - POTEZ -ST EXUPERY", "lat": 43.57965532664315}, "type": "Feature", "geometry": {"type": "Point", "coordinates": [1.48049587613679, 43.57965532664315]}}, {"properties": {"stands": 19, "address": "5 PORT SAINT SAUVEUR", "bikes": 1, "lon": 1.456321836591291, "status": "OPEN", "update": "2015-12-21T11:43:00", "name": "00101 - CAPT PORT ST SAUVEUR", "lat": 43.59426485044087}, "type": "Feature", "geometry": {"type": "Point", "coordinates": [1.456321836591291, 43.59426485044087]}}, {"properties": {"stands": 5, "address": "Boulevard Atlanta / Cambard", "bikes": 13, "lon": 1.47643, "status": "OPEN", "update": "2015-12-21T11:43:13", "name": "00258 - CAMBARD", "lat": 43.62957}, "type": "Feature", "geometry": {"type": "Point", "coordinates": [1.47643, 43.62957]}}, {"properties": {"stands": 17, "address": "96 AV JULES JULIEN", "bikes": 3, "lon": 1.450284083376377, "status": "OPEN", "update": "2015-12-21T11:43:12", "name": "00159 - U.R.S.S DEVIC", "lat": 43.5785038852904}, "type": "Feature", "geometry": {"type": "Point", "coordinates": [1.450284083376377, 43.5785038852904]}}, {"properties": {"stands": 13, "address": "23 ALL CHARLES DE FITTE", "bikes": 7, "lon": 1.432688307877285, "status": "OPEN", "update": "2015-12-21T11:38:11", "name": "00072 - FITTE CUGNAUX", "lat": 43.59504949175626}, "type": "Feature", "geometry": {"type": "Point", "coordinates": [1.432688307877285, 43.59504949175626]}}, {"properties": {"stands": 9, "address": "Devant le N\u00b06 rue Van Dyck avant angle rue Raphael - 31000 TOULOUSE", "bikes": 9, "lon": 1.4401, "status": "OPEN", "update": "2015-12-21T11:39:08", "name": "00261 - VAN DYCK - LAUNAGUET", "lat": 43.64066}, "type": "Feature", "geometry": {"type": "Point", "coordinates": [1.4401, 43.64066]}}, {"properties": {"stands": 7, "address": "27 BD PIERRE ET MARIE CURIE", "bikes": 17, "lon": 1.443059611732516, "status": "OPEN", "update": "2015-12-21T11:42:17", "name": "00151 - CURIE - NEGRENEYS", "lat": 43.62459108857192}, "type": "Feature", "geometry": {"type": "Point", "coordinates": [1.443059611732516, 43.62459108857192]}}, {"properties": {"stands": 11, "address": "AVENUE DES HERBETTES", "bikes": 6, "lon": 1.473118127213999, "status": "OPEN", "update": "2015-12-21T11:36:31", "name": "00238 - HERBETTES / BUTTE", "lat": 43.579425835630786}, "type": "Feature", "geometry": {"type": "Point", "coordinates": [1.473118127213999, 43.579425835630786]}}, {"properties": {"stands": 15, "address": "89B ALL CHARLES DE FITTE", "bikes": 8, "lon": 1.429275168509917, "status": "OPEN", "update": "2015-12-21T11:40:20", "name": "00080 - FITTE VARSI", "lat": 43.59970386767416}, "type": "Feature", "geometry": {"type": "Point", "coordinates": [1.429275168509917, 43.59970386767416]}}, {"properties": {"stands": 13, "address": "15 RUE MERLY", "bikes": 1, "lon": 1.4431072280246, "status": "OPEN", "update": "2015-12-21T11:35:32", "name": "00057 - MERLY ARCOLE", "lat": 43.610488427425665}, "type": "Feature", "geometry": {"type": "Point", "coordinates": [1.4431072280246, 43.610488427425665]}}, {"properties": {"stands": 21, "address": "4 RUE DE LA CONCORDE", "bikes": 3, "lon": 1.443637125697445, "status": "OPEN", "update": "2015-12-21T11:43:35", "name": "00058 - CONCORDE ARCOLE", "lat": 43.6106186453129}, "type": "Feature", "geometry": {"type": "Point", "coordinates": [1.443637125697445, 43.6106186453129]}}, {"properties": {"stands": 8, "address": "Boulevard Atlanta / apr\u00e8s angle rue vasseur - 31000 TOULOUSE", "bikes": 9, "lon": 1.47297, "status": "OPEN", "update": "2015-12-21T11:41:35", "name": "00272 - ANDRE VASSEUR", "lat": 43.63539}, "type": "Feature", "geometry": {"type": "Point", "coordinates": [1.47297, 43.63539]}}, {"properties": {"stands": 18, "address": "AVENUE DU COLONEL ROCHE", "bikes": 2, "lon": 1.47517386253435, "status": "OPEN", "update": "2015-12-21T11:43:00", "name": "00222 - CAMBOU / ROCHE", "lat": 43.5628140764194}, "type": "Feature", "geometry": {"type": "Point", "coordinates": [1.47517386253435, 43.5628140764194]}}, {"properties": {"stands": 14, "address": "15 RUE SAINTE URSULE", "bikes": 6, "lon": 1.442047437838665, "status": "OPEN", "update": "2015-12-21T11:38:22", "name": "00004 - STE URSULE", "lat": 43.60233609279122}, "type": "Feature", "geometry": {"type": "Point", "coordinates": [1.442047437838665, 43.60233609279122]}}, {"properties": {"stands": 15, "address": "RUE DES FONTAINES", "bikes": 0, "lon": 1.414531359571464, "status": "OPEN", "update": "2015-12-21T11:41:43", "name": "00136 - FONTAINES", "lat": 43.602050919601446}, "type": "Feature", "geometry": {"type": "Point", "coordinates": [1.414531359571464, 43.602050919601446]}}, {"properties": {"stands": 0, "address": "BD DEODAT DE SEVERAC", "bikes": 20, "lon": 1.42438, "status": "OPEN", "update": "2015-12-21T11:39:45", "name": "00142 - SEVERAC", "lat": 43.58807}, "type": "Feature", "geometry": {"type": "Point", "coordinates": [1.42438, 43.58807]}}, {"properties": {"stands": 10, "address": "AV JEAN CHAUBET", "bikes": 10, "lon": 1.481957162051808, "status": "OPEN", "update": "2015-12-21T11:40:32", "name": "00182 - CHAUBET", "lat": 43.60593083247726}, "type": "Feature", "geometry": {"type": "Point", "coordinates": [1.481957162051808, 43.60593083247726]}}, {"properties": {"stands": 19, "address": "73 BD PIERRE SEMARD", "bikes": 3, "lon": 1.451479779266325, "status": "OPEN", "update": "2015-12-21T11:37:32", "name": "00094 - SEMARD GARE ROUTIERE", "lat": 43.613829128033615}, "type": "Feature", "geometry": {"type": "Point", "coordinates": [1.451479779266325, 43.613829128033615]}}, {"properties": {"stands": 14, "address": "1 RUE BEGUE", "bikes": 0, "lon": 1.455945448109943, "status": "OPEN", "update": "2015-12-21T11:39:04", "name": "00127 - BEGUE - DEMOISELLES", "lat": 43.589803552331645}, "type": "Feature", "geometry": {"type": "Point", "coordinates": [1.455945448109943, 43.589803552331645]}}, {"properties": {"stands": 3, "address": "229 AVENUE DE CASSELARDIT CROISEMENT ESPAGNO / CASSELARDIT 31000 TOULOUSE", "bikes": 15, "lon": 1.40142, "status": "OPEN", "update": "2015-12-21T11:35:47", "name": "00279 - GUY ESPAGNO", "lat": 43.61354}, "type": "Feature", "geometry": {"type": "Point", "coordinates": [1.40142, 43.61354]}}, {"properties": {"stands": 14, "address": "26 AVENUE LEON BLUM ANGLE RUE LEON JOUHAUX", "bikes": 6, "lon": 1.4616307898919, "status": "OPEN", "update": "2015-12-21T11:39:02", "name": "00251 - BLUM / JOUHAUX", "lat": 43.614208387732}, "type": "Feature", "geometry": {"type": "Point", "coordinates": [1.4616307898919, 43.614208387732]}}, {"properties": {"stands": 5, "address": "292 RUE DES FONTAINES", "bikes": 12, "lon": 1.407211289929025, "status": "OPEN", "update": "2015-12-21T11:41:44", "name": "00226 - FONTAINES /CASSELARDIT", "lat": 43.60419040838992}, "type": "Feature", "geometry": {"type": "Point", "coordinates": [1.407211289929025, 43.60419040838992]}}, {"properties": {"stands": 8, "address": "57 BD DE L EMBOUCHURE", "bikes": 11, "lon": 1.430120187266013, "status": "OPEN", "update": "2015-12-21T11:41:03", "name": "00122 - PASSERELLE HAEDENS", "lat": 43.613472358330974}, "type": "Feature", "geometry": {"type": "Point", "coordinates": [1.430120187266013, 43.613472358330974]}}, {"properties": {"stands": 16, "address": "9 RUE HENRY DE GORSSE", "bikes": 5, "lon": 1.443005133993703, "status": "OPEN", "update": "2015-12-21T11:39:58", "name": "00026 - DALBADE - DE GORSSE", "lat": 43.59804753924319}, "type": "Feature", "geometry": {"type": "Point", "coordinates": [1.443005133993703, 43.59804753924319]}}, {"properties": {"stands": 9, "address": "141 AV DE RANGUEIL", "bikes": 11, "lon": 1.467678323560475, "status": "OPEN", "update": "2015-12-21T11:39:36", "name": "00230 - RANGUEIL TRIPODE B", "lat": 43.567221153708445}, "type": "Feature", "geometry": {"type": "Point", "coordinates": [1.467678323560475, 43.567221153708445]}}, {"properties": {"stands": 14, "address": "3 BD PR LEOPOLD ESCANDE", "bikes": 6, "lon": 1.456048100267833, "status": "OPEN", "update": "2015-12-21T11:41:41", "name": "00042 - DAURIAC ESCANDE", "lat": 43.601588174955744}, "type": "Feature", "geometry": {"type": "Point", "coordinates": [1.456048100267833, 43.601588174955744]}}, {"properties": {"stands": 8, "address": "35 RUE PUCCINI", "bikes": 10, "lon": 1.411359591750251, "status": "OPEN", "update": "2015-12-21T11:36:11", "name": "00219 - PUCCINI/ BLAGNAC", "lat": 43.614589794633694}, "type": "Feature", "geometry": {"type": "Point", "coordinates": [1.411359591750251, 43.614589794633694]}}, {"properties": {"stands": 8, "address": "115 AV ALBERT BEDOUCE", "bikes": 12, "lon": 1.462194464667426, "status": "OPEN", "update": "2015-12-21T11:37:08", "name": "00163 - BEDOUCE / MIDI", "lat": 43.581459211587536}, "type": "Feature", "geometry": {"type": "Point", "coordinates": [1.462194464667426, 43.581459211587536]}}, {"properties": {"stands": 12, "address": "71 AV DES MINIMES", "bikes": 10, "lon": 1.435597311467436, "status": "OPEN", "update": "2015-12-21T11:38:56", "name": "00133 - MARCHE AUX COCHONS", "lat": 43.620735968782895}, "type": "Feature", "geometry": {"type": "Point", "coordinates": [1.435597311467436, 43.620735968782895]}}, {"properties": {"stands": 13, "address": "58 AV DES COTTAGES", "bikes": 5, "lon": 1.47508540800772, "status": "OPEN", "update": "2015-12-21T11:37:26", "name": "00205 - COTTAGE/ RIEUX", "lat": 43.58588613821349}, "type": "Feature", "geometry": {"type": "Point", "coordinates": [1.47508540800772, 43.58588613821349]}}, {"properties": {"stands": 5, "address": "23 RUE DU BEARNAIS", "bikes": 15, "lon": 1.428450231443648, "status": "OPEN", "update": "2015-12-21T11:39:05", "name": "00086 - HERACLES - BEARNAIS", "lat": 43.60802027853654}, "type": "Feature", "geometry": {"type": "Point", "coordinates": [1.428450231443648, 43.60802027853654]}}, {"properties": {"stands": 13, "address": "HUIT MAI 1945", "bikes": 9, "lon": 1.451093339873272, "status": "OPEN", "update": "2015-12-21T11:42:43", "name": "00066 - JARDIN ROYAL", "lat": 43.596478222107635}, "type": "Feature", "geometry": {"type": "Point", "coordinates": [1.451093339873272, 43.596478222107635]}}, {"properties": {"stands": 12, "address": "FACE 103 BIS ROUTE DE BLAGNAC", "bikes": 5, "lon": 1.408124460028565, "status": "OPEN", "update": "2015-12-21T11:40:25", "name": "00240 - RTE DE BLAGNAC / JOB", "lat": 43.6172496485261}, "type": "Feature", "geometry": {"type": "Point", "coordinates": [1.408124460028565, 43.6172496485261]}}, {"properties": {"stands": 15, "address": "4 BD DE STRASBOURG", "bikes": 9, "lon": 1.448244408330328, "status": "OPEN", "update": "2015-12-21T11:45:18", "name": "00018 - STRASBOURG JEAN JAURES", "lat": 43.60629718770727}, "type": "Feature", "geometry": {"type": "Point", "coordinates": [1.448244408330328, 43.60629718770727]}}, {"properties": {"stands": 11, "address": "BD RICHARD WAGNER / ANGLE A.VIVALDI 31000 TOULOUSE", "bikes": 7, "lon": 1.41476, "status": "OPEN", "update": "2015-12-21T11:42:21", "name": "282 - RICHARD WAGNER", "lat": 43.60614}, "type": "Feature", "geometry": {"type": "Point", "coordinates": [1.41476, 43.60614]}}, {"properties": {"stands": 3, "address": "66 TER AV ETIENNE BILLIERES", "bikes": 12, "lon": 1.424139385785053, "status": "OPEN", "update": "2015-12-21T11:40:55", "name": "00130 - BILLIERES - PATTE D OIE", "lat": 43.59679331319425}, "type": "Feature", "geometry": {"type": "Point", "coordinates": [1.424139385785053, 43.59679331319425]}}, {"properties": {"stands": 7, "address": "66 RUE PARGAMINIERES", "bikes": 4, "lon": 1.44002, "status": "OPEN", "update": "2015-12-21T11:45:18", "name": "00012 - PARGAMINIERES", "lat": 43.60459}, "type": "Feature", "geometry": {"type": "Point", "coordinates": [1.44002, 43.60459]}}, {"properties": {"stands": 9, "address": "39 AVENUE ETIENNE BILLIERES", "bikes": 11, "lon": 1.425882273289917, "status": "OPEN", "update": "2015-12-21T11:36:38", "name": "00117 - BILLIERES -POSTE", "lat": 43.596852956620715}, "type": "Feature", "geometry": {"type": "Point", "coordinates": [1.425882273289917, 43.596852956620715]}}, {"properties": {"stands": 8, "address": "14 PL DOMINIQUE MARTIN DUPUY", "bikes": 14, "lon": 1.454093824286969, "status": "OPEN", "update": "2015-12-21T11:36:20", "name": "00043 - DUPUY", "lat": 43.599990271041186}, "type": "Feature", "geometry": {"type": "Point", "coordinates": [1.454093824286969, 43.599990271041186]}}, {"properties": {"stands": 23, "address": "8T BD DE BONREPOS", "bikes": 5, "lon": 1.452455826571967, "status": "OPEN", "update": "2015-12-21T11:37:44", "name": "00061 - BONREPOS", "lat": 43.61071810091073}, "type": "Feature", "geometry": {"type": "Point", "coordinates": [1.452455826571967, 43.61071810091073]}}, {"properties": {"stands": 5, "address": "33 AVENUE DES AVIONS", "bikes": 10, "lon": 1.460187742067113, "status": "OPEN", "update": "2015-12-21T11:38:15", "name": "00165 - PLACE DES AVIONS", "lat": 43.57686792022356}, "type": "Feature", "geometry": {"type": "Point", "coordinates": [1.460187742067113, 43.57686792022356]}}, {"properties": {"stands": 6, "address": "Rue Jules Verne angle Boulevard Silvio Trentin - 31000 TOULOUSE", "bikes": 10, "lon": 1.42778, "status": "OPEN", "update": "2015-12-21T11:41:37", "name": "00270 - SILVIO TRENTIN", "lat": 43.62413}, "type": "Feature", "geometry": {"type": "Point", "coordinates": [1.42778, 43.62413]}}, {"properties": {"stands": 8, "address": "139 GRANDE RUE ST MICHEL", "bikes": 12, "lon": 1.445174430937582, "status": "OPEN", "update": "2015-12-21T11:38:08", "name": "00103 - ST MICHEL ST CATHERINE", "lat": 43.590605082277605}, "type": "Feature", "geometry": {"type": "Point", "coordinates": [1.445174430937582, 43.590605082277605]}}, {"properties": {"stands": 0, "address": "7 BD DE STRASBOURG", "bikes": 22, "lon": 1.448061825303155, "status": "OPEN", "update": "2015-12-21T11:35:17", "name": "00017 - STRASBOURG SARDANE", "lat": 43.60610692889793}, "type": "Feature", "geometry": {"type": "Point", "coordinates": [1.448061825303155, 43.60610692889793]}}, {"properties": {"stands": 9, "address": "1 PL DES CARMES", "bikes": 11, "lon": 1.445315649331453, "status": "OPEN", "update": "2015-12-21T11:43:55", "name": "00046 - PLACE DES CARMES", "lat": 43.597401475499026}, "type": "Feature", "geometry": {"type": "Point", "coordinates": [1.445315649331453, 43.597401475499026]}}, {"properties": {"stands": 13, "address": "24 BIS CHE AMOUROUX", "bikes": 5, "lon": 1.461907953641387, "status": "OPEN", "update": "2015-12-21T11:38:29", "name": "00218 - AMOUROUX /STE AUGUSTINE", "lat": 43.627603587351345}, "type": "Feature", "geometry": {"type": "Point", "coordinates": [1.461907953641387, 43.627603587351345]}}, {"properties": {"stands": 15, "address": "2 AV ANTOINE DE ST EXUPERY", "bikes": 5, "lon": 1.470077844843929, "status": "OPEN", "update": "2015-12-21T11:42:46", "name": "00203 - ST EX. - PETIT PRINCE", "lat": 43.5834192540153}, "type": "Feature", "geometry": {"type": "Point", "coordinates": [1.470077844843929, 43.5834192540153]}}, {"properties": {"stands": 9, "address": "8 RUE DES TROIS RENARDS", "bikes": 3, "lon": 1.441209573825458, "status": "OPEN", "update": "2015-12-21T11:41:50", "name": "00032 - MUSEE ST RAYMOND", "lat": 43.60765033417208}, "type": "Feature", "geometry": {"type": "Point", "coordinates": [1.441209573825458, 43.60765033417208]}}, {"properties": {"stands": 17, "address": "5 RUE LEDUC", "bikes": 2, "lon": 1.45752, "status": "OPEN", "update": "2015-12-21T11:38:50", "name": "00005 - LEDUC", "lat": 43.61184}, "type": "Feature", "geometry": {"type": "Point", "coordinates": [1.45752, 43.61184]}}, {"properties": {"stands": 3, "address": "40 ALL CHARLES DE FITTE", "bikes": 13, "lon": 1.432075106068745, "status": "OPEN", "update": "2015-12-21T11:35:51", "name": "00073 - FITTE TEINTURIERS", "lat": 43.59628476386365}, "type": "Feature", "geometry": {"type": "Point", "coordinates": [1.432075106068745, 43.59628476386365]}}, {"properties": {"stands": 20, "address": "1 AV MAURICE HAURIOU", "bikes": 3, "lon": 1.440920059367141, "status": "OPEN", "update": "2015-12-21T11:44:17", "name": "00050 - GARONNETTE", "lat": 43.594569737633854}, "type": "Feature", "geometry": {"type": "Point", "coordinates": [1.440920059367141, 43.594569737633854]}}, {"properties": {"stands": 18, "address": "69 BD LAZARE CARNOT", "bikes": 9, "lon": 1.449629619920856, "status": "OPEN", "update": "2015-12-21T11:43:29", "name": "00020 - CARNOT TROIS JOURNEES", "lat": 43.604717604204446}, "type": "Feature", "geometry": {"type": "Point", "coordinates": [1.449629619920856, 43.604717604204446]}}, {"properties": {"stands": 12, "address": "34 BD DES RECOLLETS", "bikes": 7, "lon": 1.443635078857447, "status": "OPEN", "update": "2015-12-21T11:40:12", "name": "00155 - RECOLLETS", "lat": 43.58386908499996}, "type": "Feature", "geometry": {"type": "Point", "coordinates": [1.443635078857447, 43.58386908499996]}}, {"properties": {"stands": 12, "address": "Place des Gli\u00e8res", "bikes": 6, "lon": 1.41028, "status": "OPEN", "update": "2015-12-21T11:40:11", "name": "00264 - LAFOURGUETTE", "lat": 43.56507}, "type": "Feature", "geometry": {"type": "Point", "coordinates": [1.41028, 43.56507]}}, {"properties": {"stands": 9, "address": "FACE 175 ROUTE DE CASTRES ANGLE RUE CARCASSONNE", "bikes": 9, "lon": 1.4842, "status": "OPEN", "update": "2015-12-21T11:38:32", "name": "00256 - PLACE DE LA RONTONDE", "lat": 43.59666}, "type": "Feature", "geometry": {"type": "Point", "coordinates": [1.4842, 43.59666]}}, {"properties": {"stands": 11, "address": "48 BD D ARCOLE", "bikes": 10, "lon": 1.439737579879722, "status": "OPEN", "update": "2015-12-21T11:37:53", "name": "00091 - ARCOLE BALANCE", "lat": 43.611584087589904}, "type": "Feature", "geometry": {"type": "Point", "coordinates": [1.439737579879722, 43.611584087589904]}}, {"properties": {"stands": 7, "address": "30 RUE ROUBICHOU", "bikes": 8, "lon": 1.465517338373819, "status": "OPEN", "update": "2015-12-21T11:44:37", "name": "00185 - ROUBICHOU ARLES", "lat": 43.62704846650827}, "type": "Feature", "geometry": {"type": "Point", "coordinates": [1.465517338373819, 43.62704846650827]}}, {"properties": {"stands": 17, "address": "QUAI DE TOUNIS", "bikes": 6, "lon": 1.440461106405702, "status": "OPEN", "update": "2015-12-21T11:43:16", "name": "00027 - QUAI DE TOUNIS", "lat": 43.59938372814817}, "type": "Feature", "geometry": {"type": "Point", "coordinates": [1.440461106405702, 43.59938372814817]}}, {"properties": {"stands": 18, "address": "3 RUE DE L'UNIVERSITE", "bikes": 1, "lon": 1.40230245215212, "status": "OPEN", "update": "2015-12-21T11:37:39", "name": "00220 - TABAR /UNIVERSITE", "lat": 43.574612132702526}, "type": "Feature", "geometry": {"type": "Point", "coordinates": [1.40230245215212, 43.574612132702526]}}, {"properties": {"stands": 12, "address": "4 AV LUCIEN BAROUX", "bikes": 6, "lon": 1.478914286004687, "status": "OPEN", "update": "2015-12-21T11:36:03", "name": "00209 - BAROUX/ DARASSE", "lat": 43.589466982143435}, "type": "Feature", "geometry": {"type": "Point", "coordinates": [1.478914286004687, 43.589466982143435]}}, {"properties": {"stands": 4, "address": "14 PL INTERIEURE ST CYPRIEN", "bikes": 12, "lon": 1.431415230750123, "status": "OPEN", "update": "2015-12-21T11:43:25", "name": "00078 - PLACE INT ST CYP. DARRE", "lat": 43.59812186858788}, "type": "Feature", "geometry": {"type": "Point", "coordinates": [1.431415230750123, 43.59812186858788]}}, {"properties": {"stands": 15, "address": "CH DU RAISIN", "bikes": 7, "lon": 1.448486709552681, "status": "OPEN", "update": "2015-12-21T11:37:33", "name": "00149 - RAISIN MINIMES", "lat": 43.615368584913504}, "type": "Feature", "geometry": {"type": "Point", "coordinates": [1.448486709552681, 43.615368584913504]}}, {"properties": {"stands": 14, "address": "61 RUE DE LA CONCORDE", "bikes": 5, "lon": 1.446485498451865, "status": "OPEN", "update": "2015-12-21T11:44:46", "name": "00059 - CONCORDE", "lat": 43.613590372531775}, "type": "Feature", "geometry": {"type": "Point", "coordinates": [1.446485498451865, 43.613590372531775]}}, {"properties": {"stands": 20, "address": "1 RUE DE SEBASTOPOL", "bikes": 7, "lon": 1.430389555237135, "status": "OPEN", "update": "2015-12-21T11:39:38", "name": "00107 - SEBASTOPOL", "lat": 43.609753361824794}, "type": "Feature", "geometry": {"type": "Point", "coordinates": [1.430389555237135, 43.609753361824794]}}, {"properties": {"stands": 14, "address": "29 BOULEVARD RICHARD WAGNER ANG BD JEAN BRUNHES", "bikes": 6, "lon": 1.420141760360439, "status": "OPEN", "update": "2015-12-21T11:44:50", "name": "00246 - WAGNER / JEAN BRUNHES", "lat": 43.60390532418828}, "type": "Feature", "geometry": {"type": "Point", "coordinates": [1.420141760360439, 43.60390532418828]}}, {"properties": {"stands": 7, "address": "7 RUE DU REMPART ST ETIENNE", "bikes": 9, "lon": 1.450654849861206, "status": "OPEN", "update": "2015-12-21T11:43:05", "name": "00099 - REMPART ST ETIENNE", "lat": 43.60082502483391}, "type": "Feature", "geometry": {"type": "Point", "coordinates": [1.450654849861206, 43.60082502483391]}}, {"properties": {"stands": 10, "address": "RUE GONIN ANGLE GENIN 31000 TOULOUSE", "bikes": 6, "lon": 1.48278, "status": "OPEN", "update": "2015-12-21T11:37:16", "name": "00267 - GONIN", "lat": 43.57452}, "type": "Feature", "geometry": {"type": "Point", "coordinates": [1.48278, 43.57452]}}, {"properties": {"stands": 14, "address": "FACE 58 RUE DUMERIL", "bikes": 6, "lon": 1.449215732146181, "status": "OPEN", "update": "2015-12-21T11:35:25", "name": "00113 - MUSEUM LAMARCK", "lat": 43.592355124495455}, "type": "Feature", "geometry": {"type": "Point", "coordinates": [1.449215732146181, 43.592355124495455]}}, {"properties": {"stands": 18, "address": "5 AV DE COLLIGNON", "bikes": 1, "lon": 1.444528167445985, "status": "OPEN", "update": "2015-12-21T11:38:06", "name": "00148 - COLLIGNON", "lat": 43.61692696530316}, "type": "Feature", "geometry": {"type": "Point", "coordinates": [1.444528167445985, 43.61692696530316]}}, {"properties": {"stands": 10, "address": "RUE LAPUJADE ANGLE RUE DES FLANDRES", "bikes": 8, "lon": 1.454698517821249, "status": "OPEN", "update": "2015-12-21T11:43:16", "name": "00167 - LAPUJADE-FLANDRES", "lat": 43.62409340165932}, "type": "Feature", "geometry": {"type": "Point", "coordinates": [1.454698517821249, 43.62409340165932]}}, {"properties": {"stands": 9, "address": "Face N\u00b0251 route de Seysses", "bikes": 9, "lon": 1.41325, "status": "OPEN", "update": "2015-12-21T11:37:38", "name": "00265 - PASSAGE BORDELONGUE", "lat": 43.56793}, "type": "Feature", "geometry": {"type": "Point", "coordinates": [1.41325, 43.56793]}}, {"properties": {"stands": 15, "address": "50 GRANDE RUE ST MICHEL", "bikes": 0, "lon": 1.446483165667178, "status": "OPEN", "update": "2015-12-21T11:39:10", "name": "00116 - ST MICHEL NOTRE DAME", "lat": 43.588359791103294}, "type": "Feature", "geometry": {"type": "Point", "coordinates": [1.446483165667178, 43.588359791103294]}}, {"properties": {"stands": 6, "address": "2 PETITE RUE SAINT LAZARE", "bikes": 13, "lon": 1.446076879873296, "status": "OPEN", "update": "2015-12-21T11:40:22", "name": "00034 - SAINT LAZARE", "lat": 43.609650036285025}, "type": "Feature", "geometry": {"type": "Point", "coordinates": [1.446076879873296, 43.609650036285025]}}, {"properties": {"stands": 20, "address": "129 ALL DE BRIENNE", "bikes": 4, "lon": 1.419524853208122, "status": "OPEN", "update": "2015-12-21T11:39:55", "name": "00119 - CHAPOU", "lat": 43.609967343094006}, "type": "Feature", "geometry": {"type": "Point", "coordinates": [1.419524853208122, 43.609967343094006]}}, {"properties": {"stands": 10, "address": "Place des Pradettes / rue Arthur Huc", "bikes": 7, "lon": 1.38887, "status": "OPEN", "update": "2015-12-21T11:43:34", "name": "00275 - PLACE DES PRADETTES", "lat": 43.58171}, "type": "Feature", "geometry": {"type": "Point", "coordinates": [1.38887, 43.58171]}}, {"properties": {"stands": 2, "address": "21 AV DES ECOLES JULES JULIEN", "bikes": 15, "lon": 1.451999386383253, "status": "OPEN", "update": "2015-12-21T11:39:23", "name": "00160 - THEATRE JULES JULIEN", "lat": 43.573924940202886}, "type": "Feature", "geometry": {"type": "Point", "coordinates": [1.451999386383253, 43.573924940202886]}}, {"properties": {"stands": 3, "address": "64 RTE DE NARBONNE", "bikes": 12, "lon": 1.456086445970436, "status": "OPEN", "update": "2015-12-21T11:36:51", "name": "00232 - NARBONNE/ MIROUSE", "lat": 43.569437251134566}, "type": "Feature", "geometry": {"type": "Point", "coordinates": [1.456086445970436, 43.569437251134566]}}, {"properties": {"stands": 12, "address": "9 RUE LE DORMEUR", "bikes": 6, "lon": 1.48781984362323, "status": "OPEN", "update": "2015-12-21T11:41:36", "name": "00211 - LE DORMEUR/ LA TERRASSE", "lat": 43.58350615923425}, "type": "Feature", "geometry": {"type": "Point", "coordinates": [1.48781984362323, 43.58350615923425]}}, {"properties": {"stands": 3, "address": "AVENUE DES ARENES ROMAINES / GUY ESPAGNO DANS ROND POINT 31000 TOULOUSE", "bikes": 15, "lon": 1.39709, "status": "OPEN", "update": "2015-12-21T11:41:15", "name": "00278 - ARENES ROMAINE", "lat": 43.6142}, "type": "Feature", "geometry": {"type": "Point", "coordinates": [1.39709, 43.6142]}}, {"properties": {"stands": 6, "address": "101 AVENUES DES MINIMES", "bikes": 13, "lon": 1.434473692188769, "status": "OPEN", "update": "2015-12-21T11:40:58", "name": "00132 - MINIMES BILARD", "lat": 43.62293779541603}, "type": "Feature", "geometry": {"type": "Point", "coordinates": [1.434473692188769, 43.62293779541603]}}, {"properties": {"stands": 6, "address": "29 RUE ROLAND GARROS", "bikes": 13, "lon": 1.424941224096277, "status": "OPEN", "update": "2015-12-21T11:35:56", "name": "00145 - GOUNOD - GARROS", "lat": 43.61395913175851}, "type": "Feature", "geometry": {"type": "Point", "coordinates": [1.424941224096277, 43.61395913175851]}}, {"properties": {"stands": 16, "address": "16 RUE ALEXANDRE CABANEL", "bikes": 2, "lon": 1.438157046235524, "status": "OPEN", "update": "2015-12-21T11:43:09", "name": "00110 - CABANEL - SERRES", "lat": 43.61375517689823}, "type": "Feature", "geometry": {"type": "Point", "coordinates": [1.438157046235524, 43.61375517689823]}}, {"properties": {"stands": 2, "address": "BARRI\u00c8RE DE PARIS", "bikes": 23, "lon": 1.434225150757254, "status": "OPEN", "update": "2015-12-21T11:43:30", "name": "00125 - BARRI\u00c8RE DE PARIS", "lat": 43.6269176821576}, "type": "Feature", "geometry": {"type": "Point", "coordinates": [1.434225150757254, 43.6269176821576]}}, {"properties": {"stands": 19, "address": "54 RUE DES SEPT TROUBADOURS", "bikes": 3, "lon": 1.454189017923435, "status": "OPEN", "update": "2015-12-21T11:42:06", "name": "00063 - PISCINE LEO LAGRANGE", "lat": 43.607433487401345}, "type": "Feature", "geometry": {"type": "Point", "coordinates": [1.454189017923435, 43.607433487401345]}}, {"properties": {"stands": 17, "address": "64 RUE BAILLAUD", "bikes": 3, "lon": 1.46539185105244, "status": "OPEN", "update": "2015-12-21T11:43:56", "name": "00177 - BAILLAUD BRUNAUD", "lat": 43.61743867816197}, "type": "Feature", "geometry": {"type": "Point", "coordinates": [1.46539185105244, 43.61743867816197]}}, {"properties": {"stands": 10, "address": "FACE 345 AV JEAN RIEUX", "bikes": 7, "lon": 1.483669775054849, "status": "OPEN", "update": "2015-12-21T11:41:45", "name": "00200 - PLACE DE L'ORMEAU", "lat": 43.57906922965151}, "type": "Feature", "geometry": {"type": "Point", "coordinates": [1.483669775054849, 43.57906922965151]}}, {"properties": {"stands": 3, "address": "26 RUE DE PERIGORD", "bikes": 14, "lon": 1.444269620551324, "status": "OPEN", "update": "2015-12-21T11:35:53", "name": "00014 - PERIGORD", "lat": 43.60735205357881}, "type": "Feature", "geometry": {"type": "Point", "coordinates": [1.444269620551324, 43.60735205357881]}}, {"properties": {"stands": 11, "address": "27 Avenue Louis PLANA", "bikes": 6, "lon": 1.4795004816774, "status": "OPEN", "update": "2015-12-21T11:43:31", "name": "00181 - PLANA GARNIER", "lat": 43.610549420565}, "type": "Feature", "geometry": {"type": "Point", "coordinates": [1.4795004816774, 43.610549420565]}}, {"properties": {"stands": 6, "address": "11 ALL PAUL FEUGA", "bikes": 12, "lon": 1.4429, "status": "OPEN", "update": "2015-12-21T11:39:53", "name": "00069 - FEUGA", "lat": 43.59253}, "type": "Feature", "geometry": {"type": "Point", "coordinates": [1.4429, 43.59253]}}, {"properties": {"stands": 13, "address": "16 AV DE L'U.R.S.S", "bikes": 6, "lon": 1.448634234326797, "status": "OPEN", "update": "2015-12-21T11:45:06", "name": "00157 - U.R.S.S  PEYROUSET", "lat": 43.582831686768735}, "type": "Feature", "geometry": {"type": "Point", "coordinates": [1.448634234326797, 43.582831686768735]}}, {"properties": {"stands": 12, "address": "44 AVENUE DE MURET", "bikes": 8, "lon": 1.425325828280708, "status": "OPEN", "update": "2015-12-21T11:36:01", "name": "00189 - MURET BOUTINON", "lat": 43.581352282638655}, "type": "Feature", "geometry": {"type": "Point", "coordinates": [1.425325828280708, 43.581352282638655]}}], "type": "FeatureCollection"}