{"features": [{"properties": {"bikes": 5, "lon": 1.441003598726198, "name": "00055 - ST SERNIN G. ARNOULT", "stands": 10, "status": "OPEN", "address": "2 RUE GATIEN ARNOULT", "update": "2016-02-08T20:29:53", "lat": 43.608951960496405}, "geometry": {"type": "Point", "coordinates": [1.441003598726198, 43.608951960496405]}, "type": "Feature"}, {"properties": {"bikes": 8, "lon": 1.45907112459247, "name": "00195 - LARROUSSE -RIEUX", "stands": 9, "status": "OPEN", "address": "FACE 15 RUE PIERRE LAROUSSE", "update": "2016-02-08T20:27:21", "lat": 43.59723540303583}, "geometry": {"type": "Point", "coordinates": [1.45907112459247, 43.59723540303583]}, "type": "Feature"}, {"properties": {"bikes": 0, "lon": 1.46278065695466, "name": "00229 - IUT RANGUEIL", "stands": 18, "status": "OPEN", "address": "129 AV DE RANGUEIL", "update": "2016-02-08T20:29:22", "lat": 43.571433064051334}, "geometry": {"type": "Point", "coordinates": [1.46278065695466, 43.571433064051334]}, "type": "Feature"}, {"properties": {"bikes": 4, "lon": 1.452605307400692, "name": "00065 - VERDIER - GRAND ROND", "stands": 23, "status": "OPEN", "address": "2 ALL FORAIN FRANCOIS VERDIER", "update": "2016-02-08T20:28:55", "lat": 43.597074846780274}, "geometry": {"type": "Point", "coordinates": [1.452605307400692, 43.597074846780274]}, "type": "Feature"}, {"properties": {"bikes": 11, "lon": 1.45195665819857, "name": "00022 - CARNOT ROLAND", "stands": 9, "status": "OPEN", "address": "24 BD LAZARE CARNOT", "update": "2016-02-08T20:29:50", "lat": 43.60221990815785}, "geometry": {"type": "Point", "coordinates": [1.45195665819857, 43.60221990815785]}, "type": "Feature"}, {"properties": {"bikes": 9, "lon": 1.403872948950036, "name": "00236 - TOEC / LEMIRE", "stands": 11, "status": "OPEN", "address": "RUE DE L'ABBE JULES LEMIRE", "update": "2016-02-08T20:28:21", "lat": 43.59729443895585}, "geometry": {"type": "Point", "coordinates": [1.403872948950036, 43.59729443895585]}, "type": "Feature"}, {"properties": {"bikes": 26, "lon": 1.442921175845342, "name": "00111 - MINIMES PASSERELLE", "stands": 1, "status": "OPEN", "address": "38B BD DES MINIMES", "update": "2016-02-08T20:26:24", "lat": 43.615259799224134}, "geometry": {"type": "Point", "coordinates": [1.442921175845342, 43.615259799224134]}, "type": "Feature"}, {"properties": {"bikes": 10, "lon": 1.43180804154469, "name": "00243 - ETATS-UNIS / FERRY", "stands": 7, "status": "OPEN", "address": "96 av des Etats-Unis angle rue Jules Ferry", "update": "2016-02-08T20:24:35", "lat": 43.632641237523}, "geometry": {"type": "Point", "coordinates": [1.43180804154469, 43.632641237523]}, "type": "Feature"}, {"properties": {"bikes": 15, "lon": 1.452693250180783, "name": "00174 - MAUNOURY / MELA", "stands": 4, "status": "OPEN", "address": "41 AV MAURICE BOURGES MAUNOURY", "update": "2016-02-08T20:28:34", "lat": 43.63692179179762}, "geometry": {"type": "Point", "coordinates": [1.452693250180783, 43.63692179179762]}, "type": "Feature"}, {"properties": {"bikes": 20, "lon": 1.420275802412521, "name": "00137 - BRUNHES-FONTAINES", "stands": 0, "status": "OPEN", "address": "47 BD JEAN BRUNHES", "update": "2016-02-08T20:24:38", "lat": 43.60094924792523}, "geometry": {"type": "Point", "coordinates": [1.420275802412521, 43.60094924792523]}, "type": "Feature"}, {"properties": {"bikes": 11, "lon": 1.421715694303944, "name": "00144 - SUISSE - LAUSANE", "stands": 9, "status": "OPEN", "address": "62 BD DE SUISSE", "update": "2016-02-08T20:25:44", "lat": 43.61606217398145}, "geometry": {"type": "Point", "coordinates": [1.421715694303944, 43.61606217398145]}, "type": "Feature"}, {"properties": {"bikes": 7, "lon": 1.453588691746783, "name": "00040 - COLOMBETTE", "stands": 9, "status": "OPEN", "address": "41 RUE DE LA COLOMBETTE", "update": "2016-02-08T20:29:40", "lat": 43.604660136134775}, "geometry": {"type": "Point", "coordinates": [1.453588691746783, 43.604660136134775]}, "type": "Feature"}, {"properties": {"bikes": 2, "lon": 1.445569311598848, "name": "00003 - POMME", "stands": 15, "status": "OPEN", "address": "62 RUE DE LA POMME", "update": "2016-02-08T20:27:12", "lat": 43.60333593826575}, "geometry": {"type": "Point", "coordinates": [1.445569311598848, 43.60333593826575]}, "type": "Feature"}, {"properties": {"bikes": 19, "lon": 1.418420510391943, "name": "00139 - BARRIERE DE LOMBEZ", "stands": 6, "status": "OPEN", "address": "39 BIS AV DE LOMBEZ", "update": "2016-02-08T20:28:56", "lat": 43.5955673906372}, "geometry": {"type": "Point", "coordinates": [1.418420510391943, 43.5955673906372]}, "type": "Feature"}, {"properties": {"bikes": 12, "lon": 1.44361404386217, "name": "00093 - PRINTEMPS", "stands": 5, "status": "OPEN", "address": "57 RUE DU PRINTEMPS", "update": "2016-02-08T20:28:19", "lat": 43.614465544425535}, "geometry": {"type": "Point", "coordinates": [1.44361404386217, 43.614465544425535]}, "type": "Feature"}, {"properties": {"bikes": 30, "lon": 1.429556601823956, "name": "00081 - JARDIN RAYMOND VI", "stands": 3, "status": "OPEN", "address": "ALL CHARLES DE FITTE", "update": "2016-02-08T20:20:49", "lat": 43.59989498759688}, "geometry": {"type": "Point", "coordinates": [1.429556601823956, 43.59989498759688]}, "type": "Feature"}, {"properties": {"bikes": 15, "lon": 1.449039275575635, "name": "00248 - BOUQUETINS/E. ROSTAND", "stands": 5, "status": "OPEN", "address": "RUE DES BOUQUETINS ANGLE RUE EDMOND ROSTAND", "update": "2016-02-08T20:24:47", "lat": 43.64108958806659}, "geometry": {"type": "Point", "coordinates": [1.449039275575635, 43.64108958806659]}, "type": "Feature"}, {"properties": {"bikes": 1, "lon": 1.437631489341106, "name": "00053 - PLACE SAINT JULIEN", "stands": 24, "status": "OPEN", "address": "PL SAINT JULIEN", "update": "2016-02-08T20:30:19", "lat": 43.60863633636605}, "geometry": {"type": "Point", "coordinates": [1.437631489341106, 43.60863633636605]}, "type": "Feature"}, {"properties": {"bikes": 3, "lon": 1.432335729928681, "name": "00087 - LASCROSSES LECLERC", "stands": 21, "status": "OPEN", "address": "47 BD LASCROSSES", "update": "2016-02-08T20:30:06", "lat": 43.609500004240715}, "geometry": {"type": "Point", "coordinates": [1.432335729928681, 43.609500004240715]}, "type": "Feature"}, {"properties": {"bikes": 14, "lon": 1.438340345212284, "name": "00121 - SERRES - A. BERNARD", "stands": 3, "status": "OPEN", "address": "33 AV HONRE SERRES", "update": "2016-02-08T20:28:26", "lat": 43.612327522628846}, "geometry": {"type": "Point", "coordinates": [1.438340345212284, 43.612327522628846]}, "type": "Feature"}, {"properties": {"bikes": 11, "lon": 1.469393836823441, "name": "00239 - LESPINET / HERBETTES", "stands": 9, "status": "OPEN", "address": "FACE AU 127 AVENUE DE LESPINET", "update": "2016-02-08T20:29:45", "lat": 43.577166917623245}, "geometry": {"type": "Point", "coordinates": [1.469393836823441, 43.577166917623245]}, "type": "Feature"}, {"properties": {"bikes": 1, "lon": 1.445420780739279, "name": "00001 - POIDS DE L'HUILE", "stands": 18, "status": "OPEN", "address": "12 RUE DU POIDS DE L'HUILE", "update": "2016-02-08T20:23:47", "lat": 43.604134687021045}, "geometry": {"type": "Point", "coordinates": [1.445420780739279, 43.604134687021045]}, "type": "Feature"}, {"properties": {"bikes": 10, "lon": 1.446593812218414, "name": "00007 - PLACE VICTOR HUGO", "stands": 13, "status": "OPEN", "address": "6 RUE DU REMPART VILLENEUVE", "update": "2016-02-08T20:26:54", "lat": 43.605852162177925}, "geometry": {"type": "Point", "coordinates": [1.446593812218414, 43.605852162177925]}, "type": "Feature"}, {"properties": {"bikes": 14, "lon": 1.43298, "name": "00259 - PLACE RICHE", "stands": 6, "status": "OPEN", "address": "Place Riche / Lalande - 31000 TOULOUSE", "update": "2016-02-08T20:20:53", "lat": 43.64751}, "geometry": {"type": "Point", "coordinates": [1.43298, 43.64751]}, "type": "Feature"}, {"properties": {"bikes": 9, "lon": 1.451330504561275, "name": "00234 - LOIN / RAYNAL", "stands": 6, "status": "OPEN", "address": "RUE LOIN 100M AVT RAYNAL", "update": "2016-02-08T20:22:40", "lat": 43.628236592839514}, "geometry": {"type": "Point", "coordinates": [1.451330504561275, 43.628236592839514]}, "type": "Feature"}, {"properties": {"bikes": 1, "lon": 1.409162125552512, "name": "00192 - RTE DE ST SIMON/PRADO", "stands": 19, "status": "OPEN", "address": "355 route de saint-Simon", "update": "2016-02-08T16:31:44", "lat": 43.587659413053814}, "geometry": {"type": "Point", "coordinates": [1.409162125552512, 43.587659413053814]}, "type": "Feature"}, {"properties": {"bikes": 1, "lon": 1.444132711268797, "name": "00048 - PLACE DU SALIN", "stands": 21, "status": "OPEN", "address": "18 PL DU SALIN", "update": "2016-02-08T20:29:47", "lat": 43.59474911973265}, "geometry": {"type": "Point", "coordinates": [1.444132711268797, 43.59474911973265]}, "type": "Feature"}, {"properties": {"bikes": 12, "lon": 1.45256734914219, "name": "00175 - METRO MAUNOURY", "stands": 18, "status": "OPEN", "address": "Avenue Maurice BOURGES MAUNOURY", "update": "2016-02-08T20:23:11", "lat": 43.6394555737186}, "geometry": {"type": "Point", "coordinates": [1.45256734914219, 43.6394555737186]}, "type": "Feature"}, {"properties": {"bikes": 1, "lon": 1.462031097914686, "name": "00166 - RANGUEIL GUYOU", "stands": 19, "status": "OPEN", "address": "23 RUE GUYOU", "update": "2016-02-08T20:28:58", "lat": 43.574366149048714}, "geometry": {"type": "Point", "coordinates": [1.462031097914686, 43.574366149048714]}, "type": "Feature"}, {"properties": {"bikes": 16, "lon": 1.458585739964361, "name": "00135 - BONNEFOY   LEMAITRE", "stands": 2, "status": "OPEN", "address": "183 RUE DU FB  BONNEFOY", "update": "2016-02-08T20:29:29", "lat": 43.62316326019301}, "geometry": {"type": "Point", "coordinates": [1.458585739964361, 43.62316326019301]}, "type": "Feature"}, {"properties": {"bikes": 3, "lon": 1.453805825078145, "name": "00115 - DEMOISELLES MISTRAL", "stands": 14, "status": "OPEN", "address": "8 ALL DES DEMOISELLES", "update": "2016-02-08T20:30:11", "lat": 43.590622011025665}, "geometry": {"type": "Point", "coordinates": [1.453805825078145, 43.590622011025665]}, "type": "Feature"}, {"properties": {"bikes": 1, "lon": 1.44938, "name": "00067 - MUSEUM", "stands": 20, "status": "OPEN", "address": "35 ALL JULES GUESDE", "update": "2016-02-08T20:30:07", "lat": 43.59468}, "geometry": {"type": "Point", "coordinates": [1.44938, 43.59468]}, "type": "Feature"}, {"properties": {"bikes": 9, "lon": 1.427517107421507, "name": "00188 - MURET/LAFAGE", "stands": 9, "status": "OPEN", "address": "121 AVENUE DE MURET", "update": "2016-02-08T20:24:19", "lat": 43.584282965328995}, "geometry": {"type": "Point", "coordinates": [1.427517107421507, 43.584282965328995]}, "type": "Feature"}, {"properties": {"bikes": 0, "lon": 1.468753766918999, "name": "00178 - BRUNAUD / PLANA", "stands": 20, "status": "OPEN", "address": "AVENUE YVES BRUNAUD", "update": "2016-02-08T20:25:09", "lat": 43.619281402937425}, "geometry": {"type": "Point", "coordinates": [1.468753766918999, 43.619281402937425]}, "type": "Feature"}, {"properties": {"bikes": 8, "lon": 1.454436078796189, "name": "00041 - ST AUBIN CAMICHEL", "stands": 13, "status": "OPEN", "address": "1 RUE CHARLES CAMICHEL", "update": "2016-02-08T20:28:30", "lat": 43.60265364232074}, "geometry": {"type": "Point", "coordinates": [1.454436078796189, 43.60265364232074]}, "type": "Feature"}, {"properties": {"bikes": 7, "lon": 1.437871385550754, "name": "00090 - LASCROSSES- A. BERNARD", "stands": 18, "status": "OPEN", "address": "3B BD LASCROSSES", "update": "2016-02-08T20:30:11", "lat": 43.61146971436288}, "geometry": {"type": "Point", "coordinates": [1.437871385550754, 43.61146971436288]}, "type": "Feature"}, {"properties": {"bikes": 7, "lon": 1.434707777421923, "name": "00109 - METRO CANAL DU MIDI", "stands": 18, "status": "OPEN", "address": "1 BD DE LA MARQUETTE", "update": "2016-02-08T20:21:47", "lat": 43.615173611788045}, "geometry": {"type": "Point", "coordinates": [1.434707777421923, 43.615173611788045]}, "type": "Feature"}, {"properties": {"bikes": 1, "lon": 1.464093716152017, "name": "00197 - CASERNE PERIGNON", "stands": 19, "status": "OPEN", "address": "6 AV LOUIS BLERIOT", "update": "2016-02-08T20:23:16", "lat": 43.60038605818475}, "geometry": {"type": "Point", "coordinates": [1.464093716152017, 43.60038605818475]}, "type": "Feature"}, {"properties": {"bikes": 10, "lon": 1.452057713684133, "name": "00023 - COMBATTANTS", "stands": 16, "status": "OPEN", "address": "6 BD LAZARE CARNOT", "update": "2016-02-08T20:25:03", "lat": 43.60128593726337}, "geometry": {"type": "Point", "coordinates": [1.452057713684133, 43.60128593726337]}, "type": "Feature"}, {"properties": {"bikes": 4, "lon": 1.39262, "name": "00273 - PASSERIEU - ST SIMON", "stands": 14, "status": "OPEN", "address": "ROND POINT DES IZARD ANGLEPASSERIEU ET ROUTE ST SIMON", "update": "2016-02-08T20:30:09", "lat": 43.5792}, "geometry": {"type": "Point", "coordinates": [1.39262, 43.5792]}, "type": "Feature"}, {"properties": {"bikes": 0, "lon": 1.437032051956223, "name": "00029 - VALADE", "stands": 19, "status": "OPEN", "address": "31 RUE VALADE", "update": "2016-02-08T20:23:22", "lat": 43.605071904633625}, "geometry": {"type": "Point", "coordinates": [1.437032051956223, 43.605071904633625]}, "type": "Feature"}, {"properties": {"bikes": 18, "lon": 1.44871, "name": "280 - CHARBONNIERE", "stands": 0, "status": "OPEN", "address": "RUE DE LA CHARBONNIERE ANGLE RUE DES PALMIERS 31000 TOULOUSE", "update": "2016-02-08T20:28:29", "lat": 43.57383}, "geometry": {"type": "Point", "coordinates": [1.44871, 43.57383]}, "type": "Feature"}, {"properties": {"bikes": 2, "lon": 1.441783289134449, "name": "00156 - METRO EMPALOT", "stands": 13, "status": "OPEN", "address": "38 AV JEAN MOULIN FACE DEBOUCHE RUE DE CANNES", "update": "2016-02-08T20:23:23", "lat": 43.579737115748195}, "geometry": {"type": "Point", "coordinates": [1.441783289134449, 43.579737115748195]}, "type": "Feature"}, {"properties": {"bikes": 15, "lon": 1.437493796200118, "name": "00242 -  RAIMBAUD / COLETTE", "stands": 1, "status": "OPEN", "address": "RUE RAIMBAUD ANGLE RUE COLETTE", "update": "2016-02-08T20:29:05", "lat": 43.633866178151905}, "geometry": {"type": "Point", "coordinates": [1.437493796200118, 43.633866178151905]}, "type": "Feature"}, {"properties": {"bikes": 0, "lon": 1.474881961695726, "name": "00224 - CAMPUS SUPAERO", "stands": 20, "status": "OPEN", "address": "AVENUE EDOUARD BELIN FACE CH\u00c2TEAU DU CREPS", "update": "2016-02-08T20:29:52", "lat": 43.566595761363736}, "geometry": {"type": "Point", "coordinates": [1.474881961695726, 43.566595761363736]}, "type": "Feature"}, {"properties": {"bikes": 2, "lon": 1.4420311550308, "name": "00154 - GALLOIS", "stands": 18, "status": "OPEN", "address": "RUE DES GALLOIS", "update": "2016-02-08T20:25:14", "lat": 43.58995890864312}, "geometry": {"type": "Point", "coordinates": [1.4420311550308, 43.58995890864312]}, "type": "Feature"}, {"properties": {"bikes": 8, "lon": 1.455204795385279, "name": "00096 - MEDIATHEQUE", "stands": 17, "status": "OPEN", "address": "50 RUE DU GENERAL COMPANS", "update": "2016-02-08T20:25:57", "lat": 43.60974282737991}, "geometry": {"type": "Point", "coordinates": [1.455204795385279, 43.60974282737991]}, "type": "Feature"}, {"properties": {"bikes": 4, "lon": 1.438302180907754, "name": "00152 - MAZADES", "stands": 15, "status": "OPEN", "address": "10 AV DES MAZADES", "update": "2016-02-08T20:22:37", "lat": 43.624183134252704}, "geometry": {"type": "Point", "coordinates": [1.438302180907754, 43.624183134252704]}, "type": "Feature"}, {"properties": {"bikes": 18, "lon": 1.37975, "name": "00276 - MARIN REBOUL", "stands": 0, "status": "OPEN", "address": "chemin du Marin angle chemin du Reboul", "update": "2016-02-08T20:24:06", "lat": 43.58132}, "geometry": {"type": "Point", "coordinates": [1.37975, 43.58132]}, "type": "Feature"}, {"properties": {"bikes": 9, "lon": 1.431605284631358, "name": "00077 - PLACE INT SAINT CYPRIEN", "stands": 4, "status": "OPEN", "address": "2 PL INTERIEURE ST CYPRIEN", "update": "2016-02-08T20:29:51", "lat": 43.597835830061406}, "geometry": {"type": "Point", "coordinates": [1.431605284631358, 43.597835830061406]}, "type": "Feature"}, {"properties": {"bikes": 0, "lon": 1.445580732388259, "name": "00025 - PLACE ROUAIX", "stands": 17, "status": "OPEN", "address": "1 RUE DES TOURNEURS", "update": "2016-02-08T20:23:36", "lat": 43.599435045967155}, "geometry": {"type": "Point", "coordinates": [1.445580732388259, 43.599435045967155]}, "type": "Feature"}, {"properties": {"bikes": 7, "lon": 1.436175197009508, "name": "00074 - LAGANNE TEINTURIERS", "stands": 10, "status": "OPEN", "address": "37 RUE LAGANNE", "update": "2016-02-08T20:20:57", "lat": 43.596660562935625}, "geometry": {"type": "Point", "coordinates": [1.436175197009508, 43.596660562935625]}, "type": "Feature"}, {"properties": {"bikes": 0, "lon": 1.434894328349442, "name": "00071 - COURS DILLON", "stands": 22, "status": "OPEN", "address": "3 RUE LAGANNE", "update": "2016-02-08T20:20:17", "lat": 43.59318934283672}, "geometry": {"type": "Point", "coordinates": [1.434894328349442, 43.59318934283672]}, "type": "Feature"}, {"properties": {"bikes": 19, "lon": 1.428862699237109, "name": "00105 - BILLIERE -CHAMPETRE", "stands": 0, "status": "OPEN", "address": "12  AV  ETIENNE  BILLIERES", "update": "2016-02-08T20:26:33", "lat": 43.59764204883991}, "geometry": {"type": "Point", "coordinates": [1.428862699237109, 43.59764204883991]}, "type": "Feature"}, {"properties": {"bikes": 13, "lon": 1.454987798766018, "name": "00064 - PERI MERCADIER", "stands": 10, "status": "OPEN", "address": "0030 RUE GABRIEL PERI", "update": "2016-02-08T20:23:04", "lat": 43.60617263070887}, "geometry": {"type": "Point", "coordinates": [1.454987798766018, 43.60617263070887]}, "type": "Feature"}, {"properties": {"bikes": 19, "lon": 1.448541598385468, "name": "00060 - ROQUELAINE", "stands": 5, "status": "OPEN", "address": "32 PL ROQUELAINE", "update": "2016-02-08T20:27:26", "lat": 43.61263652233987}, "geometry": {"type": "Point", "coordinates": [1.448541598385468, 43.61263652233987]}, "type": "Feature"}, {"properties": {"bikes": 15, "lon": 1.449367822982907, "name": "00036 - PLACE SCHUMAN", "stands": 9, "status": "OPEN", "address": "5 PL ROBERT SCHUMAN", "update": "2016-02-08T20:27:14", "lat": 43.609623167283914}, "geometry": {"type": "Point", "coordinates": [1.449367822982907, 43.609623167283914]}, "type": "Feature"}, {"properties": {"bikes": 0, "lon": 1.462869145576551, "name": "00227 - METRO UPS", "stands": 20, "status": "OPEN", "address": "118  RTE DE NARBONNE", "update": "2016-02-08T20:21:00", "lat": 43.56160969546884}, "geometry": {"type": "Point", "coordinates": [1.462869145576551, 43.56160969546884]}, "type": "Feature"}, {"properties": {"bikes": 5, "lon": 1.415543960373121, "name": "00187 - DESBALS MONTDORE", "stands": 11, "status": "OPEN", "address": "187 RUE HENRI DESBALS", "update": "2016-02-08T20:21:32", "lat": 43.584523123495174}, "geometry": {"type": "Point", "coordinates": [1.415543960373121, 43.584523123495174]}, "type": "Feature"}, {"properties": {"bikes": 1, "lon": 1.473268554354084, "name": "00225 - BELIN ONERA", "stands": 19, "status": "OPEN", "address": "AVENUE EDOUARD BELIN DEVANT ONERA", "update": "2016-02-08T20:22:10", "lat": 43.56947707206279}, "geometry": {"type": "Point", "coordinates": [1.473268554354084, 43.56947707206279]}, "type": "Feature"}, {"properties": {"bikes": 2, "lon": 1.432687682718845, "name": "00084 - BRIENNE MANUFACTURE", "stands": 21, "status": "OPEN", "address": "19T ALL DE BRIENNE", "update": "2016-02-08T20:29:28", "lat": 43.60524239596951}, "geometry": {"type": "Point", "coordinates": [1.432687682718845, 43.60524239596951]}, "type": "Feature"}, {"properties": {"bikes": 7, "lon": 1.480087483756261, "name": "00208 - LIMAYRAC/ DARASSE", "stands": 9, "status": "OPEN", "address": "ALL DE LIMAYRAC", "update": "2016-02-08T20:24:11", "lat": 43.59122002356995}, "geometry": {"type": "Point", "coordinates": [1.480087483756261, 43.59122002356995]}, "type": "Feature"}, {"properties": {"bikes": 19, "lon": 1.414597471267562, "name": "00131 - BERNIES", "stands": 0, "status": "OPEN", "address": "15 RUE PAUL BERNIES", "update": "2016-02-08T20:27:43", "lat": 43.61174111564092}, "geometry": {"type": "Point", "coordinates": [1.414597471267562, 43.61174111564092]}, "type": "Feature"}, {"properties": {"bikes": 11, "lon": 1.429880706043356, "name": "00037 - STE LUCIE", "stands": 7, "status": "OPEN", "address": "53 RUE STE LUCIE", "update": "2016-02-08T20:28:58", "lat": 43.593506929037055}, "geometry": {"type": "Point", "coordinates": [1.429880706043356, 43.593506929037055]}, "type": "Feature"}, {"properties": {"bikes": 4, "lon": 1.41398, "name": "00266 - TOURAINE", "stands": 16, "status": "OPEN", "address": "38 RUE DE LA TOURAINE ANGLE RUE D AUVERGNE 31000 TOULOUSE", "update": "2016-02-08T20:26:20", "lat": 43.57375}, "geometry": {"type": "Point", "coordinates": [1.41398, 43.57375]}, "type": "Feature"}, {"properties": {"bikes": 7, "lon": 1.434138106708093, "name": "00079 - PLACE LANGE", "stands": 12, "status": "OPEN", "address": "1 PL LANGE", "update": "2016-02-08T20:29:26", "lat": 43.60112880561738}, "geometry": {"type": "Point", "coordinates": [1.434138106708093, 43.60112880561738]}, "type": "Feature"}, {"properties": {"bikes": 5, "lon": 1.483021040946601, "name": "00210 - TERRASSE/ CENTRE CO.", "stands": 13, "status": "OPEN", "address": "FACE 42 CHE DE LA TERRASSE", "update": "2016-02-08T20:24:04", "lat": 43.586074956653995}, "geometry": {"type": "Point", "coordinates": [1.483021040946601, 43.586074956653995]}, "type": "Feature"}, {"properties": {"bikes": 9, "lon": 1.436590757220506, "name": "00075 - CHATEAU D EAU", "stands": 12, "status": "OPEN", "address": "12 PL LAGANNE", "update": "2016-02-08T20:25:26", "lat": 43.598542607102175}, "geometry": {"type": "Point", "coordinates": [1.436590757220506, 43.598542607102175]}, "type": "Feature"}, {"properties": {"bikes": 2, "lon": 1.406488768851485, "name": "00221 - VAUQUELIN", "stands": 18, "status": "OPEN", "address": "FACE 85 RUE VAUQUELIN", "update": "2016-02-08T20:28:23", "lat": 43.57641895477528}, "geometry": {"type": "Point", "coordinates": [1.406488768851485, 43.57641895477528]}, "type": "Feature"}, {"properties": {"bikes": 20, "lon": 1.447411881616044, "name": "00128 - PRISON ST MICHEL", "stands": 2, "status": "OPEN", "address": "18 B GRANDE RUE ST MICHEL", "update": "2016-02-08T20:22:54", "lat": 43.58589564207925}, "geometry": {"type": "Point", "coordinates": [1.447411881616044, 43.58589564207925]}, "type": "Feature"}, {"properties": {"bikes": 14, "lon": 1.450764528471522, "name": "00118 - PLACE DU BUSCA", "stands": 1, "status": "OPEN", "address": "2 PLACE DU BUSCA", "update": "2016-02-08T20:26:31", "lat": 43.58817925392077}, "geometry": {"type": "Point", "coordinates": [1.450764528471522, 43.58817925392077]}, "type": "Feature"}, {"properties": {"bikes": 1, "lon": 1.44455, "name": "00068 - METRO - PALAIS DE JUSTICE", "stands": 15, "status": "OPEN", "address": "1 BIS ALLEE JULES GUESDE", "update": "2016-02-08T20:25:29", "lat": 43.59265}, "geometry": {"type": "Point", "coordinates": [1.44455, 43.59265]}, "type": "Feature"}, {"properties": {"bikes": 13, "lon": 1.428966282419491, "name": "00147 - CHAUSSAS - DAUDET", "stands": 7, "status": "OPEN", "address": "96 RUE DE CHAUSSAS", "update": "2016-02-08T20:29:59", "lat": 43.61990748467363}, "geometry": {"type": "Point", "coordinates": [1.428966282419491, 43.61990748467363]}, "type": "Feature"}, {"properties": {"bikes": 13, "lon": 1.447936286895422, "name": "00153 - BOURGES MAUNOURY", "stands": 4, "status": "OPEN", "address": "12 AV BOURGES MAUNOURY", "update": "2016-02-08T20:28:20", "lat": 43.628469420497346}, "geometry": {"type": "Point", "coordinates": [1.447936286895422, 43.628469420497346]}, "type": "Feature"}, {"properties": {"bikes": 1, "lon": 1.45632, "name": "00262 - ROND POINT CHEMIN DE BORDEROUGE", "stands": 17, "status": "OPEN", "address": "Devant N\u00b026 Chemin de Borderouge", "update": "2016-02-08T20:20:45", "lat": 43.64265}, "geometry": {"type": "Point", "coordinates": [1.45632, 43.64265]}, "type": "Feature"}, {"properties": {"bikes": 7, "lon": 1.458852500499583, "name": "00233 - NARBONNE /SAHUQUE", "stands": 13, "status": "OPEN", "address": "105 RTE DE NARBONNE", "update": "2016-02-08T20:25:48", "lat": 43.56641276350635}, "geometry": {"type": "Point", "coordinates": [1.458852500499583, 43.56641276350635]}, "type": "Feature"}, {"properties": {"bikes": 6, "lon": 1.450245130369442, "name": "00021 - CARNOT LABEDA", "stands": 19, "status": "OPEN", "address": "63 BD LAZARE CARNOT", "update": "2016-02-08T20:23:00", "lat": 43.60411143798555}, "geometry": {"type": "Point", "coordinates": [1.450245130369442, 43.60411143798555]}, "type": "Feature"}, {"properties": {"bikes": 4, "lon": 1.45336004007864, "name": "00062 - JAURES STALINGRAD", "stands": 18, "status": "OPEN", "address": "71 ALL JEAN JAURES", "update": "2016-02-08T20:20:31", "lat": 43.609044644058145}, "geometry": {"type": "Point", "coordinates": [1.45336004007864, 43.609044644058145]}, "type": "Feature"}, {"properties": {"bikes": 17, "lon": 1.443751822397876, "name": "00244 - RENAN / VITRY", "stands": 1, "status": "OPEN", "address": "93 RUE ERNEST RENAN ANGLE RUE VITRY", "update": "2016-02-08T20:27:16", "lat": 43.635706776069696}, "geometry": {"type": "Point", "coordinates": [1.443751822397876, 43.635706776069696]}, "type": "Feature"}, {"properties": {"bikes": 0, "lon": 1.41518438915584, "name": "00245 - GRANDE BRETAGNE / BADIOU", "stands": 1, "status": "OPEN", "address": "103 BIS AVENUE DE GRANDE BRETAGNE ANGLE RUE BADIOU", "update": "2016-02-08T20:28:14", "lat": 43.59990824072129}, "geometry": {"type": "Point", "coordinates": [1.41518438915584, 43.59990824072129]}, "type": "Feature"}, {"properties": {"bikes": 13, "lon": 1.43379, "name": "00260 - DUCLOS - FRONTON", "stands": 5, "status": "OPEN", "address": "Avenue duclos angle Avenue de Fronton", "update": "2016-02-08T20:24:26", "lat": 43.64495}, "geometry": {"type": "Point", "coordinates": [1.43379, 43.64495]}, "type": "Feature"}, {"properties": {"bikes": 0, "lon": 1.464456852027628, "name": "00228 - METRO PHARMACIE", "stands": 18, "status": "OPEN", "address": "FACE 35 CHEMIN DES MARAICHERS", "update": "2016-02-08T20:23:27", "lat": 43.567716505871594}, "geometry": {"type": "Point", "coordinates": [1.464456852027628, 43.567716505871594]}, "type": "Feature"}, {"properties": {"bikes": 7, "lon": 1.43538536091475, "name": "00235 - PAUL VERLAINE", "stands": 12, "status": "OPEN", "address": "FACE AU 8 RUE PAUL VERLAINE", "update": "2016-02-08T20:26:03", "lat": 43.6333722270955}, "geometry": {"type": "Point", "coordinates": [1.43538536091475, 43.6333722270955]}, "type": "Feature"}, {"properties": {"bikes": 11, "lon": 1.439870900566373, "name": "00150 - CURIE CAMPISTRON", "stands": 7, "status": "OPEN", "address": "78 BD PIERRE ET MARIE CURIE", "update": "2016-02-08T20:22:23", "lat": 43.62593095954932}, "geometry": {"type": "Point", "coordinates": [1.439870900566373, 43.62593095954932]}, "type": "Feature"}, {"properties": {"bikes": 10, "lon": 1.39711, "name": "00271 - ANCELY", "stands": 10, "status": "OPEN", "address": "151 AVENUE DE CASSELARDIT SORTIE VILLE 31000 TOULOUSE", "update": "2016-02-08T20:21:32", "lat": 43.61948}, "geometry": {"type": "Point", "coordinates": [1.39711, 43.61948]}, "type": "Feature"}, {"properties": {"bikes": 14, "lon": 1.443570238387108, "name": "00033 - BERALDI", "stands": 1, "status": "OPEN", "address": "11 RUE HENRI BERALDI", "update": "2016-02-08T20:21:16", "lat": 43.608568713084686}, "geometry": {"type": "Point", "coordinates": [1.443570238387108, 43.608568713084686]}, "type": "Feature"}, {"properties": {"bikes": 11, "lon": 1.461191671613412, "name": "00172 - NETWILLER / LAFORGUE", "stands": 8, "status": "OPEN", "address": "RUE HENRI EBELOT", "update": "2016-02-08T20:26:34", "lat": 43.642833569777416}, "geometry": {"type": "Point", "coordinates": [1.461191671613412, 43.642833569777416]}, "type": "Feature"}, {"properties": {"bikes": 18, "lon": 1.420545407442975, "name": "00120 - PONTS JUMEAUX", "stands": 0, "status": "OPEN", "address": "152 ALL DE BARCELONE", "update": "2016-02-08T20:25:35", "lat": 43.61035351524297}, "geometry": {"type": "Point", "coordinates": [1.420545407442975, 43.61035351524297]}, "type": "Feature"}, {"properties": {"bikes": 13, "lon": 1.466442513411802, "name": "00217 - AMOUROUX/ ST TROPEZ", "stands": 5, "status": "OPEN", "address": "42 CHE AMOUROUX", "update": "2016-02-08T20:23:12", "lat": 43.629671600633195}, "geometry": {"type": "Point", "coordinates": [1.466442513411802, 43.629671600633195]}, "type": "Feature"}, {"properties": {"bikes": 9, "lon": 1.450535969934731, "name": "00173 - MAUNOURY / SEGELA", "stands": 9, "status": "OPEN", "address": "25 AV MAURICE BOURGES MAUNOURY", "update": "2016-02-08T20:24:00", "lat": 43.6331828272491}, "geometry": {"type": "Point", "coordinates": [1.450535969934731, 43.6331828272491]}, "type": "Feature"}, {"properties": {"bikes": 17, "lon": 1.413431676051568, "name": "00143 - DESBALS SAINTONGE", "stands": 3, "status": "OPEN", "address": "145 RUE HENRI DESBALS", "update": "2016-02-08T20:27:38", "lat": 43.5813322052426}, "geometry": {"type": "Point", "coordinates": [1.413431676051568, 43.5813322052426]}, "type": "Feature"}, {"properties": {"bikes": 15, "lon": 1.42386687477895, "name": "00106 - BRIENNE PASSERELLE", "stands": 6, "status": "OPEN", "address": "99 ALL DE BRIENNE", "update": "2016-02-08T20:30:11", "lat": 43.60842211156853}, "geometry": {"type": "Point", "coordinates": [1.42386687477895, 43.60842211156853]}, "type": "Feature"}, {"properties": {"bikes": 5, "lon": 1.43288072066524, "name": "00123 - CHAUSSAS EMBOUCHURE", "stands": 18, "status": "OPEN", "address": "1 RUE DE CHAUSSAS", "update": "2016-02-08T20:24:52", "lat": 43.61492465117555}, "geometry": {"type": "Point", "coordinates": [1.43288072066524, 43.61492465117555]}, "type": "Feature"}, {"properties": {"bikes": 4, "lon": 1.442101445768934, "name": "00006 - LOIS", "stands": 15, "status": "OPEN", "address": "5 RUE DES LOIS", "update": "2016-02-08T20:29:38", "lat": 43.605203861405954}, "geometry": {"type": "Point", "coordinates": [1.442101445768934, 43.605203861405954]}, "type": "Feature"}, {"properties": {"bikes": 5, "lon": 1.48346, "name": "00257 - CHATEAU DE L'HERS", "stands": 11, "status": "OPEN", "address": "CHEMIN DU CHATEAU DE L'HERS ANGLE CHEMIN FONTANELLES 31000 TOULOUSE", "update": "2016-02-08T20:27:36", "lat": 43.60086}, "geometry": {"type": "Point", "coordinates": [1.48346, 43.60086]}, "type": "Feature"}, {"properties": {"bikes": 16, "lon": 1.451476646620887, "name": "00097 - RAYMOND IV", "stands": 5, "status": "OPEN", "address": "RUE RAYMOND IV", "update": "2016-02-08T20:27:22", "lat": 43.61243588156053}, "geometry": {"type": "Point", "coordinates": [1.451476646620887, 43.61243588156053]}, "type": "Feature"}, {"properties": {"bikes": 10, "lon": 1.415183785619737, "name": "00191 - RUE DU 14 JUILLET", "stands": 8, "status": "OPEN", "address": "395 ROUTE DE SAINT SIMON", "update": "2016-02-08T20:25:07", "lat": 43.58998499389323}, "geometry": {"type": "Point", "coordinates": [1.415183785619737, 43.58998499389323]}, "type": "Feature"}, {"properties": {"bikes": 8, "lon": 1.449072022617868, "name": "00019 - CARNOT PERI", "stands": 17, "status": "OPEN", "address": "62 BD LAZARE CARNOT", "update": "2016-02-08T20:26:25", "lat": 43.60557592007205}, "geometry": {"type": "Point", "coordinates": [1.449072022617868, 43.60557592007205]}, "type": "Feature"}, {"properties": {"bikes": 0, "lon": 1.465376125032407, "name": "00212 - CHAUMIERE/ CRETES", "stands": 17, "status": "OPEN", "address": "RUE DE LA CHAUMIERE", "update": "2016-02-08T20:20:59", "lat": 43.615227374108336}, "geometry": {"type": "Point", "coordinates": [1.465376125032407, 43.615227374108336]}, "type": "Feature"}, {"properties": {"bikes": 15, "lon": 1.473505161008297, "name": "00179 - CASSAING PLANA", "stands": 2, "status": "OPEN", "address": "5 CH CASSAING", "update": "2016-02-08T20:27:20", "lat": 43.61680265241856}, "geometry": {"type": "Point", "coordinates": [1.473505161008297, 43.61680265241856]}, "type": "Feature"}, {"properties": {"bikes": 9, "lon": 1.463164045792265, "name": "00204 - PL. ROGER ARNAUD", "stands": 9, "status": "OPEN", "address": "PL ROGER ARNAUD", "update": "2016-02-08T20:29:21", "lat": 43.58677914294868}, "geometry": {"type": "Point", "coordinates": [1.463164045792265, 43.58677914294868]}, "type": "Feature"}, {"properties": {"bikes": 7, "lon": 1.456658754907086, "name": "00134 - EGLISE BONNEFOY", "stands": 12, "status": "OPEN", "address": "8 ALLEE DE L EGLISE BONNEFOY", "update": "2016-02-08T20:23:36", "lat": 43.61894094381528}, "geometry": {"type": "Point", "coordinates": [1.456658754907086, 43.61894094381528]}, "type": "Feature"}, {"properties": {"bikes": 19, "lon": 1.452936514925397, "name": "00112 - PLACE RUSSEL - BRANLY", "stands": 1, "status": "OPEN", "address": "47 ALLEE BRANLY", "update": "2016-02-08T20:23:44", "lat": 43.585266840172814}, "geometry": {"type": "Point", "coordinates": [1.452936514925397, 43.585266840172814]}, "type": "Feature"}, {"properties": {"bikes": 15, "lon": 1.424432564672875, "name": "00241 - ESPAGNE CHARPENTIER", "stands": 4, "status": "OPEN", "address": "57 Route D'Espagne", "update": "2016-02-08T16:37:02", "lat": 43.574576545136445}, "geometry": {"type": "Point", "coordinates": [1.424432564672875, 43.574576545136445]}, "type": "Feature"}, {"properties": {"bikes": 6, "lon": 1.42463077628583, "name": "00183 - RUE DE CUGNAUX", "stands": 12, "status": "OPEN", "address": "RUE DE CUGNAUX", "update": "2016-02-08T20:26:55", "lat": 43.5931301810241}, "geometry": {"type": "Point", "coordinates": [1.42463077628583, 43.5931301810241]}, "type": "Feature"}, {"properties": {"bikes": 20, "lon": 1.454339701099757, "name": "00126 - ECOLE BONNEFOY", "stands": 2, "status": "OPEN", "address": "18 RUE BONNEFOY", "update": "2016-02-08T20:28:36", "lat": 43.61689063107848}, "geometry": {"type": "Point", "coordinates": [1.454339701099757, 43.61689063107848]}, "type": "Feature"}, {"properties": {"bikes": 10, "lon": 1.44009, "name": "00255 - HENRI SELLIER", "stands": 6, "status": "OPEN", "address": "2 RUE DES MOUETTES ANGLE ALLEES SELLIER 31000 TOULOUSE", "update": "2016-02-08T20:23:48", "lat": 43.57705}, "geometry": {"type": "Point", "coordinates": [1.44009, 43.57705]}, "type": "Feature"}, {"properties": {"bikes": 11, "lon": 1.450179100392055, "name": "00024 - PLACE SAINT ETIENNE", "stands": 11, "status": "OPEN", "address": "14 PL SAINT ETIENNE", "update": "2016-02-08T20:23:31", "lat": 43.600398667412286}, "geometry": {"type": "Point", "coordinates": [1.450179100392055, 43.600398667412286]}, "type": "Feature"}, {"properties": {"bikes": 2, "lon": 1.458048662941769, "name": "00196 - GOUJON - GUILHEMERY", "stands": 18, "status": "OPEN", "address": "6 RUE JEAN GOUJON", "update": "2016-02-08T20:25:16", "lat": 43.6017932127447}, "geometry": {"type": "Point", "coordinates": [1.458048662941769, 43.6017932127447]}, "type": "Feature"}, {"properties": {"bikes": 3, "lon": 1.44649, "name": "281 - NIEL", "stands": 15, "status": "OPEN", "address": "RUE ST ROCH FACE RUE ELVIRE 31000 TOULOUSE", "update": "2016-02-08T20:23:08", "lat": 43.57886}, "geometry": {"type": "Point", "coordinates": [1.44649, 43.57886]}, "type": "Feature"}, {"properties": {"bikes": 13, "lon": 1.436875386155235, "name": "00124 - EGLISE DES MINIMES", "stands": 4, "status": "OPEN", "address": "27 AV DES MINIMES", "update": "2016-02-08T20:26:20", "lat": 43.61814891164924}, "geometry": {"type": "Point", "coordinates": [1.436875386155235, 43.61814891164924]}, "type": "Feature"}, {"properties": {"bikes": 3, "lon": 1.481508972569192, "name": "00207 - CHRIST ROI", "stands": 14, "status": "OPEN", "address": "FACE 25 RUE DE L AUDE", "update": "2016-02-08T20:20:33", "lat": 43.58300698375498}, "geometry": {"type": "Point", "coordinates": [1.481508972569192, 43.58300698375498]}, "type": "Feature"}, {"properties": {"bikes": 2, "lon": 1.44026, "name": "00011 - PLACE DE LA DAURADE", "stands": 21, "status": "OPEN", "address": "2 PL DE LA DAURADE", "update": "2016-02-08T20:27:15", "lat": 43.60215}, "geometry": {"type": "Point", "coordinates": [1.44026, 43.60215]}, "type": "Feature"}, {"properties": {"bikes": 8, "lon": 1.41112908179427, "name": "00186 - DESBALS BOUALAM", "stands": 10, "status": "OPEN", "address": "1 IMPASSE BACHAGA BOUALAM", "update": "2016-02-08T20:28:05", "lat": 43.5792182218804}, "geometry": {"type": "Point", "coordinates": [1.41112908179427, 43.5792182218804]}, "type": "Feature"}, {"properties": {"bikes": 12, "lon": 1.44404, "name": "00252 - NEGRENEYS /CASENEUVE", "stands": 4, "status": "OPEN", "address": "161/163 AV DE NEGRENEYS SUR ILOT CENTRAL", "update": "2016-02-08T20:28:58", "lat": 43.62687}, "geometry": {"type": "Point", "coordinates": [1.44404, 43.62687]}, "type": "Feature"}, {"properties": {"bikes": 20, "lon": 1.469362217455508, "name": "00184 - MICHOUN", "stands": 0, "status": "OPEN", "address": "70 CHEMIN MICHOUN", "update": "2016-02-08T20:27:30", "lat": 43.62727712277727}, "geometry": {"type": "Point", "coordinates": [1.469362217455508, 43.62727712277727]}, "type": "Feature"}, {"properties": {"bikes": 6, "lon": 1.454915112024358, "name": "00161 - RANGUEIL - BEDOUCE", "stands": 8, "status": "OPEN", "address": "35 AV DE RANGUEIL", "update": "2016-02-08T20:25:51", "lat": 43.57644751100008}, "geometry": {"type": "Point", "coordinates": [1.454915112024358, 43.57644751100008]}, "type": "Feature"}, {"properties": {"bikes": 0, "lon": 1.3972, "name": "00268 - PLACE BAYLAC", "stands": 22, "status": "OPEN", "address": "avenue des Ar\u00e8nes Romaines, avant place du docteur Baylac 31000 TOULOUSE", "update": "2016-02-08T20:26:05", "lat": 43.60868}, "geometry": {"type": "Point", "coordinates": [1.3972, 43.60868]}, "type": "Feature"}, {"properties": {"bikes": 3, "lon": 1.427969819484834, "name": "00082 - SEJOURNE CATALANS", "stands": 18, "status": "OPEN", "address": "1 AV PAUL SEJOURNE", "update": "2016-02-08T20:28:00", "lat": 43.605562378447424}, "geometry": {"type": "Point", "coordinates": [1.427969819484834, 43.605562378447424]}, "type": "Feature"}, {"properties": {"bikes": 11, "lon": 1.43421, "name": "00070 - FER A CHEVAL", "stands": 7, "status": "OPEN", "address": "5 PLACE DU FER A CHEVAL", "update": "2016-02-08T20:28:15", "lat": 43.59253}, "geometry": {"type": "Point", "coordinates": [1.43421, 43.59253]}, "type": "Feature"}, {"properties": {"bikes": 13, "lon": 1.418128481713567, "name": "00141 - FONTAINE LESTANG", "stands": 5, "status": "OPEN", "address": "237 RUE HENRI DESBALS", "update": "2016-02-08T20:24:15", "lat": 43.587583195522946}, "geometry": {"type": "Point", "coordinates": [1.418128481713567, 43.587583195522946]}, "type": "Feature"}, {"properties": {"bikes": 1, "lon": 1.428790629053277, "name": "00108 - SEBASTOPOL - RITAY", "stands": 18, "status": "OPEN", "address": "2 BD SEBASTOPOL", "update": "2016-02-08T20:27:04", "lat": 43.612283701347906}, "geometry": {"type": "Point", "coordinates": [1.428790629053277, 43.612283701347906]}, "type": "Feature"}, {"properties": {"bikes": 11, "lon": 1.430598716260075, "name": "00085 - MARECHAL LECLERC", "stands": 11, "status": "OPEN", "address": "2 BD DU MARECHAL LECLERC", "update": "2016-02-08T20:28:44", "lat": 43.606708008560005}, "geometry": {"type": "Point", "coordinates": [1.430598716260075, 43.606708008560005]}, "type": "Feature"}, {"properties": {"bikes": 3, "lon": 1.476002176599847, "name": "00202 - ST EX. - COURREGE", "stands": 14, "status": "OPEN", "address": "165 AV ANTOINE DE ST EXUPERY", "update": "2016-02-08T20:27:18", "lat": 43.58166894906154}, "geometry": {"type": "Point", "coordinates": [1.476002176599847, 43.58166894906154]}, "type": "Feature"}, {"properties": {"bikes": 10, "lon": 1.453042492588597, "name": "00102 -  MISTRAL - FLEURANCE", "stands": 9, "status": "OPEN", "address": "18 ALLEE FREDERIC MISTRAL", "update": "2016-02-08T20:28:31", "lat": 43.593599912488976}, "geometry": {"type": "Point", "coordinates": [1.453042492588597, 43.593599912488976]}, "type": "Feature"}, {"properties": {"bikes": 0, "lon": 1.438224999266949, "name": "00030 - PLACE ANATOLE FRANCE", "stands": 23, "status": "OPEN", "address": "40 PL ANATOLE FRANCE", "update": "2016-02-08T20:30:18", "lat": 43.60629527233212}, "geometry": {"type": "Point", "coordinates": [1.438224999266949, 43.60629527233212]}, "type": "Feature"}, {"properties": {"bikes": 16, "lon": 1.464148138450798, "name": "00170 - ROUTE D ALBI   / CUVIER", "stands": 1, "status": "OPEN", "address": "FACE 163 CHEMIN NICOLE", "update": "2016-02-08T20:20:29", "lat": 43.635666512128225}, "geometry": {"type": "Point", "coordinates": [1.464148138450798, 43.635666512128225]}, "type": "Feature"}, {"properties": {"bikes": 15, "lon": 1.41954, "name": "00274 - GALLIENI", "stands": 3, "status": "OPEN", "address": "296 route de Seysses", "update": "2016-02-08T20:25:36", "lat": 43.574}, "geometry": {"type": "Point", "coordinates": [1.41954, 43.574]}, "type": "Feature"}, {"properties": {"bikes": 0, "lon": 1.467514131065815, "name": "00213 - PUJOL/ CHAUBET", "stands": 17, "status": "OPEN", "address": "129 AV DE CASTRES", "update": "2016-02-08T20:28:20", "lat": 43.60075517705335}, "geometry": {"type": "Point", "coordinates": [1.467514131065815, 43.60075517705335]}, "type": "Feature"}, {"properties": {"bikes": 1, "lon": 1.441434965295236, "name": "00049 - COUTELIER - METZ", "stands": 15, "status": "OPEN", "address": "52 RUE DES COUTELIERS", "update": "2016-02-08T20:20:24", "lat": 43.599589544431005}, "geometry": {"type": "Point", "coordinates": [1.441434965295236, 43.599589544431005]}, "type": "Feature"}, {"properties": {"bikes": 8, "lon": 1.434650096062823, "name": "00052 - DUPORTAL CITE ADMIN.", "stands": 13, "status": "OPEN", "address": "41 BD ARMAND DUPORTAL", "update": "2016-02-08T20:26:24", "lat": 43.60864745421513}, "geometry": {"type": "Point", "coordinates": [1.434650096062823, 43.60864745421513]}, "type": "Feature"}, {"properties": {"bikes": 6, "lon": 1.43104, "name": "00104 - MURET BARTHERE", "stands": 10, "status": "OPEN", "address": "219 AV DE MURET", "update": "2016-02-08T20:29:24", "lat": 43.58903}, "geometry": {"type": "Point", "coordinates": [1.43104, 43.58903]}, "type": "Feature"}, {"properties": {"bikes": 4, "lon": 1.441331077590377, "name": "00013 - LOIS ESQUILE", "stands": 11, "status": "OPEN", "address": "1 RUE DE L ESQUILE", "update": "2016-02-08T20:24:52", "lat": 43.60621318190248}, "geometry": {"type": "Point", "coordinates": [1.441331077590377, 43.60621318190248]}, "type": "Feature"}, {"properties": {"bikes": 8, "lon": 1.4278, "name": "00129 - CROIX DE PIERRE", "stands": 8, "status": "OPEN", "address": "2 BD DEODAT DE SEVERAC", "update": "2016-02-08T20:30:06", "lat": 43.58588}, "geometry": {"type": "Point", "coordinates": [1.4278, 43.58588]}, "type": "Feature"}, {"properties": {"bikes": 18, "lon": 1.449135738584587, "name": "00158 - URSS ST THOMAS D AQUIN", "stands": 2, "status": "OPEN", "address": "57 AV DE L URSS", "update": "2016-02-08T20:27:08", "lat": 43.580795461338795}, "geometry": {"type": "Point", "coordinates": [1.449135738584587, 43.580795461338795]}, "type": "Feature"}, {"properties": {"bikes": 3, "lon": 1.458930207887618, "name": "00168 - BILA   /  ROUTE D ALBI", "stands": 17, "status": "OPEN", "address": "RUE CREMON", "update": "2016-02-08T20:24:07", "lat": 43.626509813353074}, "geometry": {"type": "Point", "coordinates": [1.458930207887618, 43.626509813353074]}, "type": "Feature"}, {"properties": {"bikes": 12, "lon": 1.46521198710394, "name": "00249 - CROIX DAURADE", "stands": 7, "status": "OPEN", "address": "147 RTE D'ALBI", "update": "2016-02-08T20:23:03", "lat": 43.63812899582609}, "geometry": {"type": "Point", "coordinates": [1.46521198710394, 43.63812899582609]}, "type": "Feature"}, {"properties": {"bikes": 7, "lon": 1.4565, "name": "00015 - PONT MONTAUDRAN", "stands": 13, "status": "OPEN", "address": "face au 20 port st sauveur", "update": "2016-02-08T20:26:40", "lat": 43.59642}, "geometry": {"type": "Point", "coordinates": [1.4565, 43.59642]}, "type": "Feature"}, {"properties": {"bikes": 12, "lon": 1.439230135508607, "name": "00247 - LAUNAGUET / AUDIBERT", "stands": 5, "status": "OPEN", "address": "ROUTE DE LAUNAGUET ANGLE CHEMIN AUDIBERT", "update": "2016-02-08T20:23:23", "lat": 43.63677495879212}, "geometry": {"type": "Point", "coordinates": [1.439230135508607, 43.63677495879212]}, "type": "Feature"}, {"properties": {"bikes": 19, "lon": 1.435181557097925, "name": "00076 - REPUBLIQUE PL. OLIVIER", "stands": 3, "status": "OPEN", "address": "34 RUE DE LA REPUBLIQUE", "update": "2016-02-08T20:27:25", "lat": 43.59849490883457}, "geometry": {"type": "Point", "coordinates": [1.435181557097925, 43.59849490883457]}, "type": "Feature"}, {"properties": {"bikes": 13, "lon": 1.415377349047291, "name": "00193 - LOMBEZ / PETITE VITESSE", "stands": 7, "status": "OPEN", "address": "59 AV DE LOMBEZ", "update": "2016-02-08T20:25:31", "lat": 43.594849382545554}, "geometry": {"type": "Point", "coordinates": [1.415377349047291, 43.594849382545554]}, "type": "Feature"}, {"properties": {"bikes": 19, "lon": 1.423916022506519, "name": "00190 - ESPAGNE LES OUSTALOUS", "stands": 1, "status": "OPEN", "address": "39 RTE D'Espagne", "update": "2016-02-08T20:27:39", "lat": 43.57827536338912}, "geometry": {"type": "Point", "coordinates": [1.423916022506519, 43.57827536338912]}, "type": "Feature"}, {"properties": {"bikes": 15, "lon": 1.43168347755474, "name": "00253 - ETATS-UNIS / ROBERT", "stands": 5, "status": "OPEN", "address": "AV DES Etats-Unis FACE AU 68 / 70", "update": "2016-02-08T20:21:06", "lat": 43.6319121122554}, "geometry": {"type": "Point", "coordinates": [1.43168347755474, 43.6319121122554]}, "type": "Feature"}, {"properties": {"bikes": 4, "lon": 1.47765639323401, "name": "00180 - PLACE SOUPETARD", "stands": 14, "status": "OPEN", "address": "3 Place SOUPETARD", "update": "2016-02-08T20:29:54", "lat": 43.6122515815792}, "geometry": {"type": "Point", "coordinates": [1.47765639323401, 43.6122515815792]}, "type": "Feature"}, {"properties": {"bikes": 8, "lon": 1.460094426022393, "name": "00164 - BEDOUCE SAOUZELONG", "stands": 12, "status": "OPEN", "address": "AV ALBERT BEDOUCE", "update": "2016-02-08T20:23:55", "lat": 43.579725432743686}, "geometry": {"type": "Point", "coordinates": [1.460094426022393, 43.579725432743686]}, "type": "Feature"}, {"properties": {"bikes": 18, "lon": 1.434843235786321, "name": "00051 - DUPORTAL BRIENNE", "stands": 0, "status": "OPEN", "address": "1 BD ARMAND DUPORTAL", "update": "2016-02-08T20:30:01", "lat": 43.605035688745794}, "geometry": {"type": "Point", "coordinates": [1.434843235786321, 43.605035688745794]}, "type": "Feature"}, {"properties": {"bikes": 1, "lon": 1.4469, "name": "00035 - PLACE JEANNE D'ARC", "stands": 24, "status": "OPEN", "address": "1 RUE RAYMOND IV", "update": "2016-02-08T20:29:50", "lat": 43.60964}, "geometry": {"type": "Point", "coordinates": [1.4469, 43.60964]}, "type": "Feature"}, {"properties": {"bikes": 4, "lon": 1.45174992410964, "name": "00044 - PALAIS NIEL", "stands": 18, "status": "OPEN", "address": "1 ALL FORAIN FRANCOIS VERDIER", "update": "2016-02-08T20:26:49", "lat": 43.59800264157314}, "geometry": {"type": "Point", "coordinates": [1.45174992410964, 43.59800264157314]}, "type": "Feature"}, {"properties": {"bikes": 15, "lon": 1.466308391813157, "name": "00171 - ROUTE D ALBI / CACTUS", "stands": 3, "status": "OPEN", "address": "191 RTE D'ALBI", "update": "2016-02-08T20:23:42", "lat": 43.640897350426606}, "geometry": {"type": "Point", "coordinates": [1.466308391813157, 43.640897350426606]}, "type": "Feature"}, {"properties": {"bikes": 17, "lon": 1.45491780578712, "name": "00162 - PLACE D'ITALIE", "stands": 0, "status": "OPEN", "address": "AV D' ITALIE", "update": "2016-02-08T20:21:43", "lat": 43.580276538637605}, "geometry": {"type": "Point", "coordinates": [1.45491780578712, 43.580276538637605]}, "type": "Feature"}, {"properties": {"bikes": 0, "lon": 1.43922052825561, "name": "00031 - SALENQUES", "stands": 20, "status": "OPEN", "address": "7 RUE DES SALENQUES", "update": "2016-02-08T20:25:36", "lat": 43.60749002329994}, "geometry": {"type": "Point", "coordinates": [1.43922052825561, 43.60749002329994]}, "type": "Feature"}, {"properties": {"bikes": 17, "lon": 1.41997369298729, "name": "00138 - BARRIERE DE BAYONNE", "stands": 2, "status": "OPEN", "address": "3 BD JEAN BRUNHES", "update": "2016-02-08T20:26:40", "lat": 43.598196214598815}, "geometry": {"type": "Point", "coordinates": [1.41997369298729, 43.598196214598815]}, "type": "Feature"}, {"properties": {"bikes": 14, "lon": 1.459836309553229, "name": "00098 - PONT DES DEMOISELLES", "stands": 8, "status": "OPEN", "address": "80 ALL DES DEMOISELLES", "update": "2016-02-08T20:22:52", "lat": 43.587677990128874}, "geometry": {"type": "Point", "coordinates": [1.459836309553229, 43.587677990128874]}, "type": "Feature"}, {"properties": {"bikes": 3, "lon": 1.446610770547085, "name": "00016 - STRASBOURG BAYARD", "stands": 18, "status": "OPEN", "address": "32 BD DE STRASBOURG", "update": "2016-02-08T20:29:38", "lat": 43.60793763027584}, "geometry": {"type": "Point", "coordinates": [1.446610770547085, 43.60793763027584]}, "type": "Feature"}, {"properties": {"bikes": 0, "lon": 1.473457600659471, "name": "00198 - LAFILAIRE - DELTOUR", "stands": 20, "status": "OPEN", "address": "FACE 25 CHEMIN LAFILAIRE", "update": "2016-02-08T20:25:53", "lat": 43.59622771557735}, "geometry": {"type": "Point", "coordinates": [1.473457600659471, 43.59622771557735]}, "type": "Feature"}, {"properties": {"bikes": 8, "lon": 1.442808436675486, "name": "00056 - SAINT SERNIN  MERLY", "stands": 7, "status": "OPEN", "address": "1 RUE MERLY", "update": "2016-02-08T20:21:19", "lat": 43.609029818757634}, "geometry": {"type": "Point", "coordinates": [1.442808436675486, 43.609029818757634]}, "type": "Feature"}, {"properties": {"bikes": 7, "lon": 1.428493330933498, "name": "00146 - SANG DE SERP - DAGNAUX", "stands": 13, "status": "OPEN", "address": "57 CH DU SANG DE SERP", "update": "2016-02-08T20:29:47", "lat": 43.61541821044434}, "geometry": {"type": "Point", "coordinates": [1.428493330933498, 43.61541821044434]}, "type": "Feature"}, {"properties": {"bikes": 18, "lon": 1.37764, "name": "00269 - PLACE SAUVEGRAIN", "stands": 0, "status": "OPEN", "address": "Place Sauvegrain - angle avenue de Lardenne", "update": "2016-02-08T20:24:48", "lat": 43.58996}, "geometry": {"type": "Point", "coordinates": [1.37764, 43.58996]}, "type": "Feature"}, {"properties": {"bikes": 11, "lon": 1.425222752953333, "name": "00095 - THEATRE GARONNE", "stands": 11, "status": "OPEN", "address": "4 AVENUE DU CH\u00c2TEAU D'EAU", "update": "2016-02-08T20:29:13", "lat": 43.602528105503815}, "geometry": {"type": "Point", "coordinates": [1.425222752953333, 43.602528105503815]}, "type": "Feature"}, {"properties": {"bikes": 7, "lon": 1.441220679302088, "name": "00092 - CHALETS", "stands": 8, "status": "OPEN", "address": "31 RUE DES CHALETS", "update": "2016-02-08T20:26:48", "lat": 43.61325027179293}, "geometry": {"type": "Point", "coordinates": [1.441220679302088, 43.61325027179293]}, "type": "Feature"}, {"properties": {"bikes": 9, "lon": 1.451651418090918, "name": "00038 - JAURES BACHELIER", "stands": 9, "status": "OPEN", "address": "56 ALL JEAN JAURES", "update": "2016-02-08T20:27:27", "lat": 43.60754756868432}, "geometry": {"type": "Point", "coordinates": [1.451651418090918, 43.60754756868432]}, "type": "Feature"}, {"properties": {"bikes": 2, "lon": 1.41868, "name": "00140 - EMILE MALE", "stands": 26, "status": "OPEN", "address": "PLACE EMILE MALE", "update": "2016-02-08T20:29:11", "lat": 43.59175}, "geometry": {"type": "Point", "coordinates": [1.41868, 43.59175]}, "type": "Feature"}, {"properties": {"bikes": 8, "lon": 1.458008846441328, "name": "00176 - GENERAL COMPANS", "stands": 10, "status": "OPEN", "address": "1 RUE DU GENERAL COMPANS", "update": "2016-02-08T20:26:35", "lat": 43.606790468455905}, "geometry": {"type": "Point", "coordinates": [1.458008846441328, 43.606790468455905]}, "type": "Feature"}, {"properties": {"bikes": 0, "lon": 1.479772209704475, "name": "00237 - CNRS", "stands": 20, "status": "OPEN", "address": "AVENUE EDOUARD BELIN FACE CNRS", "update": "2016-02-08T20:26:50", "lat": 43.56361464501064}, "geometry": {"type": "Point", "coordinates": [1.479772209704475, 43.56361464501064]}, "type": "Feature"}, {"properties": {"bikes": 1, "lon": 1.464668419108617, "name": "00206 - LEYGUE/ RIEUX", "stands": 17, "status": "OPEN", "address": "20 AV ARMAND LEYGUE", "update": "2016-02-08T20:22:38", "lat": 43.594341505924845}, "geometry": {"type": "Point", "coordinates": [1.464668419108617, 43.594341505924845]}, "type": "Feature"}, {"properties": {"bikes": 4, "lon": 1.435070094381549, "name": "00088 - DUPORTAL LASCROSSES", "stands": 21, "status": "OPEN", "address": "17T BD LASCROSSES", "update": "2016-02-08T20:29:59", "lat": 43.610250914040755}, "geometry": {"type": "Point", "coordinates": [1.435070094381549, 43.610250914040755]}, "type": "Feature"}, {"properties": {"bikes": 16, "lon": 1.436628759028233, "name": "00089 - ESP COMPANS CAFFARELLI", "stands": 7, "status": "OPEN", "address": "1 ESP COMPANS CAFFARELLI", "update": "2016-02-08T20:29:51", "lat": 43.611036915218165}, "geometry": {"type": "Point", "coordinates": [1.436628759028233, 43.611036915218165]}, "type": "Feature"}, {"properties": {"bikes": 16, "lon": 1.455674042776099, "name": "00100 - PORT ST SAUVEUR", "stands": 4, "status": "OPEN", "address": "16 ALL PAUL SABATIER", "update": "2016-02-08T20:28:32", "lat": 43.59697406705044}, "geometry": {"type": "Point", "coordinates": [1.455674042776099, 43.59697406705044]}, "type": "Feature"}, {"properties": {"bikes": 12, "lon": 1.475849028782433, "name": "00215 - METRO ARGOULETS", "stands": 8, "status": "OPEN", "address": "FACE 8 RUE DE GAILLAC", "update": "2016-02-08T20:24:41", "lat": 43.623814424096544}, "geometry": {"type": "Point", "coordinates": [1.475849028782433, 43.623814424096544]}, "type": "Feature"}, {"properties": {"bikes": 15, "lon": 1.439762556768512, "name": "00054 - CHAINE", "stands": 2, "status": "OPEN", "address": "10 RUE DE LA CHAINE", "update": "2016-02-08T20:29:56", "lat": 43.60842033750804}, "geometry": {"type": "Point", "coordinates": [1.439762556768512, 43.60842033750804]}, "type": "Feature"}, {"properties": {"bikes": 0, "lon": 1.448047137954633, "name": "00008 - ESPACE SAINT GEORGES", "stands": 24, "status": "OPEN", "address": "19 RUE PAUL VIDAL", "update": "2016-02-08T20:26:14", "lat": 43.60307769477977}, "geometry": {"type": "Point", "coordinates": [1.448047137954633, 43.60307769477977]}, "type": "Feature"}, {"properties": {"bikes": 14, "lon": 1.37708, "name": "00277 - ZAMENHOF", "stands": 3, "status": "OPEN", "address": "10/12 rue zamenhof - 31000 TOuLOUSE", "update": "2016-02-08T20:30:11", "lat": 43.58549}, "geometry": {"type": "Point", "coordinates": [1.37708, 43.58549]}, "type": "Feature"}, {"properties": {"bikes": 1, "lon": 1.473660631896838, "name": "00214 - CASTRES/ ACHIARY", "stands": 16, "status": "OPEN", "address": "48 AV DE CASTRES", "update": "2016-02-08T20:26:35", "lat": 43.600795440313355}, "geometry": {"type": "Point", "coordinates": [1.473660631896838, 43.600795440313355]}, "type": "Feature"}, {"properties": {"bikes": 2, "lon": 1.458007861390548, "name": "00114 - BD MONTPLAISIR - CANAL", "stands": 18, "status": "OPEN", "address": "8 BD MONPLAISIR", "update": "2016-02-08T20:28:17", "lat": 43.59239101222708}, "geometry": {"type": "Point", "coordinates": [1.458007861390548, 43.59239101222708]}, "type": "Feature"}, {"properties": {"bikes": 0, "lon": 1.445285876671779, "name": "00002 - LAFAYETTE", "stands": 21, "status": "OPEN", "address": "21 RUE LAFAYETTE", "update": "2016-02-08T20:30:05", "lat": 43.60485265221502}, "geometry": {"type": "Point", "coordinates": [1.445285876671779, 43.60485265221502]}, "type": "Feature"}, {"properties": {"bikes": 2, "lon": 1.470276283956405, "name": "00199 - DELTOUR - RIEUX", "stands": 20, "status": "OPEN", "address": "4 BD DELTOUR", "update": "2016-02-08T20:25:04", "lat": 43.591528310013615}, "geometry": {"type": "Point", "coordinates": [1.470276283956405, 43.591528310013615]}, "type": "Feature"}, {"properties": {"bikes": 15, "lon": 1.478340741030179, "name": "00223 - ENAC", "stands": 7, "status": "OPEN", "address": "AVENUE EDOUARD BELIN ANGLE AV ROCHE", "update": "2016-02-08T14:46:07", "lat": 43.565104300575406}, "geometry": {"type": "Point", "coordinates": [1.478340741030179, 43.565104300575406]}, "type": "Feature"}, {"properties": {"bikes": 0, "lon": 1.44544233356215, "name": "00010 - PLACE ESQUIROL", "stands": 33, "status": "OPEN", "address": "15 PL ETIENNE ESQUIROL", "update": "2016-02-08T20:28:10", "lat": 43.6003776908545}, "geometry": {"type": "Point", "coordinates": [1.44544233356215, 43.6003776908545]}, "type": "Feature"}, {"properties": {"bikes": 13, "lon": 1.414428635946386, "name": "00250 - 11 NOVEMBRE", "stands": 5, "status": "OPEN", "address": "RUE DU 11 NOVEMBRE", "update": "2016-02-08T20:26:15", "lat": 43.593097534292575}, "geometry": {"type": "Point", "coordinates": [1.414428635946386, 43.593097534292575]}, "type": "Feature"}, {"properties": {"bikes": 3, "lon": 1.447014394243565, "name": "00045 - OZENNE", "stands": 13, "status": "OPEN", "address": "10 RUE THEODORE OZENNE", "update": "2016-02-08T20:27:03", "lat": 43.596327873693475}, "geometry": {"type": "Point", "coordinates": [1.447014394243565, 43.596327873693475]}, "type": "Feature"}, {"properties": {"bikes": 10, "lon": 1.428253851896989, "name": "00083 - SEJOURNE AMIDONNIERS", "stands": 7, "status": "OPEN", "address": "2 AV PAUL SEJOURNE", "update": "2016-02-08T20:27:50", "lat": 43.6055917312578}, "geometry": {"type": "Point", "coordinates": [1.428253851896989, 43.6055917312578]}, "type": "Feature"}, {"properties": {"bikes": 2, "lon": 1.445531445171338, "name": "00047 - NAZARETH LANGUEDOC", "stands": 23, "status": "OPEN", "address": "12 RUE DU LANGUEDOC", "update": "2016-02-08T20:25:12", "lat": 43.59546175758775}, "geometry": {"type": "Point", "coordinates": [1.445531445171338, 43.59546175758775]}, "type": "Feature"}, {"properties": {"bikes": 3, "lon": 1.465370657992508, "name": "00231 - NARBONNE MARFAING", "stands": 17, "status": "OPEN", "address": "RANGUEIL / CL ROCHE", "update": "2016-02-08T20:24:39", "lat": 43.557243695153005}, "geometry": {"type": "Point", "coordinates": [1.465370657992508, 43.557243695153005]}, "type": "Feature"}, {"properties": {"bikes": 7, "lon": 1.474057401308612, "name": "00216 - ARGOULETS HOUDON", "stands": 10, "status": "OPEN", "address": "3 RUE JEAN HOUDON", "update": "2016-02-08T20:21:25", "lat": 43.622829380921075}, "geometry": {"type": "Point", "coordinates": [1.474057401308612, 43.622829380921075]}, "type": "Feature"}, {"properties": {"bikes": 11, "lon": 1.410651114174017, "name": "00194 - LOMBEZ / HIPPODROME", "stands": 9, "status": "OPEN", "address": "138 AV DE LOMBEZ", "update": "2016-02-08T20:29:11", "lat": 43.594206765269206}, "geometry": {"type": "Point", "coordinates": [1.410651114174017, 43.594206765269206]}, "type": "Feature"}, {"properties": {"bikes": 3, "lon": 1.39867, "name": "00263 - LYCEE POLYVALENT", "stands": 15, "status": "OPEN", "address": "87 AVENUE JEAN BAYLET ANGLE CHEMIN CEPIERES", "update": "2016-02-08T20:24:09", "lat": 43.58444}, "geometry": {"type": "Point", "coordinates": [1.39867, 43.58444]}, "type": "Feature"}, {"properties": {"bikes": 14, "lon": 1.462248097516892, "name": "00169 - ALBI  / JAFFARY", "stands": 3, "status": "OPEN", "address": "65 RTE D'ALBI", "update": "2016-02-08T20:25:42", "lat": 43.63124672931264}, "geometry": {"type": "Point", "coordinates": [1.462248097516892, 43.63124672931264]}, "type": "Feature"}, {"properties": {"bikes": 5, "lon": 1.452939708828422, "name": "00039 - PLACE DAMLOUP", "stands": 14, "status": "OPEN", "address": "9 PL DE DAMLOUP", "update": "2016-02-08T20:24:10", "lat": 43.60583232118379}, "geometry": {"type": "Point", "coordinates": [1.452939708828422, 43.60583232118379]}, "type": "Feature"}, {"properties": {"bikes": 2, "lon": 1.48049587613679, "name": "00201 - POTEZ -ST EXUPERY", "stands": 16, "status": "OPEN", "address": "256 AV ANTOINE DE ST EXUPERY", "update": "2016-02-08T20:26:47", "lat": 43.57965532664315}, "geometry": {"type": "Point", "coordinates": [1.48049587613679, 43.57965532664315]}, "type": "Feature"}, {"properties": {"bikes": 20, "lon": 1.456321836591291, "name": "00101 - CAPT PORT ST SAUVEUR", "stands": 0, "status": "OPEN", "address": "5 PORT SAINT SAUVEUR", "update": "2016-02-08T20:27:40", "lat": 43.59426485044087}, "geometry": {"type": "Point", "coordinates": [1.456321836591291, 43.59426485044087]}, "type": "Feature"}, {"properties": {"bikes": 6, "lon": 1.47643, "name": "00258 - CAMBARD", "stands": 12, "status": "OPEN", "address": "Boulevard Atlanta / Cambard", "update": "2016-02-08T20:26:58", "lat": 43.62957}, "geometry": {"type": "Point", "coordinates": [1.47643, 43.62957]}, "type": "Feature"}, {"properties": {"bikes": 15, "lon": 1.450284083376377, "name": "00159 - U.R.S.S DEVIC", "stands": 5, "status": "OPEN", "address": "96 AV JULES JULIEN", "update": "2016-02-08T20:21:58", "lat": 43.5785038852904}, "geometry": {"type": "Point", "coordinates": [1.450284083376377, 43.5785038852904]}, "type": "Feature"}, {"properties": {"bikes": 7, "lon": 1.432688307877285, "name": "00072 - FITTE CUGNAUX", "stands": 13, "status": "OPEN", "address": "23 ALL CHARLES DE FITTE", "update": "2016-02-08T20:29:06", "lat": 43.59504949175626}, "geometry": {"type": "Point", "coordinates": [1.432688307877285, 43.59504949175626]}, "type": "Feature"}, {"properties": {"bikes": 8, "lon": 1.4401, "name": "00261 - VAN DYCK - LAUNAGUET", "stands": 10, "status": "OPEN", "address": "Devant le N\u00b06 rue Van Dyck avant angle rue Raphael - 31000 TOULOUSE", "update": "2016-02-08T20:28:18", "lat": 43.64066}, "geometry": {"type": "Point", "coordinates": [1.4401, 43.64066]}, "type": "Feature"}, {"properties": {"bikes": 15, "lon": 1.443059611732516, "name": "00151 - CURIE - NEGRENEYS", "stands": 9, "status": "OPEN", "address": "27 BD PIERRE ET MARIE CURIE", "update": "2016-02-08T20:29:52", "lat": 43.62459108857192}, "geometry": {"type": "Point", "coordinates": [1.443059611732516, 43.62459108857192]}, "type": "Feature"}, {"properties": {"bikes": 9, "lon": 1.473118127213999, "name": "00238 - HERBETTES / BUTTE", "stands": 8, "status": "OPEN", "address": "AVENUE DES HERBETTES", "update": "2016-02-08T20:27:34", "lat": 43.579425835630786}, "geometry": {"type": "Point", "coordinates": [1.473118127213999, 43.579425835630786]}, "type": "Feature"}, {"properties": {"bikes": 17, "lon": 1.429275168509917, "name": "00080 - FITTE VARSI", "stands": 6, "status": "OPEN", "address": "89B ALL CHARLES DE FITTE", "update": "2016-02-08T20:26:58", "lat": 43.59970386767416}, "geometry": {"type": "Point", "coordinates": [1.429275168509917, 43.59970386767416]}, "type": "Feature"}, {"properties": {"bikes": 3, "lon": 1.4431072280246, "name": "00057 - MERLY ARCOLE", "stands": 11, "status": "OPEN", "address": "15 RUE MERLY", "update": "2016-02-08T20:25:43", "lat": 43.610488427425665}, "geometry": {"type": "Point", "coordinates": [1.4431072280246, 43.610488427425665]}, "type": "Feature"}, {"properties": {"bikes": 6, "lon": 1.443637125697445, "name": "00058 - CONCORDE ARCOLE", "stands": 19, "status": "OPEN", "address": "4 RUE DE LA CONCORDE", "update": "2016-02-08T20:29:04", "lat": 43.6106186453129}, "geometry": {"type": "Point", "coordinates": [1.443637125697445, 43.6106186453129]}, "type": "Feature"}, {"properties": {"bikes": 12, "lon": 1.47297, "name": "00272 - ANDRE VASSEUR", "stands": 5, "status": "OPEN", "address": "Boulevard Atlanta / apr\u00e8s angle rue vasseur - 31000 TOULOUSE", "update": "2016-02-08T20:24:15", "lat": 43.63539}, "geometry": {"type": "Point", "coordinates": [1.47297, 43.63539]}, "type": "Feature"}, {"properties": {"bikes": 3, "lon": 1.47517386253435, "name": "00222 - CAMBOU / ROCHE", "stands": 17, "status": "OPEN", "address": "AVENUE DU COLONEL ROCHE", "update": "2016-02-08T20:27:44", "lat": 43.5628140764194}, "geometry": {"type": "Point", "coordinates": [1.47517386253435, 43.5628140764194]}, "type": "Feature"}, {"properties": {"bikes": 0, "lon": 1.442047437838665, "name": "00004 - STE URSULE", "stands": 19, "status": "OPEN", "address": "15 RUE SAINTE URSULE", "update": "2016-02-08T20:29:53", "lat": 43.60233609279122}, "geometry": {"type": "Point", "coordinates": [1.442047437838665, 43.60233609279122]}, "type": "Feature"}, {"properties": {"bikes": 7, "lon": 1.414531359571464, "name": "00136 - FONTAINES", "stands": 8, "status": "OPEN", "address": "RUE DES FONTAINES", "update": "2016-02-08T20:29:41", "lat": 43.602050919601446}, "geometry": {"type": "Point", "coordinates": [1.414531359571464, 43.602050919601446]}, "type": "Feature"}, {"properties": {"bikes": 16, "lon": 1.42438, "name": "00142 - SEVERAC", "stands": 3, "status": "OPEN", "address": "BD DEODAT DE SEVERAC", "update": "2016-02-08T20:22:44", "lat": 43.58807}, "geometry": {"type": "Point", "coordinates": [1.42438, 43.58807]}, "type": "Feature"}, {"properties": {"bikes": 12, "lon": 1.481957162051808, "name": "00182 - CHAUBET", "stands": 8, "status": "OPEN", "address": "AV JEAN CHAUBET", "update": "2016-02-08T20:23:57", "lat": 43.60593083247726}, "geometry": {"type": "Point", "coordinates": [1.481957162051808, 43.60593083247726]}, "type": "Feature"}, {"properties": {"bikes": 16, "lon": 1.451479779266325, "name": "00094 - SEMARD GARE ROUTIERE", "stands": 6, "status": "OPEN", "address": "73 BD PIERRE SEMARD", "update": "2016-02-08T20:20:24", "lat": 43.613829128033615}, "geometry": {"type": "Point", "coordinates": [1.451479779266325, 43.613829128033615]}, "type": "Feature"}, {"properties": {"bikes": 4, "lon": 1.455945448109943, "name": "00127 - BEGUE - DEMOISELLES", "stands": 10, "status": "OPEN", "address": "1 RUE BEGUE", "update": "2016-02-08T20:21:28", "lat": 43.589803552331645}, "geometry": {"type": "Point", "coordinates": [1.455945448109943, 43.589803552331645]}, "type": "Feature"}, {"properties": {"bikes": 13, "lon": 1.40142, "name": "00279 - GUY ESPAGNO", "stands": 5, "status": "OPEN", "address": "229 AVENUE DE CASSELARDIT CROISEMENT ESPAGNO / CASSELARDIT 31000 TOULOUSE", "update": "2016-02-08T20:22:59", "lat": 43.61354}, "geometry": {"type": "Point", "coordinates": [1.40142, 43.61354]}, "type": "Feature"}, {"properties": {"bikes": 1, "lon": 1.4616307898919, "name": "00251 - BLUM / JOUHAUX", "stands": 18, "status": "OPEN", "address": "26 AVENUE LEON BLUM ANGLE RUE LEON JOUHAUX", "update": "2016-02-08T20:29:29", "lat": 43.614208387732}, "geometry": {"type": "Point", "coordinates": [1.4616307898919, 43.614208387732]}, "type": "Feature"}, {"properties": {"bikes": 13, "lon": 1.407211289929025, "name": "00226 - FONTAINES /CASSELARDIT", "stands": 4, "status": "OPEN", "address": "292 RUE DES FONTAINES", "update": "2016-02-08T20:23:30", "lat": 43.60419040838992}, "geometry": {"type": "Point", "coordinates": [1.407211289929025, 43.60419040838992]}, "type": "Feature"}, {"properties": {"bikes": 1, "lon": 1.430120187266013, "name": "00122 - PASSERELLE HAEDENS", "stands": 18, "status": "OPEN", "address": "57 BD DE L EMBOUCHURE", "update": "2016-02-08T20:24:13", "lat": 43.613472358330974}, "geometry": {"type": "Point", "coordinates": [1.430120187266013, 43.613472358330974]}, "type": "Feature"}, {"properties": {"bikes": 11, "lon": 1.443005133993703, "name": "00026 - DALBADE - DE GORSSE", "stands": 11, "status": "OPEN", "address": "9 RUE HENRY DE GORSSE", "update": "2016-02-08T20:27:33", "lat": 43.59804753924319}, "geometry": {"type": "Point", "coordinates": [1.443005133993703, 43.59804753924319]}, "type": "Feature"}, {"properties": {"bikes": 1, "lon": 1.467678323560475, "name": "00230 - RANGUEIL TRIPODE B", "stands": 19, "status": "OPEN", "address": "141 AV DE RANGUEIL", "update": "2016-02-08T20:28:24", "lat": 43.567221153708445}, "geometry": {"type": "Point", "coordinates": [1.467678323560475, 43.567221153708445]}, "type": "Feature"}, {"properties": {"bikes": 13, "lon": 1.456048100267833, "name": "00042 - DAURIAC ESCANDE", "stands": 7, "status": "OPEN", "address": "3 BD PR LEOPOLD ESCANDE", "update": "2016-02-08T20:29:17", "lat": 43.601588174955744}, "geometry": {"type": "Point", "coordinates": [1.456048100267833, 43.601588174955744]}, "type": "Feature"}, {"properties": {"bikes": 17, "lon": 1.411359591750251, "name": "00219 - PUCCINI/ BLAGNAC", "stands": 1, "status": "OPEN", "address": "35 RUE PUCCINI", "update": "2016-02-08T20:29:38", "lat": 43.614589794633694}, "geometry": {"type": "Point", "coordinates": [1.411359591750251, 43.614589794633694]}, "type": "Feature"}, {"properties": {"bikes": 8, "lon": 1.462194464667426, "name": "00163 - BEDOUCE / MIDI", "stands": 12, "status": "OPEN", "address": "115 AV ALBERT BEDOUCE", "update": "2016-02-08T20:26:03", "lat": 43.581459211587536}, "geometry": {"type": "Point", "coordinates": [1.462194464667426, 43.581459211587536]}, "type": "Feature"}, {"properties": {"bikes": 10, "lon": 1.435597311467436, "name": "00133 - MARCHE AUX COCHONS", "stands": 12, "status": "OPEN", "address": "71 AV DES MINIMES", "update": "2016-02-08T20:21:38", "lat": 43.620735968782895}, "geometry": {"type": "Point", "coordinates": [1.435597311467436, 43.620735968782895]}, "type": "Feature"}, {"properties": {"bikes": 3, "lon": 1.47508540800772, "name": "00205 - COTTAGE/ RIEUX", "stands": 15, "status": "OPEN", "address": "58 AV DES COTTAGES", "update": "2016-02-08T20:25:42", "lat": 43.58588613821349}, "geometry": {"type": "Point", "coordinates": [1.47508540800772, 43.58588613821349]}, "type": "Feature"}, {"properties": {"bikes": 0, "lon": 1.428450231443648, "name": "00086 - HERACLES - BEARNAIS", "stands": 20, "status": "OPEN", "address": "23 RUE DU BEARNAIS", "update": "2016-02-08T20:25:00", "lat": 43.60802027853654}, "geometry": {"type": "Point", "coordinates": [1.428450231443648, 43.60802027853654]}, "type": "Feature"}, {"properties": {"bikes": 1, "lon": 1.451093339873272, "name": "00066 - JARDIN ROYAL", "stands": 22, "status": "OPEN", "address": "HUIT MAI 1945", "update": "2016-02-08T20:21:52", "lat": 43.596478222107635}, "geometry": {"type": "Point", "coordinates": [1.451093339873272, 43.596478222107635]}, "type": "Feature"}, {"properties": {"bikes": 18, "lon": 1.408124460028565, "name": "00240 - RTE DE BLAGNAC / JOB", "stands": 0, "status": "OPEN", "address": "FACE 103 BIS ROUTE DE BLAGNAC", "update": "2016-02-08T20:25:11", "lat": 43.6172496485261}, "geometry": {"type": "Point", "coordinates": [1.408124460028565, 43.6172496485261]}, "type": "Feature"}, {"properties": {"bikes": 16, "lon": 1.41476, "name": "282 - RICHARD WAGNER", "stands": 2, "status": "OPEN", "address": "BD RICHARD WAGNER / ANGLE A.VIVALDI 31000 TOULOUSE", "update": "2016-02-08T20:28:57", "lat": 43.60614}, "geometry": {"type": "Point", "coordinates": [1.41476, 43.60614]}, "type": "Feature"}, {"properties": {"bikes": 4, "lon": 1.448244408330328, "name": "00018 - STRASBOURG JEAN JAURES", "stands": 21, "status": "OPEN", "address": "4 BD DE STRASBOURG", "update": "2016-02-08T20:29:10", "lat": 43.60629718770727}, "geometry": {"type": "Point", "coordinates": [1.448244408330328, 43.60629718770727]}, "type": "Feature"}, {"properties": {"bikes": 1, "lon": 1.44002, "name": "00012 - PARGAMINIERES", "stands": 10, "status": "OPEN", "address": "66 RUE PARGAMINIERES", "update": "2016-02-08T20:26:08", "lat": 43.60459}, "geometry": {"type": "Point", "coordinates": [1.44002, 43.60459]}, "type": "Feature"}, {"properties": {"bikes": 6, "lon": 1.425882273289917, "name": "00117 - BILLIERES -POSTE", "stands": 14, "status": "OPEN", "address": "39 AVENUE ETIENNE BILLIERES", "update": "2016-02-08T20:29:50", "lat": 43.596852956620715}, "geometry": {"type": "Point", "coordinates": [1.425882273289917, 43.596852956620715]}, "type": "Feature"}, {"properties": {"bikes": 21, "lon": 1.454093824286969, "name": "00043 - DUPUY", "stands": 0, "status": "OPEN", "address": "14 PL DOMINIQUE MARTIN DUPUY", "update": "2016-02-08T20:29:47", "lat": 43.599990271041186}, "geometry": {"type": "Point", "coordinates": [1.454093824286969, 43.599990271041186]}, "type": "Feature"}, {"properties": {"bikes": 18, "lon": 1.452455826571967, "name": "00061 - BONREPOS", "stands": 10, "status": "OPEN", "address": "8T BD DE BONREPOS", "update": "2016-02-08T20:24:21", "lat": 43.61071810091073}, "geometry": {"type": "Point", "coordinates": [1.452455826571967, 43.61071810091073]}, "type": "Feature"}, {"properties": {"bikes": 4, "lon": 1.460187742067113, "name": "00165 - PLACE DES AVIONS", "stands": 11, "status": "OPEN", "address": "33 AVENUE DES AVIONS", "update": "2016-02-08T20:22:47", "lat": 43.57686792022356}, "geometry": {"type": "Point", "coordinates": [1.460187742067113, 43.57686792022356]}, "type": "Feature"}, {"properties": {"bikes": 10, "lon": 1.42778, "name": "00270 - SILVIO TRENTIN", "stands": 6, "status": "OPEN", "address": "Rue Jules Verne angle Boulevard Silvio Trentin - 31000 TOULOUSE", "update": "2016-02-08T20:22:10", "lat": 43.62413}, "geometry": {"type": "Point", "coordinates": [1.42778, 43.62413]}, "type": "Feature"}, {"properties": {"bikes": 7, "lon": 1.445174430937582, "name": "00103 - ST MICHEL ST CATHERINE", "stands": 13, "status": "OPEN", "address": "139 GRANDE RUE ST MICHEL", "update": "2016-02-08T20:20:42", "lat": 43.590605082277605}, "geometry": {"type": "Point", "coordinates": [1.445174430937582, 43.590605082277605]}, "type": "Feature"}, {"properties": {"bikes": 23, "lon": 1.448061825303155, "name": "00017 - STRASBOURG SARDANE", "stands": 0, "status": "OPEN", "address": "7 BD DE STRASBOURG", "update": "2016-02-08T20:23:15", "lat": 43.60610692889793}, "geometry": {"type": "Point", "coordinates": [1.448061825303155, 43.60610692889793]}, "type": "Feature"}, {"properties": {"bikes": 0, "lon": 1.445315649331453, "name": "00046 - PLACE DES CARMES", "stands": 20, "status": "OPEN", "address": "1 PL DES CARMES", "update": "2016-02-08T20:29:22", "lat": 43.597401475499026}, "geometry": {"type": "Point", "coordinates": [1.445315649331453, 43.597401475499026]}, "type": "Feature"}, {"properties": {"bikes": 3, "lon": 1.461907953641387, "name": "00218 - AMOUROUX /STE AUGUSTINE", "stands": 15, "status": "OPEN", "address": "24 BIS CHE AMOUROUX", "update": "2016-02-08T20:20:51", "lat": 43.627603587351345}, "geometry": {"type": "Point", "coordinates": [1.461907953641387, 43.627603587351345]}, "type": "Feature"}, {"properties": {"bikes": 11, "lon": 1.470077844843929, "name": "00203 - ST EX. - PETIT PRINCE", "stands": 9, "status": "OPEN", "address": "2 AV ANTOINE DE ST EXUPERY", "update": "2016-02-08T20:29:49", "lat": 43.5834192540153}, "geometry": {"type": "Point", "coordinates": [1.470077844843929, 43.5834192540153]}, "type": "Feature"}, {"properties": {"bikes": 7, "lon": 1.441209573825458, "name": "00032 - MUSEE ST RAYMOND", "stands": 5, "status": "OPEN", "address": "8 RUE DES TROIS RENARDS", "update": "2016-02-08T20:23:35", "lat": 43.60765033417208}, "geometry": {"type": "Point", "coordinates": [1.441209573825458, 43.60765033417208]}, "type": "Feature"}, {"properties": {"bikes": 3, "lon": 1.45752, "name": "00005 - LEDUC", "stands": 14, "status": "OPEN", "address": "5 RUE LEDUC", "update": "2016-02-08T20:25:55", "lat": 43.61184}, "geometry": {"type": "Point", "coordinates": [1.45752, 43.61184]}, "type": "Feature"}, {"properties": {"bikes": 10, "lon": 1.432075106068745, "name": "00073 - FITTE TEINTURIERS", "stands": 6, "status": "OPEN", "address": "40 ALL CHARLES DE FITTE", "update": "2016-02-08T20:27:24", "lat": 43.59628476386365}, "geometry": {"type": "Point", "coordinates": [1.432075106068745, 43.59628476386365]}, "type": "Feature"}, {"properties": {"bikes": 18, "lon": 1.440920059367141, "name": "00050 - GARONNETTE", "stands": 5, "status": "OPEN", "address": "1 AV MAURICE HAURIOU", "update": "2016-02-08T20:28:12", "lat": 43.594569737633854}, "geometry": {"type": "Point", "coordinates": [1.440920059367141, 43.594569737633854]}, "type": "Feature"}, {"properties": {"bikes": 6, "lon": 1.449629619920856, "name": "00020 - CARNOT TROIS JOURNEES", "stands": 21, "status": "OPEN", "address": "69 BD LAZARE CARNOT", "update": "2016-02-08T20:27:52", "lat": 43.604717604204446}, "geometry": {"type": "Point", "coordinates": [1.449629619920856, 43.604717604204446]}, "type": "Feature"}, {"properties": {"bikes": 7, "lon": 1.443635078857447, "name": "00155 - RECOLLETS", "stands": 13, "status": "OPEN", "address": "34 BD DES RECOLLETS", "update": "2016-02-08T20:29:24", "lat": 43.58386908499996}, "geometry": {"type": "Point", "coordinates": [1.443635078857447, 43.58386908499996]}, "type": "Feature"}, {"properties": {"bikes": 9, "lon": 1.41028, "name": "00264 - LAFOURGUETTE", "stands": 9, "status": "OPEN", "address": "Place des Gli\u00e8res", "update": "2016-02-08T20:22:34", "lat": 43.56507}, "geometry": {"type": "Point", "coordinates": [1.41028, 43.56507]}, "type": "Feature"}, {"properties": {"bikes": 5, "lon": 1.4842, "name": "00256 - PLACE DE LA RONTONDE", "stands": 13, "status": "OPEN", "address": "FACE 175 ROUTE DE CASTRES ANGLE RUE CARCASSONNE", "update": "2016-02-08T20:21:26", "lat": 43.59666}, "geometry": {"type": "Point", "coordinates": [1.4842, 43.59666]}, "type": "Feature"}, {"properties": {"bikes": 6, "lon": 1.439737579879722, "name": "00091 - ARCOLE BALANCE", "stands": 15, "status": "OPEN", "address": "48 BD D ARCOLE", "update": "2016-02-08T20:26:27", "lat": 43.611584087589904}, "geometry": {"type": "Point", "coordinates": [1.439737579879722, 43.611584087589904]}, "type": "Feature"}, {"properties": {"bikes": 6, "lon": 1.465517338373819, "name": "00185 - ROUBICHOU ARLES", "stands": 8, "status": "OPEN", "address": "30 RUE ROUBICHOU", "update": "2016-02-08T20:21:15", "lat": 43.62704846650827}, "geometry": {"type": "Point", "coordinates": [1.465517338373819, 43.62704846650827]}, "type": "Feature"}, {"properties": {"bikes": 5, "lon": 1.440461106405702, "name": "00027 - QUAI DE TOUNIS", "stands": 18, "status": "OPEN", "address": "QUAI DE TOUNIS", "update": "2016-02-08T20:24:18", "lat": 43.59938372814817}, "geometry": {"type": "Point", "coordinates": [1.440461106405702, 43.59938372814817]}, "type": "Feature"}, {"properties": {"bikes": 1, "lon": 1.478914286004687, "name": "00209 - BAROUX/ DARASSE", "stands": 17, "status": "OPEN", "address": "4 AV LUCIEN BAROUX", "update": "2016-02-08T20:20:26", "lat": 43.589466982143435}, "geometry": {"type": "Point", "coordinates": [1.478914286004687, 43.589466982143435]}, "type": "Feature"}, {"properties": {"bikes": 0, "lon": 1.40230245215212, "name": "00220 - TABAR /UNIVERSITE", "stands": 19, "status": "OPEN", "address": "3 RUE DE L'UNIVERSITE", "update": "2016-02-08T20:29:20", "lat": 43.574612132702526}, "geometry": {"type": "Point", "coordinates": [1.40230245215212, 43.574612132702526]}, "type": "Feature"}, {"properties": {"bikes": 4, "lon": 1.431415230750123, "name": "00078 - PLACE INT ST CYP. DARRE", "stands": 12, "status": "OPEN", "address": "14 PL INTERIEURE ST CYPRIEN", "update": "2016-02-08T20:29:36", "lat": 43.59812186858788}, "geometry": {"type": "Point", "coordinates": [1.431415230750123, 43.59812186858788]}, "type": "Feature"}, {"properties": {"bikes": 9, "lon": 1.448486709552681, "name": "00149 - RAISIN MINIMES", "stands": 13, "status": "OPEN", "address": "CH DU RAISIN", "update": "2016-02-08T20:25:11", "lat": 43.615368584913504}, "geometry": {"type": "Point", "coordinates": [1.448486709552681, 43.615368584913504]}, "type": "Feature"}, {"properties": {"bikes": 16, "lon": 1.446485498451865, "name": "00059 - CONCORDE", "stands": 3, "status": "OPEN", "address": "61 RUE DE LA CONCORDE", "update": "2016-02-08T20:27:53", "lat": 43.613590372531775}, "geometry": {"type": "Point", "coordinates": [1.446485498451865, 43.613590372531775]}, "type": "Feature"}, {"properties": {"bikes": 8, "lon": 1.430389555237135, "name": "00107 - SEBASTOPOL", "stands": 19, "status": "OPEN", "address": "1 RUE DE SEBASTOPOL", "update": "2016-02-08T20:21:55", "lat": 43.609753361824794}, "geometry": {"type": "Point", "coordinates": [1.430389555237135, 43.609753361824794]}, "type": "Feature"}, {"properties": {"bikes": 17, "lon": 1.420141760360439, "name": "00246 - WAGNER / JEAN BRUNHES", "stands": 3, "status": "OPEN", "address": "29 BOULEVARD RICHARD WAGNER ANG BD JEAN BRUNHES", "update": "2016-02-08T20:26:30", "lat": 43.60390532418828}, "geometry": {"type": "Point", "coordinates": [1.420141760360439, 43.60390532418828]}, "type": "Feature"}, {"properties": {"bikes": 3, "lon": 1.450654849861206, "name": "00099 - REMPART ST ETIENNE", "stands": 13, "status": "OPEN", "address": "7 RUE DU REMPART ST ETIENNE", "update": "2016-02-08T20:25:06", "lat": 43.60082502483391}, "geometry": {"type": "Point", "coordinates": [1.450654849861206, 43.60082502483391]}, "type": "Feature"}, {"properties": {"bikes": 12, "lon": 1.48278, "name": "00267 - GONIN", "stands": 4, "status": "OPEN", "address": "RUE GONIN ANGLE GENIN 31000 TOULOUSE", "update": "2016-02-08T20:27:05", "lat": 43.57452}, "geometry": {"type": "Point", "coordinates": [1.48278, 43.57452]}, "type": "Feature"}, {"properties": {"bikes": 8, "lon": 1.449215732146181, "name": "00113 - MUSEUM LAMARCK", "stands": 12, "status": "OPEN", "address": "FACE 58 RUE DUMERIL", "update": "2016-02-08T20:23:39", "lat": 43.592355124495455}, "geometry": {"type": "Point", "coordinates": [1.449215732146181, 43.592355124495455]}, "type": "Feature"}, {"properties": {"bikes": 10, "lon": 1.444528167445985, "name": "00148 - COLLIGNON", "stands": 9, "status": "OPEN", "address": "5 AV DE COLLIGNON", "update": "2016-02-08T20:26:11", "lat": 43.61692696530316}, "geometry": {"type": "Point", "coordinates": [1.444528167445985, 43.61692696530316]}, "type": "Feature"}, {"properties": {"bikes": 18, "lon": 1.454698517821249, "name": "00167 - LAPUJADE-FLANDRES", "stands": 0, "status": "OPEN", "address": "RUE LAPUJADE ANGLE RUE DES FLANDRES", "update": "2016-02-08T20:23:53", "lat": 43.62409340165932}, "geometry": {"type": "Point", "coordinates": [1.454698517821249, 43.62409340165932]}, "type": "Feature"}, {"properties": {"bikes": 4, "lon": 1.41325, "name": "00265 - PASSAGE BORDELONGUE", "stands": 14, "status": "OPEN", "address": "Face N\u00b0251 route de Seysses", "update": "2016-02-08T20:22:30", "lat": 43.56793}, "geometry": {"type": "Point", "coordinates": [1.41325, 43.56793]}, "type": "Feature"}, {"properties": {"bikes": 6, "lon": 1.446483165667178, "name": "00116 - ST MICHEL NOTRE DAME", "stands": 8, "status": "OPEN", "address": "50 GRANDE RUE ST MICHEL", "update": "2016-02-08T20:24:38", "lat": 43.588359791103294}, "geometry": {"type": "Point", "coordinates": [1.446483165667178, 43.588359791103294]}, "type": "Feature"}, {"properties": {"bikes": 1, "lon": 1.446076879873296, "name": "00034 - SAINT LAZARE", "stands": 18, "status": "OPEN", "address": "2 PETITE RUE SAINT LAZARE", "update": "2016-02-08T20:26:42", "lat": 43.609650036285025}, "geometry": {"type": "Point", "coordinates": [1.446076879873296, 43.609650036285025]}, "type": "Feature"}, {"properties": {"bikes": 24, "lon": 1.419524853208122, "name": "00119 - CHAPOU", "stands": 0, "status": "OPEN", "address": "129 ALL DE BRIENNE", "update": "2016-02-08T20:28:33", "lat": 43.609967343094006}, "geometry": {"type": "Point", "coordinates": [1.419524853208122, 43.609967343094006]}, "type": "Feature"}, {"properties": {"bikes": 2, "lon": 1.38887, "name": "00275 - PLACE DES PRADETTES", "stands": 15, "status": "OPEN", "address": "Place des Pradettes / rue Arthur Huc", "update": "2016-02-08T20:21:24", "lat": 43.58171}, "geometry": {"type": "Point", "coordinates": [1.38887, 43.58171]}, "type": "Feature"}, {"properties": {"bikes": 17, "lon": 1.451999386383253, "name": "00160 - THEATRE JULES JULIEN", "stands": 0, "status": "OPEN", "address": "21 AV DES ECOLES JULES JULIEN", "update": "2016-02-08T20:28:57", "lat": 43.573924940202886}, "geometry": {"type": "Point", "coordinates": [1.451999386383253, 43.573924940202886]}, "type": "Feature"}, {"properties": {"bikes": 15, "lon": 1.456086445970436, "name": "00232 - NARBONNE/ MIROUSE", "stands": 0, "status": "OPEN", "address": "64 RTE DE NARBONNE", "update": "2016-02-08T20:28:13", "lat": 43.569437251134566}, "geometry": {"type": "Point", "coordinates": [1.456086445970436, 43.569437251134566]}, "type": "Feature"}, {"properties": {"bikes": 6, "lon": 1.48781984362323, "name": "00211 - LE DORMEUR/ LA TERRASSE", "stands": 12, "status": "OPEN", "address": "9 RUE LE DORMEUR", "update": "2016-02-08T20:25:25", "lat": 43.58350615923425}, "geometry": {"type": "Point", "coordinates": [1.48781984362323, 43.58350615923425]}, "type": "Feature"}, {"properties": {"bikes": 1, "lon": 1.39709, "name": "00278 - ARENES ROMAINE", "stands": 17, "status": "OPEN", "address": "AVENUE DES ARENES ROMAINES / GUY ESPAGNO DANS ROND POINT 31000 TOULOUSE", "update": "2016-02-08T20:22:04", "lat": 43.6142}, "geometry": {"type": "Point", "coordinates": [1.39709, 43.6142]}, "type": "Feature"}, {"properties": {"bikes": 6, "lon": 1.434473692188769, "name": "00132 - MINIMES BILARD", "stands": 13, "status": "OPEN", "address": "101 AVENUES DES MINIMES", "update": "2016-02-08T20:22:45", "lat": 43.62293779541603}, "geometry": {"type": "Point", "coordinates": [1.434473692188769, 43.62293779541603]}, "type": "Feature"}, {"properties": {"bikes": 15, "lon": 1.424941224096277, "name": "00145 - GOUNOD - GARROS", "stands": 5, "status": "OPEN", "address": "29 RUE ROLAND GARROS", "update": "2016-02-08T20:25:57", "lat": 43.61395913175851}, "geometry": {"type": "Point", "coordinates": [1.424941224096277, 43.61395913175851]}, "type": "Feature"}, {"properties": {"bikes": 9, "lon": 1.438157046235524, "name": "00110 - CABANEL - SERRES", "stands": 8, "status": "OPEN", "address": "16 RUE ALEXANDRE CABANEL", "update": "2016-02-08T20:28:33", "lat": 43.61375517689823}, "geometry": {"type": "Point", "coordinates": [1.438157046235524, 43.61375517689823]}, "type": "Feature"}, {"properties": {"bikes": 22, "lon": 1.434225150757254, "name": "00125 - BARRI\u00c8RE DE PARIS", "stands": 3, "status": "OPEN", "address": "BARRI\u00c8RE DE PARIS", "update": "2016-02-08T20:29:01", "lat": 43.6269176821576}, "geometry": {"type": "Point", "coordinates": [1.434225150757254, 43.6269176821576]}, "type": "Feature"}, {"properties": {"bikes": 9, "lon": 1.454189017923435, "name": "00063 - PISCINE LEO LAGRANGE", "stands": 13, "status": "OPEN", "address": "54 RUE DES SEPT TROUBADOURS", "update": "2016-02-08T20:23:27", "lat": 43.607433487401345}, "geometry": {"type": "Point", "coordinates": [1.454189017923435, 43.607433487401345]}, "type": "Feature"}, {"properties": {"bikes": 3, "lon": 1.46539185105244, "name": "00177 - BAILLAUD BRUNAUD", "stands": 17, "status": "OPEN", "address": "64 RUE BAILLAUD", "update": "2016-02-08T20:22:28", "lat": 43.61743867816197}, "geometry": {"type": "Point", "coordinates": [1.46539185105244, 43.61743867816197]}, "type": "Feature"}, {"properties": {"bikes": 0, "lon": 1.483669775054849, "name": "00200 - PLACE DE L'ORMEAU", "stands": 17, "status": "OPEN", "address": "FACE 345 AV JEAN RIEUX", "update": "2016-02-08T20:29:47", "lat": 43.57906922965151}, "geometry": {"type": "Point", "coordinates": [1.483669775054849, 43.57906922965151]}, "type": "Feature"}, {"properties": {"bikes": 0, "lon": 1.444269620551324, "name": "00014 - PERIGORD", "stands": 16, "status": "OPEN", "address": "26 RUE DE PERIGORD", "update": "2016-02-08T20:20:58", "lat": 43.60735205357881}, "geometry": {"type": "Point", "coordinates": [1.444269620551324, 43.60735205357881]}, "type": "Feature"}, {"properties": {"bikes": 5, "lon": 1.4795004816774, "name": "00181 - PLANA GARNIER", "stands": 12, "status": "OPEN", "address": "27 Avenue Louis PLANA", "update": "2016-02-08T20:26:23", "lat": 43.610549420565}, "geometry": {"type": "Point", "coordinates": [1.4795004816774, 43.610549420565]}, "type": "Feature"}, {"properties": {"bikes": 9, "lon": 1.4429, "name": "00069 - FEUGA", "stands": 9, "status": "OPEN", "address": "11 ALL PAUL FEUGA", "update": "2016-02-08T20:29:20", "lat": 43.59253}, "geometry": {"type": "Point", "coordinates": [1.4429, 43.59253]}, "type": "Feature"}, {"properties": {"bikes": 18, "lon": 1.448634234326797, "name": "00157 - U.R.S.S  PEYROUSET", "stands": 1, "status": "OPEN", "address": "16 AV DE L'U.R.S.S", "update": "2016-02-08T20:26:19", "lat": 43.582831686768735}, "geometry": {"type": "Point", "coordinates": [1.448634234326797, 43.582831686768735]}, "type": "Feature"}, {"properties": {"bikes": 16, "lon": 1.425325828280708, "name": "00189 - MURET BOUTINON", "stands": 4, "status": "OPEN", "address": "44 AVENUE DE MURET", "update": "2016-02-08T20:25:19", "lat": 43.581352282638655}, "geometry": {"type": "Point", "coordinates": [1.425325828280708, 43.581352282638655]}, "type": "Feature"}], "type": "FeatureCollection"}