{"type": "FeatureCollection", "features": [{"type": "Feature", "geometry": {"type": "Point", "coordinates": [-80.053791, 26.707387]}, "properties": {"bikes": 7, "stands": 7, "name": "Iris and Dixie", "status": "OPEN", "lon": -80.053791, "lat": 26.707387, "address": "Iris and Dixie"}}, {"type": "Feature", "geometry": {"type": "Point", "coordinates": [-80.061654, 26.713458]}, "properties": {"bikes": 4, "stands": 12, "name": "Clematis & Tamarind ", "status": "OPEN", "lon": -80.061654, "lat": 26.713458, "address": "Clematis & Tamarind "}}, {"type": "Feature", "geometry": {"type": "Point", "coordinates": [-80.050389, 26.713095]}, "properties": {"bikes": 4, "stands": 8, "name": "Waterfront Park ", "status": "OPEN", "lon": -80.050389, "lat": 26.713095, "address": "Waterfront Park "}}, {"type": "Feature", "geometry": {"type": "Point", "coordinates": [-80.049266, 26.712237]}, "properties": {"bikes": 8, "stands": 7, "name": "S Flagler & Datura ", "status": "OPEN", "lon": -80.049266, "lat": 26.712237, "address": "S Flagler & Datura "}}, {"type": "Feature", "geometry": {"type": "Point", "coordinates": [-80.050772, 26.716834]}, "properties": {"bikes": 6, "stands": 7, "name": "4th St & Flagler ", "status": "OPEN", "lon": -80.050772, "lat": 26.716834, "address": "4th St & Flagler "}}, {"type": "Feature", "geometry": {"type": "Point", "coordinates": [-80.053651, 26.713597]}, "properties": {"bikes": 7, "stands": 7, "name": "City Hall", "status": "OPEN", "lon": -80.053651, "lat": 26.713597, "address": "City Hall"}}, {"type": "Feature", "geometry": {"type": "Point", "coordinates": [-80.052099, 26.713374]}, "properties": {"bikes": 7, "stands": 4, "name": "301 Clematis St", "status": "OPEN", "lon": -80.052099, "lat": 26.713374, "address": "301 Clematis St"}}, {"type": "Feature", "geometry": {"type": "Point", "coordinates": [-80.057057, 26.710791]}, "properties": {"bikes": 6, "stands": 6, "name": "375 S. Rosemary Ave", "status": "OPEN", "lon": -80.057057, "lat": 26.710791, "address": "375 S. Rosemary Ave"}}, {"type": "Feature", "geometry": {"type": "Point", "coordinates": [-80.057246, 26.707739]}, "properties": {"bikes": 7, "stands": 7, "name": "700 S Rosemary Ave", "status": "OPEN", "lon": -80.057246, "lat": 26.707739, "address": "700 S Rosemary Ave"}}, {"type": "Feature", "geometry": {"type": "Point", "coordinates": [-80.055892, 26.71339]}, "properties": {"bikes": 7, "stands": 5, "name": "530 Clematis St", "status": "OPEN", "lon": -80.055892, "lat": 26.71339, "address": "530 Clematis St"}}, {"type": "Feature", "geometry": {"type": "Point", "coordinates": [-80.053503, 26.710101]}, "properties": {"bikes": 7, "stands": 9, "name": "Dixie & Fern", "status": "OPEN", "lon": -80.053503, "lat": 26.710101, "address": "Dixie & Fern"}}, {"type": "Feature", "geometry": {"type": "Point", "coordinates": [-80.053755, 26.716162]}, "properties": {"bikes": 5, "stands": 9, "name": "County Courthouse", "status": "OPEN", "lon": -80.053755, "lat": 26.716162, "address": "County Courthouse"}}, {"type": "Feature", "geometry": {"type": "Point", "coordinates": [-80.04978775978088, 26.723955272817022]}, "properties": {"bikes": 7, "stands": 9, "name": "Good Sam P.B. Lakes and Flagler", "status": "OPEN", "lon": -80.04978775978088, "lat": 26.723955272817022, "address": "Good Sam P.B. Lakes and Flagler"}}, {"type": "Feature", "geometry": {"type": "Point", "coordinates": [-80.05306005477904, 26.702871118997958]}, "properties": {"bikes": 5, "stands": 7, "name": "PBAU, Gruber Pl", "status": "OPEN", "lon": -80.05306005477904, "lat": 26.702871118997958, "address": "PBAU, Gruber Pl"}}]}