{"features": [{"properties": {"bikes": 7, "status": "OPEN", "name": "Iris and Dixie", "stands": 7, "lon": -80.053791, "address": "Iris and Dixie", "lat": 26.707387}, "geometry": {"type": "Point", "coordinates": [-80.053791, 26.707387]}, "type": "Feature"}, {"properties": {"bikes": 4, "status": "OPEN", "name": "Clematis & Tamarind ", "stands": 12, "lon": -80.061654, "address": "Clematis & Tamarind ", "lat": 26.713458}, "geometry": {"type": "Point", "coordinates": [-80.061654, 26.713458]}, "type": "Feature"}, {"properties": {"bikes": 6, "status": "OPEN", "name": "Waterfront Park ", "stands": 6, "lon": -80.050389, "address": "Waterfront Park ", "lat": 26.713095}, "geometry": {"type": "Point", "coordinates": [-80.050389, 26.713095]}, "type": "Feature"}, {"properties": {"bikes": 8, "status": "OPEN", "name": "S Flagler & Datura ", "stands": 7, "lon": -80.049266, "address": "S Flagler & Datura ", "lat": 26.712237}, "geometry": {"type": "Point", "coordinates": [-80.049266, 26.712237]}, "type": "Feature"}, {"properties": {"bikes": 6, "status": "OPEN", "name": "4th St & Flagler ", "stands": 7, "lon": -80.050772, "address": "4th St & Flagler ", "lat": 26.716834}, "geometry": {"type": "Point", "coordinates": [-80.050772, 26.716834]}, "type": "Feature"}, {"properties": {"bikes": 7, "status": "OPEN", "name": "City Hall", "stands": 7, "lon": -80.053651, "address": "City Hall", "lat": 26.713597}, "geometry": {"type": "Point", "coordinates": [-80.053651, 26.713597]}, "type": "Feature"}, {"properties": {"bikes": 7, "status": "OPEN", "name": "301 Clematis St", "stands": 4, "lon": -80.052099, "address": "301 Clematis St", "lat": 26.713374}, "geometry": {"type": "Point", "coordinates": [-80.052099, 26.713374]}, "type": "Feature"}, {"properties": {"bikes": 6, "status": "OPEN", "name": "375 S. Rosemary Ave", "stands": 6, "lon": -80.057057, "address": "375 S. Rosemary Ave", "lat": 26.710791}, "geometry": {"type": "Point", "coordinates": [-80.057057, 26.710791]}, "type": "Feature"}, {"properties": {"bikes": 7, "status": "OPEN", "name": "700 S Rosemary Ave", "stands": 7, "lon": -80.057246, "address": "700 S Rosemary Ave", "lat": 26.707739}, "geometry": {"type": "Point", "coordinates": [-80.057246, 26.707739]}, "type": "Feature"}, {"properties": {"bikes": 7, "status": "OPEN", "name": "530 Clematis St", "stands": 5, "lon": -80.055892, "address": "530 Clematis St", "lat": 26.71339}, "geometry": {"type": "Point", "coordinates": [-80.055892, 26.71339]}, "type": "Feature"}, {"properties": {"bikes": 7, "status": "OPEN", "name": "Dixie & Fern", "stands": 9, "lon": -80.053503, "address": "Dixie & Fern", "lat": 26.710101}, "geometry": {"type": "Point", "coordinates": [-80.053503, 26.710101]}, "type": "Feature"}, {"properties": {"bikes": 5, "status": "OPEN", "name": "County Courthouse", "stands": 9, "lon": -80.053755, "address": "County Courthouse", "lat": 26.716162}, "geometry": {"type": "Point", "coordinates": [-80.053755, 26.716162]}, "type": "Feature"}, {"properties": {"bikes": 7, "status": "OPEN", "name": "Good Sam P.B. Lakes and Flagler", "stands": 9, "lon": -80.04978775978088, "address": "Good Sam P.B. Lakes and Flagler", "lat": 26.723955272817022}, "geometry": {"type": "Point", "coordinates": [-80.04978775978088, 26.723955272817022]}, "type": "Feature"}, {"properties": {"bikes": 5, "status": "OPEN", "name": "PBAU, Gruber Pl", "stands": 7, "lon": -80.05306005477904, "address": "PBAU, Gruber Pl", "lat": 26.702871118997958}, "geometry": {"type": "Point", "coordinates": [-80.05306005477904, 26.702871118997958]}, "type": "Feature"}], "type": "FeatureCollection"}