{"features": [{"geometry": {"coordinates": [16.366086, 48.209481], "type": "Point"}, "properties": {"stands": 15, "lat": 48.209481, "status": "OPEN", "bikes": 3, "address": "Ecke Herrengasse U3 Station Herrengasse links beim Ausgang Fahnengasse", "name": "Fahnengasse", "lon": 16.366086}, "type": "Feature"}, {"geometry": {"coordinates": [16.3561, 48.210425], "type": "Point"}, "properties": {"stands": 30, "lat": 48.210425, "status": "OPEN", "bikes": 4, "address": "Ecke Lichtenfelsgasse U2 Station Rathaus", "name": "Friedrich Schmidtplatz", "lon": 16.3561}, "type": "Feature"}, {"geometry": {"coordinates": [16.37298586854365, 48.210666083418], "type": "Point"}, "properties": {"stands": 12, "lat": 48.210666083418, "status": "OPEN", "bikes": 14, "address": null, "name": "Hoher Markt", "lon": 16.37298586854365}, "type": "Feature"}, {"geometry": {"coordinates": [16.376719, 48.203366], "type": "Point"}, "properties": {"stands": 7, "lat": 48.203366, "status": "OPEN", "bikes": 13, "address": "Parkring / Stadtpark beim Haupteingang des Kursalons", "name": "Johannesgasse", "lon": 16.376719}, "type": "Feature"}, {"geometry": {"coordinates": [16.382375, 48.211534], "type": "Point"}, "properties": {"stands": 11, "lat": 48.211534, "status": "OPEN", "bikes": 8, "address": "Urania /Franz Josefs Kai bei Aspernbr\u00fccke U4 Station Schwedenplatz - Ausgang Urania", "name": "Julius Raab Platz", "lon": 16.382375}, "type": "Feature"}, {"geometry": {"coordinates": [16.371317, 48.202157], "type": "Point"}, "properties": {"stands": 2, "lat": 48.202157, "status": "OPEN", "bikes": 14, "address": "Ecke Akademiestra\u00dfe in der Mitte der beiden Einkaufszentren der Ringstra\u00dfengalerien", "name": "K\u00e4rntnerring", "lon": 16.371317}, "type": "Feature"}, {"geometry": {"coordinates": [16.369512, 48.202675], "type": "Point"}, "properties": {"stands": 5, "lat": 48.202675, "status": "OPEN", "bikes": 12, "address": "Opernring - K\u00e4rntnerstra\u00dfe U-Bahnstation Karlsplatz - Ausgang Oper", "name": "Oper", "lon": 16.369512}, "type": "Feature"}, {"geometry": {"coordinates": [16.36025, 48.209921], "type": "Point"}, "properties": {"stands": 15, "lat": 48.209921, "status": "OPEN", "bikes": 5, "address": "Dr. Karl Lueger Ring gegen\u00fcber des Burgtheaters", "name": "Rathausplatz", "lon": 16.36025}, "type": "Feature"}, {"geometry": {"coordinates": [16.372222, 48.215964], "type": "Point"}, "properties": {"stands": 1, "lat": 48.215964, "status": "OPEN", "bikes": 20, "address": "Franz-Josefs-Kai / Ringturm / H\u00f6he Werdertorgasse U4 Station Schottenring beim Ausgang Salztorbr\u00fccke", "name": "Schottenring U4", "lon": 16.372222}, "type": "Feature"}, {"geometry": {"coordinates": [16.376655, 48.211699], "type": "Point"}, "properties": {"stands": 5, "lat": 48.211699, "status": "OPEN", "bikes": 25, "address": "Franz-Josefs-Kai / Rotenturmstra\u00dfe bei der U-Bahnstation Schwedenplatz - Ausgang Rotenturmstra\u00dfe", "name": "Schwedenplatz", "lon": 16.376655}, "type": "Feature"}, {"geometry": {"coordinates": [16.380446122684475, 48.20682045864029], "type": "Point"}, "properties": {"stands": 4, "lat": 48.20682045864029, "status": "OPEN", "bikes": 16, "address": "Parkring / Weiskirchner Str. / Stadtpark gegen\u00fcber dem Museum f\u00fcr Angewandte Kunst", "name": "Stadtpark Stubenring", "lon": 16.380446122684475}, "type": "Feature"}, {"geometry": {"coordinates": [16.374044, 48.208514], "type": "Point"}, "properties": {"stands": 8, "lat": 48.208514, "status": "OPEN", "bikes": 10, "address": "Ecke Schulerstra\u00dfe hinter dem Stephansdom", "name": "Stephansplatz", "lon": 16.374044}, "type": "Feature"}, {"geometry": {"coordinates": [16.360850814819287, 48.21195863324924], "type": "Point"}, "properties": {"stands": 3, "lat": 48.21195863324924, "status": "OPEN", "bikes": 34, "address": null, "name": "Universit\u00e4tsring", "lon": 16.360850814819287}, "type": "Feature"}, {"geometry": {"coordinates": [16.360413, 48.206507], "type": "Point"}, "properties": {"stands": 6, "lat": 48.206507, "status": "OPEN", "bikes": 10, "address": "Burgring / Volkstheater / Bellaria U2, U3 Station Volkstheater - Ausgang Volksgarten", "name": "Volksgarten", "lon": 16.360413}, "type": "Feature"}, {"geometry": {"coordinates": [16.390280334987665, 48.21845439674175], "type": "Point"}, "properties": {"stands": 17, "lat": 48.21845439674175, "status": "OPEN", "bikes": 19, "address": "U-Bahn Aufgang Heinestra\u00dfe", "name": "Heinestra\u00dfe", "lon": 16.390280334987665}, "type": "Feature"}, {"geometry": {"coordinates": [16.379656, 48.215679], "type": "Point"}, "properties": {"stands": 10, "lat": 48.215679, "status": "OPEN", "bikes": 4, "address": null, "name": "Karmeliterplatz", "lon": 16.379656}, "type": "Feature"}, {"geometry": {"coordinates": [16.414372, 48.214382], "type": "Point"}, "properties": {"stands": 19, "lat": 48.214382, "status": "OPEN", "bikes": 5, "address": "Vorgartenstra\u00dfe/Trabrennstra\u00dfe, Unter U2 Krieau", "name": "Krieau", "lon": 16.414372}, "type": "Feature"}, {"geometry": {"coordinates": [16.406171, 48.217296], "type": "Point"}, "properties": {"stands": 39, "lat": 48.217296, "status": "OPEN", "bikes": 1, "address": "Messeplatz", "name": "Messeplatz", "lon": 16.406171}, "type": "Feature"}, {"geometry": {"coordinates": [16.38621, 48.215878], "type": "Point"}, "properties": {"stands": 12, "lat": 48.215878, "status": "OPEN", "bikes": 3, "address": "Nestroyplatz U1", "name": "Nepomukgasse", "lon": 16.38621}, "type": "Feature"}, {"geometry": {"coordinates": [16.38221114873886, 48.21952070512639], "type": "Point"}, "properties": {"stands": 15, "lat": 48.21952070512639, "status": "OPEN", "bikes": 9, "address": "Novaragasse/ Glockengasse, U2 Taborstra\u00dfe Ausgang Novaragasse", "name": "Novaragasse", "lon": 16.38221114873886}, "type": "Feature"}, {"geometry": {"coordinates": [16.373086273670197, 48.21777468054901], "type": "Point"}, "properties": {"stands": 3, "lat": 48.21777468054901, "status": "OPEN", "bikes": 17, "address": "Obere Donaustra\u00dfe Ecke Herminengasse, U2 Schottenring Ausgang Herminengasse", "name": "Obere Donaustra\u00dfe", "lon": 16.373086273670197}, "type": "Feature"}, {"geometry": {"coordinates": [16.392030715942383, 48.217831869605355], "type": "Point"}, "properties": {"stands": 27, "lat": 48.217831869605355, "status": "OPEN", "bikes": 13, "address": "Praterstern Schnellbahnunterf\u00fchrung", "name": "Praterstern", "lon": 16.392030715942383}, "type": "Feature"}, {"geometry": {"coordinates": [16.399790024753543, 48.223183193262095], "type": "Point"}, "properties": {"stands": 14, "lat": 48.223183193262095, "status": "OPEN", "bikes": 19, "address": "Lassallestra\u00dfe vor 9", "name": "Radingerstra\u00dfe", "lon": 16.399790024753543}, "type": "Feature"}, {"geometry": {"coordinates": [16.421406, 48.209983], "type": "Point"}, "properties": {"stands": 22, "lat": 48.209983, "status": "OPEN", "bikes": 18, "address": "Meiereistra\u00dfe/Vorgartenstra\u00dfe, Unter U2 Stadion", "name": "Stadion Center", "lon": 16.421406}, "type": "Feature"}, {"geometry": {"coordinates": [16.40769449472043, 48.21285825037472], "type": "Point"}, "properties": {"stands": 38, "lat": 48.21285825037472, "status": "OPEN", "bikes": 1, "address": "Gegen\u00fcber WU-Bibliothek", "name": "S\u00fcdportalstra\u00dfe", "lon": 16.40769449472043}, "type": "Feature"}, {"geometry": {"coordinates": [16.37712329044348, 48.19463142266584], "type": "Point"}, "properties": {"stands": 16, "lat": 48.19463142266584, "status": "OPEN", "bikes": 7, "address": "Prinz Eugen Stra\u00dfe gegen\u00fcber 20-22", "name": "Arbeiterkammer", "lon": 16.37712329044348}, "type": "Feature"}, {"geometry": {"coordinates": [16.384477289575557, 48.201619365507966], "type": "Point"}, "properties": {"stands": 3, "lat": 48.201619365507966, "status": "OPEN", "bikes": 27, "address": "Zwischen Linker Bahngasse 11 (Musikuniversit\u00e4t) und Rechter Bahngasse 14", "name": "Bahngasse", "lon": 16.384477289575557}, "type": "Feature"}, {"geometry": {"coordinates": [16.386581, 48.19424], "type": "Point"}, "properties": {"stands": 4, "lat": 48.19424, "status": "OPEN", "bikes": 6, "address": "Schnellbahnstation Rennweg", "name": "Fasanplatz", "lon": 16.386581}, "type": "Feature"}, {"geometry": {"coordinates": [16.395202717929806, 48.19667701000304], "type": "Point"}, "properties": {"stands": 23, "lat": 48.19667701000304, "status": "OPEN", "bikes": 1, "address": null, "name": "Juchgasse", "lon": 16.395202717929806}, "type": "Feature"}, {"geometry": {"coordinates": [16.39601008933255, 48.20568564112994], "type": "Point"}, "properties": {"stands": 15, "lat": 48.20568564112994, "status": "OPEN", "bikes": 11, "address": "Kundmanngasse vor 2", "name": "Kundmanngasse", "lon": 16.39601008933255}, "type": "Feature"}, {"geometry": {"coordinates": [16.398464284091915, 48.19298666107499], "type": "Point"}, "properties": {"stands": 21, "lat": 48.19298666107499, "status": "OPEN", "bikes": 6, "address": "Landstra\u00dfer Hauptstra\u00dfe vor 146", "name": "Petrusgasse", "lon": 16.398464284091915}, "type": "Feature"}, {"geometry": {"coordinates": [16.390219, 48.210683], "type": "Point"}, "properties": {"stands": 23, "lat": 48.210683, "status": "OPEN", "bikes": 5, "address": "bei der Schnellbahnunterf\u00fchrung", "name": "Radetzkyplatz", "lon": 16.390219}, "type": "Feature"}, {"geometry": {"coordinates": [16.389782, 48.20341], "type": "Point"}, "properties": {"stands": 7, "lat": 48.20341, "status": "OPEN", "bikes": 10, "address": "Landstra\u00dfer Hauptstra\u00dfe beim Rochusmarkt", "name": "Salmgasse", "lon": 16.389782}, "type": "Feature"}, {"geometry": {"coordinates": [16.376977, 48.198857], "type": "Point"}, "properties": {"stands": 6, "lat": 48.198857, "status": "OPEN", "bikes": 13, "address": "Rennweg / Ecke Zaunergasse vis \u00e0 vis des Hochstrahlbrunnens", "name": "Schwarzenbergplatz", "lon": 16.376977}, "type": "Feature"}, {"geometry": {"coordinates": [16.394331, 48.199239], "type": "Point"}, "properties": {"stands": 4, "lat": 48.199239, "status": "OPEN", "bikes": 16, "address": "Landstra\u00dfer Hauptstra\u00dfe Nr. 95 bei Galeria", "name": "Wassergasse", "lon": 16.394331}, "type": "Feature"}, {"geometry": {"coordinates": [16.385247276821133, 48.20585160205631], "type": "Point"}, "properties": {"stands": 3, "lat": 48.20585160205631, "status": "OPEN", "bikes": 25, "address": "Landstra\u00dfer Hauptstra\u00dfe vor 2B, an der Kreuzung Invalidenstra\u00dfe", "name": "Wien Mitte", "lon": 16.385247276821133}, "type": "Feature"}, {"geometry": {"coordinates": [16.363307231807767, 48.19530905758178], "type": "Point"}, "properties": {"stands": 3, "lat": 48.19530905758178, "status": "OPEN", "bikes": 17, "address": "Ecke Margaretenstra\u00dfe 44", "name": "Heum\u00fchlgasse", "lon": 16.363307231807767}, "type": "Feature"}, {"geometry": {"coordinates": [16.36707037105566, 48.192882761349345], "type": "Point"}, "properties": {"stands": 10, "lat": 48.192882761349345, "status": "OPEN", "bikes": 9, "address": "Wiedner Hauptstra\u00dfe vor 49", "name": "Mayerhofgasse", "lon": 16.36707037105566}, "type": "Feature"}, {"geometry": {"coordinates": [16.37566685094839, 48.190857735513326], "type": "Point"}, "properties": {"stands": 4, "lat": 48.190857735513326, "status": "OPEN", "bikes": 17, "address": "Sankt-Elisabeth-Platz gegen\u00fcber 1", "name": "Sankt-Elisabeth-Platz", "lon": 16.37566685094839}, "type": "Feature"}, {"geometry": {"coordinates": [16.36816, 48.19973], "type": "Point"}, "properties": {"stands": 6, "lat": 48.19973, "status": "OPEN", "bikes": 13, "address": "Vor der TU-Bibliothek, U-Bahn Karlsplatz", "name": "Treitlstra\u00dfe", "lon": 16.36816}, "type": "Feature"}, {"geometry": {"coordinates": [16.345832, 48.183886], "type": "Point"}, "properties": {"stands": 1, "lat": 48.183886, "status": "OPEN", "bikes": 19, "address": "Margareteng\u00fcrtel Ecke Arbeitergasse bei Busstation", "name": "Arbeitergasse", "lon": 16.345832}, "type": "Feature"}, {"geometry": {"coordinates": [16.357409, 48.19636], "type": "Point"}, "properties": {"stands": 5, "lat": 48.19636, "status": "OPEN", "bikes": 12, "address": "Kettenbr\u00fcckengasse U4 Station Kettenbr\u00fcckengasse - Ausgang Eggerthgasse", "name": "Falco Stiege", "lon": 16.357409}, "type": "Feature"}, {"geometry": {"coordinates": [16.3639, 48.187184], "type": "Point"}, "properties": {"stands": 17, "lat": 48.187184, "status": "OPEN", "bikes": 9, "address": "vor Wiedner Hauptstra\u00dfe 92", "name": "Hartmanngasse", "lon": 16.3639}, "type": "Feature"}, {"geometry": {"coordinates": [16.343868, 48.188476], "type": "Point"}, "properties": {"stands": 20, "lat": 48.188476, "status": "OPEN", "bikes": 10, "address": "St. Johann Park U4 Station Margareteng\u00fcrtel", "name": "Margareteng\u00fcrtel U4", "lon": 16.343868}, "type": "Feature"}, {"geometry": {"coordinates": [16.3580119111366, 48.18154858413143], "type": "Point"}, "properties": {"stands": 11, "lat": 48.18154858413143, "status": "OPEN", "bikes": 16, "address": "Gr\u00fcnwaldgasse gegen\u00fcber 1", "name": "Matzleinsdorfer Platz", "lon": 16.3580119111366}, "type": "Feature"}, {"geometry": {"coordinates": [16.361338490390835, 48.18973215957295], "type": "Point"}, "properties": {"stands": 25, "lat": 48.18973215957295, "status": "OPEN", "bikes": 3, "address": "Bei Sch\u00fctte-Lihotzky-Park Ecke Hartmanngasse", "name": "Mittersteig", "lon": 16.361338490390835}, "type": "Feature"}, {"geometry": {"coordinates": [16.354705, 48.192705], "type": "Point"}, "properties": {"stands": 12, "lat": 48.192705, "status": "OPEN", "bikes": 4, "address": "Hamburgerstra\u00dfe U4 Station Pilgramgasse", "name": "Pilgramgasse U4", "lon": 16.354705}, "type": "Feature"}, {"geometry": {"coordinates": [16.351027, 48.189527], "type": "Point"}, "properties": {"stands": 0, "lat": 48.189527, "status": "OPEN", "bikes": 20, "address": "Rechte Wienzeile Ecke Reinprechtsdorferstra\u00dfe", "name": "Reinprechtsdorfer Br\u00fccke", "lon": 16.351027}, "type": "Feature"}, {"geometry": {"coordinates": [16.3530230023689, 48.18527731094403], "type": "Point"}, "properties": {"stands": 16, "lat": 48.18527731094403, "status": "OPEN", "bikes": 10, "address": "Siebenbrunnenplatz vor 5", "name": "Siebenbrunnenplatz", "lon": 16.3530230023689}, "type": "Feature"}, {"geometry": {"coordinates": [16.3383087515831, 48.18925977032302], "type": "Point"}, "properties": {"stands": 15, "lat": 48.18925977032302, "status": "OPEN", "bikes": 12, "address": "unter U-Bahnbogen H\u00f6he Ulmanstra\u00dfe", "name": "Gumpendorfer G\u00fcrtel", "lon": 16.3383087515831}, "type": "Feature"}, {"geometry": {"coordinates": [16.350918, 48.198527], "type": "Point"}, "properties": {"stands": 16, "lat": 48.198527, "status": "OPEN", "bikes": 3, "address": "Mariahilferstra\u00dfe Ecke Kollergerngasse", "name": "Kollergerngasse", "lon": 16.350918}, "type": "Feature"}, {"geometry": {"coordinates": [16.3374263048172, 48.20367562940292], "type": "Point"}, "properties": {"stands": 17, "lat": 48.20367562940292, "status": "OPEN", "bikes": 3, "address": "Neubaug\u00fcrtel / Burggasse U6 Station Burggasse - Ausgang Burggasse", "name": "Burggasse U6", "lon": 16.3374263048172}, "type": "Feature"}, {"geometry": {"coordinates": [16.361115244214943, 48.20234525336636], "type": "Point"}, "properties": {"stands": 6, "lat": 48.20234525336636, "status": "OPEN", "bikes": 29, "address": "Mariahilfer Stra\u00dfe / Museumsquartier U2 Station Museumsquartier", "name": "Museumsplatz", "lon": 16.361115244214943}, "type": "Feature"}, {"geometry": {"coordinates": [16.343241, 48.207249], "type": "Point"}, "properties": {"stands": 26, "lat": 48.207249, "status": "OPEN", "bikes": 1, "address": "vor der Kirche bei Lerchenfelderstra\u00dfe", "name": "Schottenfeldgasse", "lon": 16.343241}, "type": "Feature"}, {"geometry": {"coordinates": [16.352033, 48.202161], "type": "Point"}, "properties": {"stands": 22, "lat": 48.202161, "status": "OPEN", "bikes": 0, "address": "Siebensterngasse vor 38 - 40", "name": "Siebensternplatz", "lon": 16.352033}, "type": "Feature"}, {"geometry": {"coordinates": [16.337727, 48.201035], "type": "Point"}, "properties": {"stands": 20, "lat": 48.201035, "status": "OPEN", "bikes": 5, "address": "Neubaug\u00fcrtel/M\u00e4rzstra\u00dfe U6 Station Burggasse - Ausgang Urban Loritz Platz", "name": "Urban Loritz Platz", "lon": 16.337727}, "type": "Feature"}, {"geometry": {"coordinates": [16.343983, 48.196727], "type": "Point"}, "properties": {"stands": 14, "lat": 48.196727, "status": "OPEN", "bikes": 0, "address": "Mariahilferstra\u00dfe 104 Ecke Schottenfeldgasse", "name": "Webgasse", "lon": 16.343983}, "type": "Feature"}, {"geometry": {"coordinates": [16.356432, 48.206007], "type": "Point"}, "properties": {"stands": 14, "lat": 48.206007, "status": "OPEN", "bikes": 6, "address": "Museumstra\u00dfe 7 n\u00e4he Neustiftgasse", "name": "Weghuberpark", "lon": 16.356432}, "type": "Feature"}, {"geometry": {"coordinates": [16.344066730857776, 48.21053857454122], "type": "Point"}, "properties": {"stands": 26, "lat": 48.21053857454122, "status": "OPEN", "bikes": 6, "address": "Albertgasse vor 28, nahe Kreuzung Josefst\u00e4dter Stra\u00dfe", "name": "Albertgasse", "lon": 16.344066730857776}, "type": "Feature"}, {"geometry": {"coordinates": [16.346449, 48.215225], "type": "Point"}, "properties": {"stands": 6, "lat": 48.215225, "status": "OPEN", "bikes": 6, "address": "Alser Stra\u00dfe ONR 47", "name": "Alser Stra\u00dfe/Feldgasse", "lon": 16.346449}, "type": "Feature"}, {"geometry": {"coordinates": [16.359613641351643, 48.22894659053326], "type": "Point"}, "properties": {"stands": 8, "lat": 48.22894659053326, "status": "OPEN", "bikes": 13, "address": null, "name": "Althanstra\u00dfe", "lon": 16.359613641351643}, "type": "Feature"}, {"geometry": {"coordinates": [16.360184848308563, 48.221111197690476], "type": "Point"}, "properties": {"stands": 1, "lat": 48.221111197690476, "status": "OPEN", "bikes": 23, "address": null, "name": "Bauernfeldplatz", "lon": 16.360184848308563}, "type": "Feature"}, {"geometry": {"coordinates": [16.366343200206757, 48.21918606992131], "type": "Point"}, "properties": {"stands": 10, "lat": 48.21918606992131, "status": "OPEN", "bikes": 29, "address": null, "name": "Berggasse", "lon": 16.366343200206757}, "type": "Feature"}, {"geometry": {"coordinates": [16.356392, 48.220343], "type": "Point"}, "properties": {"stands": 17, "lat": 48.220343, "status": "OPEN", "bikes": 2, "address": "W\u00e4hringer Stra\u00dfe Ecke Boltzmanngasse", "name": "Boltzmanngasse", "lon": 16.356392}, "type": "Feature"}, {"geometry": {"coordinates": [16.355145, 48.215156], "type": "Point"}, "properties": {"stands": 16, "lat": 48.215156, "status": "OPEN", "bikes": 4, "address": "bei Altem AKH vis \u00e0 vis Otto-Wagner-Platz", "name": "Frankhplatz", "lon": 16.355145}, "type": "Feature"}, {"geometry": {"coordinates": [16.365309312194768, 48.2268211846898], "type": "Point"}, "properties": {"stands": 19, "lat": 48.2268211846898, "status": "OPEN", "bikes": 7, "address": "gegen\u00fcber U-Bahn Ausgang", "name": "Friedensbr\u00fccke", "lon": 16.365309312194768}, "type": "Feature"}, {"geometry": {"coordinates": [16.361919, 48.226085], "type": "Point"}, "properties": {"stands": 2, "lat": 48.226085, "status": "OPEN", "bikes": 18, "address": "Nordbergstra\u00dfe Franz Josefs Bahnhof", "name": "Julius-Tandler-Platz", "lon": 16.361919}, "type": "Feature"}, {"geometry": {"coordinates": [16.351347428588724, 48.22643104588432], "type": "Point"}, "properties": {"stands": 22, "lat": 48.22643104588432, "status": "OPEN", "bikes": 1, "address": "L\u00f6blichgasse gg\u00fc. 16 Ecke Lustkandlgasse", "name": "L\u00f6blichgasse", "lon": 16.351347428588724}, "type": "Feature"}, {"geometry": {"coordinates": [16.35498450401292, 48.22515164041546], "type": "Point"}, "properties": {"stands": 6, "lat": 48.22515164041546, "status": "OPEN", "bikes": 17, "address": "Nu\u00dfdorferstra\u00dfe vor 22", "name": "Markthalle Alsergrund", "lon": 16.35498450401292}, "type": "Feature"}, {"geometry": {"coordinates": [16.367440223693848, 48.22274274152399], "type": "Point"}, "properties": {"stands": 15, "lat": 48.22274274152399, "status": "OPEN", "bikes": 13, "address": "U4 Station Rossauer L\u00e4nde - Ausgang Nordwest", "name": "Ro\u00dfauer L\u00e4nde U4", "lon": 16.367440223693848}, "type": "Feature"}, {"geometry": {"coordinates": [16.352484226226807, 48.219293743169885], "type": "Point"}, "properties": {"stands": 13, "lat": 48.219293743169885, "status": "OPEN", "bikes": 7, "address": "Sensengasse 1 nahe Spitalgasse", "name": "Sensengasse", "lon": 16.352484226226807}, "type": "Feature"}, {"geometry": {"coordinates": [16.361394, 48.214592], "type": "Point"}, "properties": {"stands": 10, "lat": 48.214592, "status": "OPEN", "bikes": 26, "address": "W\u00e4hringerstra\u00dfe Ecke Universit\u00e4tsstra\u00dfe / Votivkirche Im Park zwischen der Votivkirche und dem Schottentor", "name": "Sigmund Freud Park", "lon": 16.361394}, "type": "Feature"}, {"geometry": {"coordinates": [16.358744502067566, 48.2352072349742], "type": "Point"}, "properties": {"stands": 22, "lat": 48.2352072349742, "status": "OPEN", "bikes": 4, "address": "U4/U6 Station Spittelau", "name": "Spittelau U4/U6", "lon": 16.358744502067566}, "type": "Feature"}, {"geometry": {"coordinates": [16.375707084083615, 48.18629936311113], "type": "Point"}, "properties": {"stands": 25, "lat": 48.18629936311113, "status": "OPEN", "bikes": 14, "address": "Zwischen Favoritenstra\u00dfe und Argentinierstra\u00dfe, am zuk\u00fcnftigen Hauptbahnhof-Vorplatz Nord", "name": "Hauptbahnhof", "lon": 16.375707084083615}, "type": "Feature"}, {"geometry": {"coordinates": [16.3740655721665, 48.185165595330574], "type": "Point"}, "properties": {"stands": 30, "lat": 48.185165595330574, "status": "OPEN", "bikes": 10, "address": null, "name": "Hauptbahnhof West", "lon": 16.3740655721665}, "type": "Feature"}, {"geometry": {"coordinates": [16.333931, 48.184268], "type": "Point"}, "properties": {"stands": 10, "lat": 48.184268, "status": "OPEN", "bikes": 13, "address": "U-Bahn Ausgang Storchensteg", "name": "L\u00e4ngenfeldgasse", "lon": 16.333931}, "type": "Feature"}, {"geometry": {"coordinates": [16.33078, 48.180249], "type": "Point"}, "properties": {"stands": 9, "lat": 48.180249, "status": "OPEN", "bikes": 6, "address": "U-Bahnstation Niederhofstra\u00dfe vor Reschgassse 24", "name": "Reschgasse", "lon": 16.33078}, "type": "Feature"}, {"geometry": {"coordinates": [16.331692206360003, 48.17517594710141], "type": "Point"}, "properties": {"stands": 13, "lat": 48.17517594710141, "status": "OPEN", "bikes": 11, "address": "Vivenotgasse vor 65-67", "name": "Vivenotgasse", "lon": 16.331692206360003}, "type": "Feature"}, {"geometry": {"coordinates": [16.314242, 48.186833], "type": "Point"}, "properties": {"stands": 11, "lat": 48.186833, "status": "OPEN", "bikes": 27, "address": "Schlo\u00df Sch\u00f6nbrunn gegen\u00fcber Haupteingang", "name": "Sch\u00f6nbrunn Haupteingang", "lon": 16.314242}, "type": "Feature"}, {"geometry": {"coordinates": [16.318559646606445, 48.19033801595279], "type": "Point"}, "properties": {"stands": 10, "lat": 48.19033801595279, "status": "OPEN", "bikes": 21, "address": "Mariahilfer Stra\u00dfe 212", "name": "Technisches Museum", "lon": 16.318559646606445}, "type": "Feature"}, {"geometry": {"coordinates": [16.329887956380844, 48.20251096145515], "type": "Point"}, "properties": {"stands": 17, "lat": 48.20251096145515, "status": "OPEN", "bikes": 15, "address": "Zwischen Burjanplatz und Kriemhildplatz - an der Markgraf-R\u00fcdiger-Stra\u00dfe", "name": "Markgraf-R\u00fcdiger-Stra\u00dfe", "lon": 16.329887956380844}, "type": "Feature"}, {"geometry": {"coordinates": [16.31897807121277, 48.19836424256149], "type": "Point"}, "properties": {"stands": 18, "lat": 48.19836424256149, "status": "OPEN", "bikes": 10, "address": "Johnstra\u00dfe gegen\u00fcber 61", "name": "Meiselmarkt", "lon": 16.31897807121277}, "type": "Feature"}, {"geometry": {"coordinates": [16.330213844776154, 48.196191975180945], "type": "Point"}, "properties": {"stands": 2, "lat": 48.196191975180945, "status": "OPEN", "bikes": 22, "address": "Felberstra\u00dfe 42", "name": "Schmelzbr\u00fccke", "lon": 16.330213844776154}, "type": "Feature"}, {"geometry": {"coordinates": [16.319898, 48.185866], "type": "Point"}, "properties": {"stands": 6, "lat": 48.185866, "status": "OPEN", "bikes": 9, "address": null, "name": "Sch\u00f6nbrunner Br\u00fccke", "lon": 16.319898}, "type": "Feature"}, {"geometry": {"coordinates": [16.32712461054325, 48.19988348513977], "type": "Point"}, "properties": {"stands": 5, "lat": 48.19988348513977, "status": "OPEN", "bikes": 21, "address": "Schweglerstra\u00dfe Ecke Plunkergasse", "name": "Schweglerstra\u00dfe", "lon": 16.32712461054325}, "type": "Feature"}, {"geometry": {"coordinates": [16.325501203536987, 48.19081722895058], "type": "Point"}, "properties": {"stands": 21, "lat": 48.19081722895058, "status": "OPEN", "bikes": 14, "address": null, "name": "Schwendermarkt", "lon": 16.325501203536987}, "type": "Feature"}, {"geometry": {"coordinates": [16.323061734437943, 48.196800755698845], "type": "Point"}, "properties": {"stands": 14, "lat": 48.196800755698845, "status": "OPEN", "bikes": 11, "address": null, "name": "Selzergasse", "lon": 16.323061734437943}, "type": "Feature"}, {"geometry": {"coordinates": [16.333952844142914, 48.193084489389825], "type": "Point"}, "properties": {"stands": 14, "lat": 48.193084489389825, "status": "OPEN", "bikes": 8, "address": "Mariahilfer Stra\u00dfe 165 - Ecke Turnergasse", "name": "Turnergasse", "lon": 16.333952844142914}, "type": "Feature"}, {"geometry": {"coordinates": [16.338567584753036, 48.196829361947565], "type": "Point"}, "properties": {"stands": 37, "lat": 48.196829361947565, "status": "OPEN", "bikes": 3, "address": null, "name": "Westbahnhof Europaplatz", "lon": 16.338567584753036}, "type": "Feature"}, {"geometry": {"coordinates": [16.33772000670433, 48.1979628716984], "type": "Point"}, "properties": {"stands": 29, "lat": 48.1979628716984, "status": "OPEN", "bikes": 9, "address": "Felbersta\u00dfe vor 1", "name": "Westbahnhof Felberstra\u00dfe", "lon": 16.33772000670433}, "type": "Feature"}, {"geometry": {"coordinates": [16.337218433618546, 48.195742313266834], "type": "Point"}, "properties": {"stands": 17, "lat": 48.195742313266834, "status": "OPEN", "bikes": 18, "address": "Gerstnerstra\u00dfe gegen\u00fcber 5", "name": "Westbahnhof Gerstnerstra\u00dfe", "lon": 16.337218433618546}, "type": "Feature"}, {"geometry": {"coordinates": [16.318432241678238, 48.19407504329784], "type": "Point"}, "properties": {"stands": 21, "lat": 48.19407504329784, "status": "OPEN", "bikes": 4, "address": "Goldschlagstra\u00dfe vor 95-97", "name": "Wieningerplatz", "lon": 16.318432241678238}, "type": "Feature"}, {"geometry": {"coordinates": [16.330760291934894, 48.214018546662], "type": "Point"}, "properties": {"stands": 19, "lat": 48.214018546662, "status": "OPEN", "bikes": 5, "address": "Brestelgasse Ecke Ottakringer Stra\u00dfe", "name": "Brestelgasse", "lon": 16.330760291934894}, "type": "Feature"}, {"geometry": {"coordinates": [16.33083846551517, 48.20584398497102], "type": "Point"}, "properties": {"stands": 5, "lat": 48.20584398497102, "status": "OPEN", "bikes": 22, "address": "Herbststra\u00dfe Ecke Fr\u00f6belgasse vor 14", "name": "Fr\u00f6belgasse", "lon": 16.33083846551517}, "type": "Feature"}, {"geometry": {"coordinates": [16.33343517780304, 48.209199173526855], "type": "Point"}, "properties": {"stands": 30, "lat": 48.209199173526855, "status": "OPEN", "bikes": 2, "address": "Hofferplatz gegen\u00fcber 8", "name": "Hofferplatz", "lon": 16.33343517780304}, "type": "Feature"}, {"geometry": {"coordinates": [16.339110008598254, 48.212107897872485], "type": "Point"}, "properties": {"stands": 21, "lat": 48.212107897872485, "status": "OPEN", "bikes": 5, "address": "\u00c4usserer Hernalser G\u00fcrtel U6 Station Josefst\u00e4dterstra\u00dfe", "name": "Josefst\u00e4dter Stra\u00dfe U6", "lon": 16.339110008598254}, "type": "Feature"}, {"geometry": {"coordinates": [16.311770975589752, 48.21185884247232], "type": "Point"}, "properties": {"stands": 36, "lat": 48.21185884247232, "status": "OPEN", "bikes": 3, "address": "Paltaufgasse gg\u00fc. 16", "name": "Ottakring U3", "lon": 16.311770975589752}, "type": "Feature"}, {"geometry": {"coordinates": [16.327990293502808, 48.21009646975368], "type": "Point"}, "properties": {"stands": 24, "lat": 48.21009646975368, "status": "OPEN", "bikes": 1, "address": "Richard-Wagner-Platz gegen\u00fcber 1", "name": "Richard-Wagner-Platz", "lon": 16.327990293502808}, "type": "Feature"}, {"geometry": {"coordinates": [16.31879836320877, 48.210786411937], "type": "Point"}, "properties": {"stands": 24, "lat": 48.210786411937, "status": "OPEN", "bikes": 0, "address": null, "name": "Schuhmeierplatz", "lon": 16.31879836320877}, "type": "Feature"}, {"geometry": {"coordinates": [16.337940954986607, 48.20801763058792], "type": "Point"}, "properties": {"stands": 25, "lat": 48.20801763058792, "status": "OPEN", "bikes": 2, "address": "Lerchenfelder G\u00fcrtel gg\u00fc. 31-33", "name": "Thaliastra\u00dfe U6", "lon": 16.337940954986607}, "type": "Feature"}, {"geometry": {"coordinates": [16.335769317270206, 48.2140741078205], "type": "Point"}, "properties": {"stands": 21, "lat": 48.2140741078205, "status": "OPEN", "bikes": 4, "address": "Yppenplatz vor 4", "name": "Yppenplatz", "lon": 16.335769317270206}, "type": "Feature"}, {"geometry": {"coordinates": [16.3415292797622, 48.21664519038192], "type": "Point"}, "properties": {"stands": 20, "lat": 48.21664519038192, "status": "OPEN", "bikes": 3, "address": "Station derzeit 100 Meter am \u00e4u\u00dferen W\u00e4hringer G\u00fcrtel nach Norden verlegt", "name": "Alser Stra\u00dfe U6", "lon": 16.3415292797622}, "type": "Feature"}, {"geometry": {"coordinates": [16.328497231006622, 48.222816901371736], "type": "Point"}, "properties": {"stands": 9, "lat": 48.222816901371736, "status": "OPEN", "bikes": 15, "address": "Rosensteingasse vor 76", "name": "Blumengasse", "lon": 16.328497231006622}, "type": "Feature"}, {"geometry": {"coordinates": [16.334529519081116, 48.22126041552466], "type": "Point"}, "properties": {"stands": 13, "lat": 48.22126041552466, "status": "OPEN", "bikes": 10, "address": "Dornerplatz gegen\u00fcber 11", "name": "Dornerplatz", "lon": 16.334529519081116}, "type": "Feature"}, {"geometry": {"coordinates": [16.332292556762695, 48.21803917939912], "type": "Point"}, "properties": {"stands": 16, "lat": 48.21803917939912, "status": "OPEN", "bikes": 0, "address": "Kalvarienberggasse vor 27", "name": "Elterleinplatz", "lon": 16.332292556762695}, "type": "Feature"}, {"geometry": {"coordinates": [16.315287351608276, 48.22324116831248], "type": "Point"}, "properties": {"stands": 16, "lat": 48.22324116831248, "status": "OPEN", "bikes": 14, "address": "Vorplatz Schnellbahnstation S54 Hernals - Heigerleinstra\u00dfe 84-86", "name": "Hernals S45", "lon": 16.315287351608276}, "type": "Feature"}, {"geometry": {"coordinates": [16.33714199066162, 48.217124869019955], "type": "Point"}, "properties": {"stands": 19, "lat": 48.217124869019955, "status": "OPEN", "bikes": 8, "address": "Palffygasse vor 25", "name": "Palffygasse", "lon": 16.33714199066162}, "type": "Feature"}, {"geometry": {"coordinates": [16.326541900634766, 48.219543937395876], "type": "Point"}, "properties": {"stands": 21, "lat": 48.219543937395876, "status": "OPEN", "bikes": 3, "address": "Hernalser Hauptstra\u00dfe vor 102 Ecke Rosensteingasse", "name": "Rosensteingasse", "lon": 16.326541900634766}, "type": "Feature"}, {"geometry": {"coordinates": [16.3350436210917, 48.22856629523309], "type": "Point"}, "properties": {"stands": 20, "lat": 48.22856629523309, "status": "OPEN", "bikes": 4, "address": null, "name": "Aumannplatz", "lon": 16.3350436210917}, "type": "Feature"}, {"geometry": {"coordinates": [16.32951827052102, 48.231024848571714], "type": "Point"}, "properties": {"stands": 18, "lat": 48.231024848571714, "status": "OPEN", "bikes": 8, "address": "Simonygasse 12", "name": "Gersthof", "lon": 16.32951827052102}, "type": "Feature"}, {"geometry": {"coordinates": [16.34420202377305, 48.22571093752283], "type": "Point"}, "properties": {"stands": 24, "lat": 48.22571093752283, "status": "OPEN", "bikes": 0, "address": "Gertrudplatz vor 4", "name": "Gertrudplatz", "lon": 16.34420202377305}, "type": "Feature"}, {"geometry": {"coordinates": [16.343716084957123, 48.221818861642916], "type": "Point"}, "properties": {"stands": 24, "lat": 48.221818861642916, "status": "OPEN", "bikes": 7, "address": "W\u00e4hringer G\u00fcrtel vor 40 Ecke Kreuzgasse", "name": "Michelbeuern", "lon": 16.343716084957123}, "type": "Feature"}, {"geometry": {"coordinates": [16.35298043489456, 48.231728703121675], "type": "Point"}, "properties": {"stands": 11, "lat": 48.231728703121675, "status": "OPEN", "bikes": 7, "address": "\u00c4usserer W\u00e4hringer G\u00fcrtel U6 Station Nu\u00dfdorfer Stra\u00dfe", "name": "Nussdorfer Stra\u00dfe U6", "lon": 16.35298043489456}, "type": "Feature"}, {"geometry": {"coordinates": [16.34903, 48.224201], "type": "Point"}, "properties": {"stands": 20, "lat": 48.224201, "status": "OPEN", "bikes": 0, "address": "\u00c4usserer  W\u00e4hringer G\u00fcrtel - Schulgasse U6 Station W\u00e4hringer Stra\u00dfe", "name": "W\u00e4hringer Stra\u00dfe U6", "lon": 16.34903}, "type": "Feature"}, {"geometry": {"coordinates": [16.348745226860046, 48.23660072530353], "type": "Point"}, "properties": {"stands": 16, "lat": 48.23660072530353, "status": "OPEN", "bikes": 10, "address": "Gymasiumstra\u00dfe vor 85 (Studentenheim) Ecke Billrothstra\u00dfe", "name": "Gymnasiumstra\u00dfe", "lon": 16.348745226860046}, "type": "Feature"}, {"geometry": {"coordinates": [16.379236578941345, 48.24402667402365], "type": "Point"}, "properties": {"stands": 11, "lat": 48.24402667402365, "status": "OPEN", "bikes": 15, "address": "zwischen Bus und Bim-Haltestelle", "name": "Friedrich Engels Platz", "lon": 16.379236578941345}, "type": "Feature"}, {"geometry": {"coordinates": [16.380315, 48.237464], "type": "Point"}, "properties": {"stands": 18, "lat": 48.237464, "status": "OPEN", "bikes": 12, "address": "Meldemannstra\u00dfe 26 Ecke Hellwagstra\u00dfe", "name": "Hellwagstra\u00dfe", "lon": 16.380315}, "type": "Feature"}, {"geometry": {"coordinates": [16.369846, 48.235136], "type": "Point"}, "properties": {"stands": 19, "lat": 48.235136, "status": "OPEN", "bikes": 7, "address": "J\u00e4gerstra\u00dfe - Leipziger Stra\u00dfe U6 Station J\u00e4gerstra\u00dfe", "name": "J\u00e4gerstra\u00dfe U6", "lon": 16.369846}, "type": "Feature"}, {"geometry": {"coordinates": [16.384839713573456, 48.241940300328466], "type": "Point"}, "properties": {"stands": 30, "lat": 48.241940300328466, "status": "OPEN", "bikes": 5, "address": "Am Maria Restituta Platz zwischen Rivergate und Schnellbahn", "name": "Millennium Tower", "lon": 16.384839713573456}, "type": "Feature"}, {"geometry": {"coordinates": [16.383445, 48.233619], "type": "Point"}, "properties": {"stands": 23, "lat": 48.233619, "status": "OPEN", "bikes": 1, "address": "Dresdnerstra\u00dfe vor 85 Ecke Traisengasse", "name": "Traisengasse", "lon": 16.383445}, "type": "Feature"}, {"geometry": {"coordinates": [16.371582, 48.229912], "type": "Point"}, "properties": {"stands": 5, "lat": 48.229912, "status": "OPEN", "bikes": 21, "address": "Wallensteinplatz, N\u00e4he Wallensteinstra\u00dfe", "name": "Wallensteinplatz", "lon": 16.371582}, "type": "Feature"}], "type": "FeatureCollection"}