{"features": [{"geometry": {"coordinates": [16.366086, 48.209481], "type": "Point"}, "properties": {"name": "Fahnengasse", "lon": 16.366086, "status": "OPEN", "stands": 18, "bikes": 0, "lat": 48.209481, "address": "Ecke Herrengasse U3 Station Herrengasse links beim Ausgang Fahnengasse"}, "type": "Feature"}, {"geometry": {"coordinates": [16.3561, 48.210425], "type": "Point"}, "properties": {"name": "Friedrich Schmidtplatz", "lon": 16.3561, "status": "OPEN", "stands": 33, "bikes": 0, "lat": 48.210425, "address": "Ecke Lichtenfelsgasse U2 Station Rathaus"}, "type": "Feature"}, {"geometry": {"coordinates": [16.37298586854365, 48.210666083418], "type": "Point"}, "properties": {"name": "Hoher Markt", "lon": 16.37298586854365, "status": "OPEN", "stands": 14, "bikes": 12, "lat": 48.210666083418, "address": null}, "type": "Feature"}, {"geometry": {"coordinates": [16.376719, 48.203366], "type": "Point"}, "properties": {"name": "Johannesgasse", "lon": 16.376719, "status": "OPEN", "stands": 5, "bikes": 15, "lat": 48.203366, "address": "Parkring / Stadtpark beim Haupteingang des Kursalons"}, "type": "Feature"}, {"geometry": {"coordinates": [16.382375, 48.211534], "type": "Point"}, "properties": {"name": "Julius Raab Platz", "lon": 16.382375, "status": "OPEN", "stands": 10, "bikes": 9, "lat": 48.211534, "address": "Urania /Franz Josefs Kai bei Aspernbr\u00fccke U4 Station Schwedenplatz - Ausgang Urania"}, "type": "Feature"}, {"geometry": {"coordinates": [16.371317, 48.202157], "type": "Point"}, "properties": {"name": "K\u00e4rntnerring", "lon": 16.371317, "status": "OPEN", "stands": 0, "bikes": 16, "lat": 48.202157, "address": "Ecke Akademiestra\u00dfe in der Mitte der beiden Einkaufszentren der Ringstra\u00dfengalerien"}, "type": "Feature"}, {"geometry": {"coordinates": [16.369512, 48.202675], "type": "Point"}, "properties": {"name": "Oper", "lon": 16.369512, "status": "OPEN", "stands": 10, "bikes": 7, "lat": 48.202675, "address": "Opernring - K\u00e4rntnerstra\u00dfe U-Bahnstation Karlsplatz - Ausgang Oper"}, "type": "Feature"}, {"geometry": {"coordinates": [16.36025, 48.209921], "type": "Point"}, "properties": {"name": "Rathausplatz", "lon": 16.36025, "status": "OPEN", "stands": 13, "bikes": 7, "lat": 48.209921, "address": "Dr. Karl Lueger Ring gegen\u00fcber des Burgtheaters"}, "type": "Feature"}, {"geometry": {"coordinates": [16.372222, 48.215964], "type": "Point"}, "properties": {"name": "Schottenring U4", "lon": 16.372222, "status": "OPEN", "stands": 1, "bikes": 20, "lat": 48.215964, "address": "Franz-Josefs-Kai / Ringturm / H\u00f6he Werdertorgasse U4 Station Schottenring beim Ausgang Salztorbr\u00fccke"}, "type": "Feature"}, {"geometry": {"coordinates": [16.376655, 48.211699], "type": "Point"}, "properties": {"name": "Schwedenplatz", "lon": 16.376655, "status": "OPEN", "stands": 2, "bikes": 28, "lat": 48.211699, "address": "Franz-Josefs-Kai / Rotenturmstra\u00dfe bei der U-Bahnstation Schwedenplatz - Ausgang Rotenturmstra\u00dfe"}, "type": "Feature"}, {"geometry": {"coordinates": [16.380446122684475, 48.20682045864029], "type": "Point"}, "properties": {"name": "Stadtpark Stubenring", "lon": 16.380446122684475, "status": "OPEN", "stands": 9, "bikes": 11, "lat": 48.20682045864029, "address": "Parkring / Weiskirchner Str. / Stadtpark gegen\u00fcber dem Museum f\u00fcr Angewandte Kunst"}, "type": "Feature"}, {"geometry": {"coordinates": [16.374044, 48.208514], "type": "Point"}, "properties": {"name": "Stephansplatz", "lon": 16.374044, "status": "OPEN", "stands": 5, "bikes": 13, "lat": 48.208514, "address": "Ecke Schulerstra\u00dfe hinter dem Stephansdom"}, "type": "Feature"}, {"geometry": {"coordinates": [16.360850814819287, 48.21195863324924], "type": "Point"}, "properties": {"name": "Universit\u00e4tsring", "lon": 16.360850814819287, "status": "OPEN", "stands": 2, "bikes": 35, "lat": 48.21195863324924, "address": null}, "type": "Feature"}, {"geometry": {"coordinates": [16.360413, 48.206507], "type": "Point"}, "properties": {"name": "Volksgarten", "lon": 16.360413, "status": "OPEN", "stands": 1, "bikes": 15, "lat": 48.206507, "address": "Burgring / Volkstheater / Bellaria U2, U3 Station Volkstheater - Ausgang Volksgarten"}, "type": "Feature"}, {"geometry": {"coordinates": [16.390280334987665, 48.21845439674175], "type": "Point"}, "properties": {"name": "Heinestra\u00dfe", "lon": 16.390280334987665, "status": "OPEN", "stands": 18, "bikes": 18, "lat": 48.21845439674175, "address": "U-Bahn Aufgang Heinestra\u00dfe"}, "type": "Feature"}, {"geometry": {"coordinates": [16.379656, 48.215679], "type": "Point"}, "properties": {"name": "Karmeliterplatz", "lon": 16.379656, "status": "OPEN", "stands": 7, "bikes": 7, "lat": 48.215679, "address": null}, "type": "Feature"}, {"geometry": {"coordinates": [16.414372, 48.214382], "type": "Point"}, "properties": {"name": "Krieau", "lon": 16.414372, "status": "OPEN", "stands": 17, "bikes": 7, "lat": 48.214382, "address": "Vorgartenstra\u00dfe/Trabrennstra\u00dfe, Unter U2 Krieau"}, "type": "Feature"}, {"geometry": {"coordinates": [16.406171, 48.217296], "type": "Point"}, "properties": {"name": "Messeplatz", "lon": 16.406171, "status": "OPEN", "stands": 38, "bikes": 2, "lat": 48.217296, "address": "Messeplatz"}, "type": "Feature"}, {"geometry": {"coordinates": [16.38621, 48.215878], "type": "Point"}, "properties": {"name": "Nepomukgasse", "lon": 16.38621, "status": "OPEN", "stands": 14, "bikes": 1, "lat": 48.215878, "address": "Nestroyplatz U1"}, "type": "Feature"}, {"geometry": {"coordinates": [16.38221114873886, 48.21952070512639], "type": "Point"}, "properties": {"name": "Novaragasse", "lon": 16.38221114873886, "status": "OPEN", "stands": 16, "bikes": 8, "lat": 48.21952070512639, "address": "Novaragasse/ Glockengasse, U2 Taborstra\u00dfe Ausgang Novaragasse"}, "type": "Feature"}, {"geometry": {"coordinates": [16.373086273670197, 48.21777468054901], "type": "Point"}, "properties": {"name": "Obere Donaustra\u00dfe", "lon": 16.373086273670197, "status": "OPEN", "stands": 3, "bikes": 17, "lat": 48.21777468054901, "address": "Obere Donaustra\u00dfe Ecke Herminengasse, U2 Schottenring Ausgang Herminengasse"}, "type": "Feature"}, {"geometry": {"coordinates": [16.392030715942383, 48.217831869605355], "type": "Point"}, "properties": {"name": "Praterstern", "lon": 16.392030715942383, "status": "OPEN", "stands": 34, "bikes": 6, "lat": 48.217831869605355, "address": "Praterstern Schnellbahnunterf\u00fchrung"}, "type": "Feature"}, {"geometry": {"coordinates": [16.399790024753543, 48.223183193262095], "type": "Point"}, "properties": {"name": "Radingerstra\u00dfe", "lon": 16.399790024753543, "status": "OPEN", "stands": 14, "bikes": 19, "lat": 48.223183193262095, "address": "Lassallestra\u00dfe vor 9"}, "type": "Feature"}, {"geometry": {"coordinates": [16.421406, 48.209983], "type": "Point"}, "properties": {"name": "Stadion Center", "lon": 16.421406, "status": "OPEN", "stands": 21, "bikes": 19, "lat": 48.209983, "address": "Meiereistra\u00dfe/Vorgartenstra\u00dfe, Unter U2 Stadion"}, "type": "Feature"}, {"geometry": {"coordinates": [16.40769449472043, 48.21285825037472], "type": "Point"}, "properties": {"name": "S\u00fcdportalstra\u00dfe", "lon": 16.40769449472043, "status": "OPEN", "stands": 36, "bikes": 3, "lat": 48.21285825037472, "address": "Gegen\u00fcber WU-Bibliothek"}, "type": "Feature"}, {"geometry": {"coordinates": [16.37712329044348, 48.19463142266584], "type": "Point"}, "properties": {"name": "Arbeiterkammer", "lon": 16.37712329044348, "status": "OPEN", "stands": 17, "bikes": 6, "lat": 48.19463142266584, "address": "Prinz Eugen Stra\u00dfe gegen\u00fcber 20-22"}, "type": "Feature"}, {"geometry": {"coordinates": [16.384477289575557, 48.201619365507966], "type": "Point"}, "properties": {"name": "Bahngasse", "lon": 16.384477289575557, "status": "OPEN", "stands": 4, "bikes": 26, "lat": 48.201619365507966, "address": "Zwischen Linker Bahngasse 11 (Musikuniversit\u00e4t) und Rechter Bahngasse 14"}, "type": "Feature"}, {"geometry": {"coordinates": [16.386581, 48.19424], "type": "Point"}, "properties": {"name": "Fasanplatz", "lon": 16.386581, "status": "OPEN", "stands": 10, "bikes": 0, "lat": 48.19424, "address": "Schnellbahnstation Rennweg"}, "type": "Feature"}, {"geometry": {"coordinates": [16.395202717929806, 48.19667701000304], "type": "Point"}, "properties": {"name": "Juchgasse", "lon": 16.395202717929806, "status": "OPEN", "stands": 20, "bikes": 4, "lat": 48.19667701000304, "address": null}, "type": "Feature"}, {"geometry": {"coordinates": [16.39601008933255, 48.20568564112994], "type": "Point"}, "properties": {"name": "Kundmanngasse", "lon": 16.39601008933255, "status": "OPEN", "stands": 11, "bikes": 15, "lat": 48.20568564112994, "address": "Kundmanngasse vor 2"}, "type": "Feature"}, {"geometry": {"coordinates": [16.398464284091915, 48.19298666107499], "type": "Point"}, "properties": {"name": "Petrusgasse", "lon": 16.398464284091915, "status": "OPEN", "stands": 27, "bikes": 0, "lat": 48.19298666107499, "address": "Landstra\u00dfer Hauptstra\u00dfe vor 146"}, "type": "Feature"}, {"geometry": {"coordinates": [16.390219, 48.210683], "type": "Point"}, "properties": {"name": "Radetzkyplatz", "lon": 16.390219, "status": "OPEN", "stands": 23, "bikes": 5, "lat": 48.210683, "address": "bei der Schnellbahnunterf\u00fchrung"}, "type": "Feature"}, {"geometry": {"coordinates": [16.389782, 48.20341], "type": "Point"}, "properties": {"name": "Salmgasse", "lon": 16.389782, "status": "OPEN", "stands": 6, "bikes": 11, "lat": 48.20341, "address": "Landstra\u00dfer Hauptstra\u00dfe beim Rochusmarkt"}, "type": "Feature"}, {"geometry": {"coordinates": [16.376977, 48.198857], "type": "Point"}, "properties": {"name": "Schwarzenbergplatz", "lon": 16.376977, "status": "OPEN", "stands": 13, "bikes": 6, "lat": 48.198857, "address": "Rennweg / Ecke Zaunergasse vis \u00e0 vis des Hochstrahlbrunnens"}, "type": "Feature"}, {"geometry": {"coordinates": [16.394331, 48.199239], "type": "Point"}, "properties": {"name": "Wassergasse", "lon": 16.394331, "status": "OPEN", "stands": 5, "bikes": 15, "lat": 48.199239, "address": "Landstra\u00dfer Hauptstra\u00dfe Nr. 95 bei Galeria"}, "type": "Feature"}, {"geometry": {"coordinates": [16.385247276821133, 48.20585160205631], "type": "Point"}, "properties": {"name": "Wien Mitte", "lon": 16.385247276821133, "status": "OPEN", "stands": 3, "bikes": 25, "lat": 48.20585160205631, "address": "Landstra\u00dfer Hauptstra\u00dfe vor 2B, an der Kreuzung Invalidenstra\u00dfe"}, "type": "Feature"}, {"geometry": {"coordinates": [16.363307231807767, 48.19530905758178], "type": "Point"}, "properties": {"name": "Heum\u00fchlgasse", "lon": 16.363307231807767, "status": "OPEN", "stands": 10, "bikes": 10, "lat": 48.19530905758178, "address": "Ecke Margaretenstra\u00dfe 44"}, "type": "Feature"}, {"geometry": {"coordinates": [16.36707037105566, 48.192882761349345], "type": "Point"}, "properties": {"name": "Mayerhofgasse", "lon": 16.36707037105566, "status": "OPEN", "stands": 6, "bikes": 13, "lat": 48.192882761349345, "address": "Wiedner Hauptstra\u00dfe vor 49"}, "type": "Feature"}, {"geometry": {"coordinates": [16.37566685094839, 48.190857735513326], "type": "Point"}, "properties": {"name": "Sankt-Elisabeth-Platz", "lon": 16.37566685094839, "status": "OPEN", "stands": 8, "bikes": 13, "lat": 48.190857735513326, "address": "Sankt-Elisabeth-Platz gegen\u00fcber 1"}, "type": "Feature"}, {"geometry": {"coordinates": [16.36816, 48.19973], "type": "Point"}, "properties": {"name": "Treitlstra\u00dfe", "lon": 16.36816, "status": "OPEN", "stands": 3, "bikes": 16, "lat": 48.19973, "address": "Vor der TU-Bibliothek, U-Bahn Karlsplatz"}, "type": "Feature"}, {"geometry": {"coordinates": [16.345832, 48.183886], "type": "Point"}, "properties": {"name": "Arbeitergasse", "lon": 16.345832, "status": "OPEN", "stands": 2, "bikes": 18, "lat": 48.183886, "address": "Margareteng\u00fcrtel Ecke Arbeitergasse bei Busstation"}, "type": "Feature"}, {"geometry": {"coordinates": [16.357409, 48.19636], "type": "Point"}, "properties": {"name": "Falco Stiege", "lon": 16.357409, "status": "OPEN", "stands": 6, "bikes": 11, "lat": 48.19636, "address": "Kettenbr\u00fcckengasse U4 Station Kettenbr\u00fcckengasse - Ausgang Eggerthgasse"}, "type": "Feature"}, {"geometry": {"coordinates": [16.3639, 48.187184], "type": "Point"}, "properties": {"name": "Hartmanngasse", "lon": 16.3639, "status": "OPEN", "stands": 21, "bikes": 5, "lat": 48.187184, "address": "vor Wiedner Hauptstra\u00dfe 92"}, "type": "Feature"}, {"geometry": {"coordinates": [16.343868, 48.188476], "type": "Point"}, "properties": {"name": "Margareteng\u00fcrtel U4", "lon": 16.343868, "status": "OPEN", "stands": 19, "bikes": 11, "lat": 48.188476, "address": "St. Johann Park U4 Station Margareteng\u00fcrtel"}, "type": "Feature"}, {"geometry": {"coordinates": [16.3580119111366, 48.18154858413143], "type": "Point"}, "properties": {"name": "Matzleinsdorfer Platz", "lon": 16.3580119111366, "status": "OPEN", "stands": 12, "bikes": 15, "lat": 48.18154858413143, "address": "Gr\u00fcnwaldgasse gegen\u00fcber 1"}, "type": "Feature"}, {"geometry": {"coordinates": [16.361338490390835, 48.18973215957295], "type": "Point"}, "properties": {"name": "Mittersteig", "lon": 16.361338490390835, "status": "OPEN", "stands": 19, "bikes": 9, "lat": 48.18973215957295, "address": "Bei Sch\u00fctte-Lihotzky-Park Ecke Hartmanngasse"}, "type": "Feature"}, {"geometry": {"coordinates": [16.354705, 48.192705], "type": "Point"}, "properties": {"name": "Pilgramgasse U4", "lon": 16.354705, "status": "OPEN", "stands": 12, "bikes": 4, "lat": 48.192705, "address": "Hamburgerstra\u00dfe U4 Station Pilgramgasse"}, "type": "Feature"}, {"geometry": {"coordinates": [16.351027, 48.189527], "type": "Point"}, "properties": {"name": "Reinprechtsdorfer Br\u00fccke", "lon": 16.351027, "status": "OPEN", "stands": 0, "bikes": 20, "lat": 48.189527, "address": "Rechte Wienzeile Ecke Reinprechtsdorferstra\u00dfe"}, "type": "Feature"}, {"geometry": {"coordinates": [16.3530230023689, 48.18527731094403], "type": "Point"}, "properties": {"name": "Siebenbrunnenplatz", "lon": 16.3530230023689, "status": "OPEN", "stands": 3, "bikes": 23, "lat": 48.18527731094403, "address": "Siebenbrunnenplatz vor 5"}, "type": "Feature"}, {"geometry": {"coordinates": [16.3383087515831, 48.18925977032302], "type": "Point"}, "properties": {"name": "Gumpendorfer G\u00fcrtel", "lon": 16.3383087515831, "status": "OPEN", "stands": 13, "bikes": 14, "lat": 48.18925977032302, "address": "unter U-Bahnbogen H\u00f6he Ulmanstra\u00dfe"}, "type": "Feature"}, {"geometry": {"coordinates": [16.350918, 48.198527], "type": "Point"}, "properties": {"name": "Kollergerngasse", "lon": 16.350918, "status": "OPEN", "stands": 9, "bikes": 10, "lat": 48.198527, "address": "Mariahilferstra\u00dfe Ecke Kollergerngasse"}, "type": "Feature"}, {"geometry": {"coordinates": [16.3374263048172, 48.20367562940292], "type": "Point"}, "properties": {"name": "Burggasse U6", "lon": 16.3374263048172, "status": "OPEN", "stands": 17, "bikes": 2, "lat": 48.20367562940292, "address": "Neubaug\u00fcrtel / Burggasse U6 Station Burggasse - Ausgang Burggasse"}, "type": "Feature"}, {"geometry": {"coordinates": [16.361115244214943, 48.20234525336636], "type": "Point"}, "properties": {"name": "Museumsplatz", "lon": 16.361115244214943, "status": "OPEN", "stands": 8, "bikes": 26, "lat": 48.20234525336636, "address": "Mariahilfer Stra\u00dfe / Museumsquartier U2 Station Museumsquartier"}, "type": "Feature"}, {"geometry": {"coordinates": [16.343241, 48.207249], "type": "Point"}, "properties": {"name": "Schottenfeldgasse", "lon": 16.343241, "status": "OPEN", "stands": 27, "bikes": 0, "lat": 48.207249, "address": "vor der Kirche bei Lerchenfelderstra\u00dfe"}, "type": "Feature"}, {"geometry": {"coordinates": [16.352033, 48.202161], "type": "Point"}, "properties": {"name": "Siebensternplatz", "lon": 16.352033, "status": "OPEN", "stands": 20, "bikes": 2, "lat": 48.202161, "address": "Siebensterngasse vor 38 - 40"}, "type": "Feature"}, {"geometry": {"coordinates": [16.337727, 48.201035], "type": "Point"}, "properties": {"name": "Urban Loritz Platz", "lon": 16.337727, "status": "OPEN", "stands": 22, "bikes": 3, "lat": 48.201035, "address": "Neubaug\u00fcrtel/M\u00e4rzstra\u00dfe U6 Station Burggasse - Ausgang Urban Loritz Platz"}, "type": "Feature"}, {"geometry": {"coordinates": [16.343983, 48.196727], "type": "Point"}, "properties": {"name": "Webgasse", "lon": 16.343983, "status": "OPEN", "stands": 12, "bikes": 2, "lat": 48.196727, "address": "Mariahilferstra\u00dfe 104 Ecke Schottenfeldgasse"}, "type": "Feature"}, {"geometry": {"coordinates": [16.356432, 48.206007], "type": "Point"}, "properties": {"name": "Weghuberpark", "lon": 16.356432, "status": "OPEN", "stands": 19, "bikes": 1, "lat": 48.206007, "address": "Museumstra\u00dfe 7 n\u00e4he Neustiftgasse"}, "type": "Feature"}, {"geometry": {"coordinates": [16.344066730857776, 48.21053857454122], "type": "Point"}, "properties": {"name": "Albertgasse", "lon": 16.344066730857776, "status": "OPEN", "stands": 24, "bikes": 8, "lat": 48.21053857454122, "address": "Albertgasse vor 28, nahe Kreuzung Josefst\u00e4dter Stra\u00dfe"}, "type": "Feature"}, {"geometry": {"coordinates": [16.346449, 48.215225], "type": "Point"}, "properties": {"name": "Alser Stra\u00dfe/Feldgasse", "lon": 16.346449, "status": "OPEN", "stands": 0, "bikes": 12, "lat": 48.215225, "address": "Alser Stra\u00dfe ONR 47"}, "type": "Feature"}, {"geometry": {"coordinates": [16.359613641351643, 48.22894659053326], "type": "Point"}, "properties": {"name": "Althanstra\u00dfe", "lon": 16.359613641351643, "status": "OPEN", "stands": 7, "bikes": 14, "lat": 48.22894659053326, "address": null}, "type": "Feature"}, {"geometry": {"coordinates": [16.360184848308563, 48.221111197690476], "type": "Point"}, "properties": {"name": "Bauernfeldplatz", "lon": 16.360184848308563, "status": "OPEN", "stands": 0, "bikes": 24, "lat": 48.221111197690476, "address": null}, "type": "Feature"}, {"geometry": {"coordinates": [16.366343200206757, 48.21918606992131], "type": "Point"}, "properties": {"name": "Berggasse", "lon": 16.366343200206757, "status": "OPEN", "stands": 5, "bikes": 33, "lat": 48.21918606992131, "address": null}, "type": "Feature"}, {"geometry": {"coordinates": [16.356392, 48.220343], "type": "Point"}, "properties": {"name": "Boltzmanngasse", "lon": 16.356392, "status": "OPEN", "stands": 18, "bikes": 1, "lat": 48.220343, "address": "W\u00e4hringer Stra\u00dfe Ecke Boltzmanngasse"}, "type": "Feature"}, {"geometry": {"coordinates": [16.355145, 48.215156], "type": "Point"}, "properties": {"name": "Frankhplatz", "lon": 16.355145, "status": "OPEN", "stands": 15, "bikes": 3, "lat": 48.215156, "address": "bei Altem AKH vis \u00e0 vis Otto-Wagner-Platz"}, "type": "Feature"}, {"geometry": {"coordinates": [16.365309312194768, 48.2268211846898], "type": "Point"}, "properties": {"name": "Friedensbr\u00fccke", "lon": 16.365309312194768, "status": "OPEN", "stands": 23, "bikes": 3, "lat": 48.2268211846898, "address": "gegen\u00fcber U-Bahn Ausgang"}, "type": "Feature"}, {"geometry": {"coordinates": [16.361919, 48.226085], "type": "Point"}, "properties": {"name": "Julius-Tandler-Platz", "lon": 16.361919, "status": "OPEN", "stands": 3, "bikes": 17, "lat": 48.226085, "address": "Nordbergstra\u00dfe Franz Josefs Bahnhof"}, "type": "Feature"}, {"geometry": {"coordinates": [16.351347428588724, 48.22643104588432], "type": "Point"}, "properties": {"name": "L\u00f6blichgasse", "lon": 16.351347428588724, "status": "OPEN", "stands": 21, "bikes": 2, "lat": 48.22643104588432, "address": "L\u00f6blichgasse gg\u00fc. 16 Ecke Lustkandlgasse"}, "type": "Feature"}, {"geometry": {"coordinates": [16.35498450401292, 48.22515164041546], "type": "Point"}, "properties": {"name": "Markthalle Alsergrund", "lon": 16.35498450401292, "status": "OPEN", "stands": 4, "bikes": 19, "lat": 48.22515164041546, "address": "Nu\u00dfdorferstra\u00dfe vor 22"}, "type": "Feature"}, {"geometry": {"coordinates": [16.367440223693848, 48.22274274152399], "type": "Point"}, "properties": {"name": "Ro\u00dfauer L\u00e4nde U4", "lon": 16.367440223693848, "status": "OPEN", "stands": 13, "bikes": 15, "lat": 48.22274274152399, "address": "U4 Station Rossauer L\u00e4nde - Ausgang Nordwest"}, "type": "Feature"}, {"geometry": {"coordinates": [16.352484226226807, 48.219293743169885], "type": "Point"}, "properties": {"name": "Sensengasse", "lon": 16.352484226226807, "status": "OPEN", "stands": 16, "bikes": 4, "lat": 48.219293743169885, "address": "Sensengasse 1 nahe Spitalgasse"}, "type": "Feature"}, {"geometry": {"coordinates": [16.361394, 48.214592], "type": "Point"}, "properties": {"name": "Sigmund Freud Park", "lon": 16.361394, "status": "OPEN", "stands": 18, "bikes": 18, "lat": 48.214592, "address": "W\u00e4hringerstra\u00dfe Ecke Universit\u00e4tsstra\u00dfe / Votivkirche Im Park zwischen der Votivkirche und dem Schottentor"}, "type": "Feature"}, {"geometry": {"coordinates": [16.358744502067566, 48.2352072349742], "type": "Point"}, "properties": {"name": "Spittelau U4/U6", "lon": 16.358744502067566, "status": "OPEN", "stands": 13, "bikes": 13, "lat": 48.2352072349742, "address": "U4/U6 Station Spittelau"}, "type": "Feature"}, {"geometry": {"coordinates": [16.375707084083615, 48.18629936311113], "type": "Point"}, "properties": {"name": "Hauptbahnhof", "lon": 16.375707084083615, "status": "OPEN", "stands": 27, "bikes": 12, "lat": 48.18629936311113, "address": "Zwischen Favoritenstra\u00dfe und Argentinierstra\u00dfe, am zuk\u00fcnftigen Hauptbahnhof-Vorplatz Nord"}, "type": "Feature"}, {"geometry": {"coordinates": [16.3740655721665, 48.185165595330574], "type": "Point"}, "properties": {"name": "Hauptbahnhof West", "lon": 16.3740655721665, "status": "OPEN", "stands": 33, "bikes": 7, "lat": 48.185165595330574, "address": null}, "type": "Feature"}, {"geometry": {"coordinates": [16.333931, 48.184268], "type": "Point"}, "properties": {"name": "L\u00e4ngenfeldgasse", "lon": 16.333931, "status": "OPEN", "stands": 15, "bikes": 8, "lat": 48.184268, "address": "U-Bahn Ausgang Storchensteg"}, "type": "Feature"}, {"geometry": {"coordinates": [16.33078, 48.180249], "type": "Point"}, "properties": {"name": "Reschgasse", "lon": 16.33078, "status": "OPEN", "stands": 7, "bikes": 8, "lat": 48.180249, "address": "U-Bahnstation Niederhofstra\u00dfe vor Reschgassse 24"}, "type": "Feature"}, {"geometry": {"coordinates": [16.331692206360003, 48.17517594710141], "type": "Point"}, "properties": {"name": "Vivenotgasse", "lon": 16.331692206360003, "status": "OPEN", "stands": 15, "bikes": 9, "lat": 48.17517594710141, "address": "Vivenotgasse vor 65-67"}, "type": "Feature"}, {"geometry": {"coordinates": [16.314242, 48.186833], "type": "Point"}, "properties": {"name": "Sch\u00f6nbrunn Haupteingang", "lon": 16.314242, "status": "OPEN", "stands": 7, "bikes": 31, "lat": 48.186833, "address": "Schlo\u00df Sch\u00f6nbrunn gegen\u00fcber Haupteingang"}, "type": "Feature"}, {"geometry": {"coordinates": [16.318559646606445, 48.19033801595279], "type": "Point"}, "properties": {"name": "Technisches Museum", "lon": 16.318559646606445, "status": "OPEN", "stands": 8, "bikes": 23, "lat": 48.19033801595279, "address": "Mariahilfer Stra\u00dfe 212"}, "type": "Feature"}, {"geometry": {"coordinates": [16.329887956380844, 48.20251096145515], "type": "Point"}, "properties": {"name": "Markgraf-R\u00fcdiger-Stra\u00dfe", "lon": 16.329887956380844, "status": "OPEN", "stands": 18, "bikes": 14, "lat": 48.20251096145515, "address": "Zwischen Burjanplatz und Kriemhildplatz - an der Markgraf-R\u00fcdiger-Stra\u00dfe"}, "type": "Feature"}, {"geometry": {"coordinates": [16.31897807121277, 48.19836424256149], "type": "Point"}, "properties": {"name": "Meiselmarkt", "lon": 16.31897807121277, "status": "OPEN", "stands": 24, "bikes": 4, "lat": 48.19836424256149, "address": "Johnstra\u00dfe gegen\u00fcber 61"}, "type": "Feature"}, {"geometry": {"coordinates": [16.330213844776154, 48.196191975180945], "type": "Point"}, "properties": {"name": "Schmelzbr\u00fccke", "lon": 16.330213844776154, "status": "OPEN", "stands": 7, "bikes": 17, "lat": 48.196191975180945, "address": "Felberstra\u00dfe 42"}, "type": "Feature"}, {"geometry": {"coordinates": [16.319898, 48.185866], "type": "Point"}, "properties": {"name": "Sch\u00f6nbrunner Br\u00fccke", "lon": 16.319898, "status": "OPEN", "stands": 8, "bikes": 7, "lat": 48.185866, "address": null}, "type": "Feature"}, {"geometry": {"coordinates": [16.32712461054325, 48.19988348513977], "type": "Point"}, "properties": {"name": "Schweglerstra\u00dfe", "lon": 16.32712461054325, "status": "OPEN", "stands": 9, "bikes": 17, "lat": 48.19988348513977, "address": "Schweglerstra\u00dfe Ecke Plunkergasse"}, "type": "Feature"}, {"geometry": {"coordinates": [16.325501203536987, 48.19081722895058], "type": "Point"}, "properties": {"name": "Schwendermarkt", "lon": 16.325501203536987, "status": "OPEN", "stands": 25, "bikes": 10, "lat": 48.19081722895058, "address": null}, "type": "Feature"}, {"geometry": {"coordinates": [16.323061734437943, 48.196800755698845], "type": "Point"}, "properties": {"name": "Selzergasse", "lon": 16.323061734437943, "status": "OPEN", "stands": 18, "bikes": 7, "lat": 48.196800755698845, "address": null}, "type": "Feature"}, {"geometry": {"coordinates": [16.333952844142914, 48.193084489389825], "type": "Point"}, "properties": {"name": "Turnergasse", "lon": 16.333952844142914, "status": "OPEN", "stands": 22, "bikes": 0, "lat": 48.193084489389825, "address": "Mariahilfer Stra\u00dfe 165 - Ecke Turnergasse"}, "type": "Feature"}, {"geometry": {"coordinates": [16.338567584753036, 48.196829361947565], "type": "Point"}, "properties": {"name": "Westbahnhof Europaplatz", "lon": 16.338567584753036, "status": "OPEN", "stands": 38, "bikes": 2, "lat": 48.196829361947565, "address": null}, "type": "Feature"}, {"geometry": {"coordinates": [16.33772000670433, 48.1979628716984], "type": "Point"}, "properties": {"name": "Westbahnhof Felberstra\u00dfe", "lon": 16.33772000670433, "status": "OPEN", "stands": 33, "bikes": 5, "lat": 48.1979628716984, "address": "Felbersta\u00dfe vor 1"}, "type": "Feature"}, {"geometry": {"coordinates": [16.337218433618546, 48.195742313266834], "type": "Point"}, "properties": {"name": "Westbahnhof Gerstnerstra\u00dfe", "lon": 16.337218433618546, "status": "OPEN", "stands": 20, "bikes": 15, "lat": 48.195742313266834, "address": "Gerstnerstra\u00dfe gegen\u00fcber 5"}, "type": "Feature"}, {"geometry": {"coordinates": [16.318432241678238, 48.19407504329784], "type": "Point"}, "properties": {"name": "Wieningerplatz", "lon": 16.318432241678238, "status": "OPEN", "stands": 17, "bikes": 8, "lat": 48.19407504329784, "address": "Goldschlagstra\u00dfe vor 95-97"}, "type": "Feature"}, {"geometry": {"coordinates": [16.330760291934894, 48.214018546662], "type": "Point"}, "properties": {"name": "Brestelgasse", "lon": 16.330760291934894, "status": "OPEN", "stands": 19, "bikes": 5, "lat": 48.214018546662, "address": "Brestelgasse Ecke Ottakringer Stra\u00dfe"}, "type": "Feature"}, {"geometry": {"coordinates": [16.33083846551517, 48.20584398497102], "type": "Point"}, "properties": {"name": "Fr\u00f6belgasse", "lon": 16.33083846551517, "status": "OPEN", "stands": 7, "bikes": 20, "lat": 48.20584398497102, "address": "Herbststra\u00dfe Ecke Fr\u00f6belgasse vor 14"}, "type": "Feature"}, {"geometry": {"coordinates": [16.33343517780304, 48.209199173526855], "type": "Point"}, "properties": {"name": "Hofferplatz", "lon": 16.33343517780304, "status": "OPEN", "stands": 31, "bikes": 1, "lat": 48.209199173526855, "address": "Hofferplatz gegen\u00fcber 8"}, "type": "Feature"}, {"geometry": {"coordinates": [16.339110008598254, 48.212107897872485], "type": "Point"}, "properties": {"name": "Josefst\u00e4dter Stra\u00dfe U6", "lon": 16.339110008598254, "status": "OPEN", "stands": 22, "bikes": 4, "lat": 48.212107897872485, "address": "\u00c4usserer Hernalser G\u00fcrtel U6 Station Josefst\u00e4dterstra\u00dfe"}, "type": "Feature"}, {"geometry": {"coordinates": [16.311770975589752, 48.21185884247232], "type": "Point"}, "properties": {"name": "Ottakring U3", "lon": 16.311770975589752, "status": "OPEN", "stands": 36, "bikes": 3, "lat": 48.21185884247232, "address": "Paltaufgasse gg\u00fc. 16"}, "type": "Feature"}, {"geometry": {"coordinates": [16.327990293502808, 48.21009646975368], "type": "Point"}, "properties": {"name": "Richard-Wagner-Platz", "lon": 16.327990293502808, "status": "OPEN", "stands": 24, "bikes": 1, "lat": 48.21009646975368, "address": "Richard-Wagner-Platz gegen\u00fcber 1"}, "type": "Feature"}, {"geometry": {"coordinates": [16.31879836320877, 48.210786411937], "type": "Point"}, "properties": {"name": "Schuhmeierplatz", "lon": 16.31879836320877, "status": "OPEN", "stands": 24, "bikes": 0, "lat": 48.210786411937, "address": null}, "type": "Feature"}, {"geometry": {"coordinates": [16.337940954986607, 48.20801763058792], "type": "Point"}, "properties": {"name": "Thaliastra\u00dfe U6", "lon": 16.337940954986607, "status": "OPEN", "stands": 27, "bikes": 0, "lat": 48.20801763058792, "address": "Lerchenfelder G\u00fcrtel gg\u00fc. 31-33"}, "type": "Feature"}, {"geometry": {"coordinates": [16.335769317270206, 48.2140741078205], "type": "Point"}, "properties": {"name": "Yppenplatz", "lon": 16.335769317270206, "status": "OPEN", "stands": 16, "bikes": 9, "lat": 48.2140741078205, "address": "Yppenplatz vor 4"}, "type": "Feature"}, {"geometry": {"coordinates": [16.3415292797622, 48.21664519038192], "type": "Point"}, "properties": {"name": "Alser Stra\u00dfe U6", "lon": 16.3415292797622, "status": "OPEN", "stands": 19, "bikes": 4, "lat": 48.21664519038192, "address": "Station derzeit 100 Meter am \u00e4u\u00dferen W\u00e4hringer G\u00fcrtel nach Norden verlegt"}, "type": "Feature"}, {"geometry": {"coordinates": [16.328497231006622, 48.222816901371736], "type": "Point"}, "properties": {"name": "Blumengasse", "lon": 16.328497231006622, "status": "OPEN", "stands": 9, "bikes": 15, "lat": 48.222816901371736, "address": "Rosensteingasse vor 76"}, "type": "Feature"}, {"geometry": {"coordinates": [16.334529519081116, 48.22126041552466], "type": "Point"}, "properties": {"name": "Dornerplatz", "lon": 16.334529519081116, "status": "OPEN", "stands": 13, "bikes": 10, "lat": 48.22126041552466, "address": "Dornerplatz gegen\u00fcber 11"}, "type": "Feature"}, {"geometry": {"coordinates": [16.332292556762695, 48.21803917939912], "type": "Point"}, "properties": {"name": "Elterleinplatz", "lon": 16.332292556762695, "status": "OPEN", "stands": 16, "bikes": 0, "lat": 48.21803917939912, "address": "Kalvarienberggasse vor 27"}, "type": "Feature"}, {"geometry": {"coordinates": [16.315287351608276, 48.22324116831248], "type": "Point"}, "properties": {"name": "Hernals S45", "lon": 16.315287351608276, "status": "OPEN", "stands": 16, "bikes": 14, "lat": 48.22324116831248, "address": "Vorplatz Schnellbahnstation S54 Hernals - Heigerleinstra\u00dfe 84-86"}, "type": "Feature"}, {"geometry": {"coordinates": [16.33714199066162, 48.217124869019955], "type": "Point"}, "properties": {"name": "Palffygasse", "lon": 16.33714199066162, "status": "OPEN", "stands": 20, "bikes": 7, "lat": 48.217124869019955, "address": "Palffygasse vor 25"}, "type": "Feature"}, {"geometry": {"coordinates": [16.326541900634766, 48.219543937395876], "type": "Point"}, "properties": {"name": "Rosensteingasse", "lon": 16.326541900634766, "status": "OPEN", "stands": 23, "bikes": 1, "lat": 48.219543937395876, "address": "Hernalser Hauptstra\u00dfe vor 102 Ecke Rosensteingasse"}, "type": "Feature"}, {"geometry": {"coordinates": [16.3350436210917, 48.22856629523309], "type": "Point"}, "properties": {"name": "Aumannplatz", "lon": 16.3350436210917, "status": "OPEN", "stands": 23, "bikes": 1, "lat": 48.22856629523309, "address": null}, "type": "Feature"}, {"geometry": {"coordinates": [16.32951827052102, 48.231024848571714], "type": "Point"}, "properties": {"name": "Gersthof", "lon": 16.32951827052102, "status": "OPEN", "stands": 20, "bikes": 6, "lat": 48.231024848571714, "address": "Simonygasse 12"}, "type": "Feature"}, {"geometry": {"coordinates": [16.34420202377305, 48.22571093752283], "type": "Point"}, "properties": {"name": "Gertrudplatz", "lon": 16.34420202377305, "status": "OPEN", "stands": 24, "bikes": 0, "lat": 48.22571093752283, "address": "Gertrudplatz vor 4"}, "type": "Feature"}, {"geometry": {"coordinates": [16.343716084957123, 48.221818861642916], "type": "Point"}, "properties": {"name": "Michelbeuern", "lon": 16.343716084957123, "status": "OPEN", "stands": 25, "bikes": 6, "lat": 48.221818861642916, "address": "W\u00e4hringer G\u00fcrtel vor 40 Ecke Kreuzgasse"}, "type": "Feature"}, {"geometry": {"coordinates": [16.35298043489456, 48.231728703121675], "type": "Point"}, "properties": {"name": "Nussdorfer Stra\u00dfe U6", "lon": 16.35298043489456, "status": "OPEN", "stands": 13, "bikes": 5, "lat": 48.231728703121675, "address": "\u00c4usserer W\u00e4hringer G\u00fcrtel U6 Station Nu\u00dfdorfer Stra\u00dfe"}, "type": "Feature"}, {"geometry": {"coordinates": [16.34903, 48.224201], "type": "Point"}, "properties": {"name": "W\u00e4hringer Stra\u00dfe U6", "lon": 16.34903, "status": "OPEN", "stands": 19, "bikes": 1, "lat": 48.224201, "address": "\u00c4usserer  W\u00e4hringer G\u00fcrtel - Schulgasse U6 Station W\u00e4hringer Stra\u00dfe"}, "type": "Feature"}, {"geometry": {"coordinates": [16.348745226860046, 48.23660072530353], "type": "Point"}, "properties": {"name": "Gymnasiumstra\u00dfe", "lon": 16.348745226860046, "status": "OPEN", "stands": 24, "bikes": 2, "lat": 48.23660072530353, "address": "Gymasiumstra\u00dfe vor 85 (Studentenheim) Ecke Billrothstra\u00dfe"}, "type": "Feature"}, {"geometry": {"coordinates": [16.379236578941345, 48.24402667402365], "type": "Point"}, "properties": {"name": "Friedrich Engels Platz", "lon": 16.379236578941345, "status": "OPEN", "stands": 10, "bikes": 16, "lat": 48.24402667402365, "address": "zwischen Bus und Bim-Haltestelle"}, "type": "Feature"}, {"geometry": {"coordinates": [16.380315, 48.237464], "type": "Point"}, "properties": {"name": "Hellwagstra\u00dfe", "lon": 16.380315, "status": "OPEN", "stands": 20, "bikes": 10, "lat": 48.237464, "address": "Meldemannstra\u00dfe 26 Ecke Hellwagstra\u00dfe"}, "type": "Feature"}, {"geometry": {"coordinates": [16.369846, 48.235136], "type": "Point"}, "properties": {"name": "J\u00e4gerstra\u00dfe U6", "lon": 16.369846, "status": "OPEN", "stands": 14, "bikes": 12, "lat": 48.235136, "address": "J\u00e4gerstra\u00dfe - Leipziger Stra\u00dfe U6 Station J\u00e4gerstra\u00dfe"}, "type": "Feature"}, {"geometry": {"coordinates": [16.384839713573456, 48.241940300328466], "type": "Point"}, "properties": {"name": "Millennium Tower", "lon": 16.384839713573456, "status": "OPEN", "stands": 31, "bikes": 4, "lat": 48.241940300328466, "address": "Am Maria Restituta Platz zwischen Rivergate und Schnellbahn"}, "type": "Feature"}, {"geometry": {"coordinates": [16.383445, 48.233619], "type": "Point"}, "properties": {"name": "Traisengasse", "lon": 16.383445, "status": "OPEN", "stands": 23, "bikes": 1, "lat": 48.233619, "address": "Dresdnerstra\u00dfe vor 85 Ecke Traisengasse"}, "type": "Feature"}, {"geometry": {"coordinates": [16.371582, 48.229912], "type": "Point"}, "properties": {"name": "Wallensteinplatz", "lon": 16.371582, "status": "OPEN", "stands": 4, "bikes": 22, "lat": 48.229912, "address": "Wallensteinplatz, N\u00e4he Wallensteinstra\u00dfe"}, "type": "Feature"}], "type": "FeatureCollection"}