{"features": [{"properties": {"bikes": 0, "status": "OPEN", "name": "Pl. Kromera", "stands": 15, "lon": 17.06550121307373, "address": "Pl. Kromera", "lat": 51.13207714749649}, "geometry": {"type": "Point", "coordinates": [17.06550121307373, 51.13207714749649]}, "type": "Feature"}, {"properties": {"bikes": 0, "status": "OPEN", "name": "Dworzec Nadodrze", "stands": 16, "lon": 17.034999132156372, "address": "Dworzec Nadodrze", "lat": 51.12454271204484}, "geometry": {"type": "Point", "coordinates": [17.034999132156372, 51.12454271204484]}, "type": "Feature"}, {"properties": {"bikes": 0, "status": "OPEN", "name": "Politechnika Wroc\u0142awska - Gmach G\u0142\u00f3wny", "stands": 14, "lon": 17.061327695846558, "address": "Politechnika Wroc\u0142awska - Gmach G\u0142\u00f3wny", "lat": 51.10723376985792}, "geometry": {"type": "Point", "coordinates": [17.061327695846558, 51.10723376985792]}, "type": "Feature"}, {"properties": {"bikes": 0, "status": "OPEN", "name": "FAT - Grabiszy\u0144ska - Hallera", "stands": 15, "lon": 16.980035305023193, "address": "FAT - Grabiszy\u0144ska - Hallera", "lat": 51.094790225798505}, "geometry": {"type": "Point", "coordinates": [16.980035305023193, 51.094790225798505]}, "type": "Feature"}, {"properties": {"bikes": 0, "status": "OPEN", "name": "Grabiszy\u0144ska - Stalowa", "stands": 15, "lon": 17.000784873962402, "address": "Grabiszy\u0144ska - Stalowa", "lat": 51.099264089082496}, "geometry": {"type": "Point", "coordinates": [17.000784873962402, 51.099264089082496]}, "type": "Feature"}, {"properties": {"bikes": 0, "status": "OPEN", "name": "Grochowa - Jemio\u0142owa", "stands": 15, "lon": 17.007962465286255, "address": "Grochowa - Jemio\u0142owa", "lat": 51.09544381415203}, "geometry": {"type": "Point", "coordinates": [17.007962465286255, 51.09544381415203]}, "type": "Feature"}, {"properties": {"bikes": 0, "status": "OPEN", "name": "Hallera - Odkrywc\u00f3w", "stands": 15, "lon": 16.98563575744629, "address": "Hallera - Odkrywc\u00f3w", "lat": 51.091191955420186}, "geometry": {"type": "Point", "coordinates": [16.98563575744629, 51.091191955420186]}, "type": "Feature"}, {"properties": {"bikes": 0, "status": "OPEN", "name": "Centrum Handlowe Borek", "stands": 14, "lon": 17.00162172317505, "address": "Centrum Handlowe Borek", "lat": 51.089264676748826}, "geometry": {"type": "Point", "coordinates": [17.00162172317505, 51.089264676748826]}, "type": "Feature"}, {"properties": {"bikes": 0, "status": "OPEN", "name": "Krucza - Mielecka", "stands": 15, "lon": 17.002780437469482, "address": "Krucza - Mielecka", "lat": 51.09342911524615}, "geometry": {"type": "Point", "coordinates": [17.002780437469482, 51.09342911524615]}, "type": "Feature"}, {"properties": {"bikes": 0, "status": "OPEN", "name": "Pereca - Grabiszy\u0144ska", "stands": 15, "lon": 17.0082950592041, "address": "Pereca - Grabiszy\u0144ska", "lat": 51.10097536207561}, "geometry": {"type": "Point", "coordinates": [17.0082950592041, 51.10097536207561]}, "type": "Feature"}, {"properties": {"bikes": 0, "status": "OPEN", "name": "Zaporoska - Gajowicka", "stands": 15, "lon": 17.01408863067627, "address": "Zaporoska - Gajowicka", "lat": 51.09722260577026}, "geometry": {"type": "Point", "coordinates": [17.01408863067627, 51.09722260577026]}, "type": "Feature"}, {"properties": {"bikes": 0, "status": "OPEN", "name": "Zaporoska - Grabiszy\u0144ska", "stands": 15, "lon": 17.0137882232666, "address": "Zaporoska - Grabiszy\u0144ska", "lat": 51.10185118595181}, "geometry": {"type": "Point", "coordinates": [17.0137882232666, 51.10185118595181]}, "type": "Feature"}, {"properties": {"bikes": 0, "status": "OPEN", "name": "Zaporoska - Wielka", "stands": 15, "lon": 17.01447486877441, "address": "Zaporoska - Wielka", "lat": 51.09425117690591}, "geometry": {"type": "Point", "coordinates": [17.01447486877441, 51.09425117690591]}, "type": "Feature"}, {"properties": {"bikes": 0, "status": "OPEN", "name": "\u017belazna - Pereca", "stands": 15, "lon": 17.00680375099182, "address": "\u017belazna - Pereca", "lat": 51.09804123119159}, "geometry": {"type": "Point", "coordinates": [17.00680375099182, 51.09804123119159]}, "type": "Feature"}, {"properties": {"bikes": 0, "status": "OPEN", "name": "Legnicka - Wejherowska", "stands": 15, "lon": 16.98439121246338, "address": "Legnicka - Wejherowska", "lat": 51.12527668338291}, "geometry": {"type": "Point", "coordinates": [16.98439121246338, 51.12527668338291]}, "type": "Feature"}, {"properties": {"bikes": 0, "status": "OPEN", "name": "Smoluchowskiego - \u0141ukaszewicza", "stands": 15, "lon": 17.06479847431183, "address": "Smoluchowskiego - \u0141ukaszewicza", "lat": 51.108048849946385}, "geometry": {"type": "Point", "coordinates": [17.06479847431183, 51.108048849946385]}, "type": "Feature"}, {"properties": {"bikes": 0, "status": "OPEN", "name": "Uniwersytet Wroc\u0142awski - Joliot Curie", "stands": 15, "lon": 17.052347660064697, "address": "Uniwersytet Wroc\u0142awski - Joliot Curie", "lat": 51.11094529924635}, "geometry": {"type": "Point", "coordinates": [17.052347660064697, 51.11094529924635]}, "type": "Feature"}, {"properties": {"bikes": 0, "status": "OPEN", "name": "Nowowiejska - Prusa", "stands": 15, "lon": 17.05654263496399, "address": "Nowowiejska - Prusa", "lat": 51.11920928565168}, "geometry": {"type": "Point", "coordinates": [17.05654263496399, 51.11920928565168]}, "type": "Feature"}, {"properties": {"bikes": 0, "status": "OPEN", "name": "Plac Grunwaldzki - Polaka", "stands": 15, "lon": 17.055496573448178, "address": "Plac Grunwaldzki - Polaka", "lat": 51.110362656007275}, "geometry": {"type": "Point", "coordinates": [17.055496573448178, 51.110362656007275]}, "type": "Feature"}, {"properties": {"bikes": 0, "status": "OPEN", "name": "Sienkiewicza - Piastowska", "stands": 15, "lon": 17.060614228248596, "address": "Sienkiewicza - Piastowska", "lat": 51.11568363359365}, "geometry": {"type": "Point", "coordinates": [17.060614228248596, 51.11568363359365]}, "type": "Feature"}, {"properties": {"bikes": 0, "status": "OPEN", "name": "Sienkiewicza - Wyszy\u0144skiego", "stands": 15, "lon": 17.05156981945038, "address": "Sienkiewicza - Wyszy\u0144skiego", "lat": 51.116838676267925}, "geometry": {"type": "Point", "coordinates": [17.05156981945038, 51.116838676267925]}, "type": "Feature"}, {"properties": {"bikes": 0, "status": "OPEN", "name": "Mickiewicza - p\u0119tla tramwajowa", "stands": 16, "lon": 17.103824615478516, "address": "Mickiewicza - p\u0119tla tramwajowa", "lat": 51.11400321382931}, "geometry": {"type": "Point", "coordinates": [17.103824615478516, 51.11400321382931]}, "type": "Feature"}, {"properties": {"bikes": 0, "status": "OPEN", "name": "Wyszy\u0144skiego - Prusa", "stands": 15, "lon": 17.05151081085205, "address": "Wyszy\u0144skiego - Prusa", "lat": 51.119431524045254}, "geometry": {"type": "Point", "coordinates": [17.05151081085205, 51.119431524045254]}, "type": "Feature"}, {"properties": {"bikes": 0, "status": "OPEN", "name": "Komandorska - Kamienna", "stands": 15, "lon": 17.023476362228394, "address": "Komandorska - Kamienna", "lat": 51.08992845137241}, "geometry": {"type": "Point", "coordinates": [17.023476362228394, 51.08992845137241]}, "type": "Feature"}, {"properties": {"bikes": 0, "status": "OPEN", "name": "Powsta\u0144c\u00f3w \u015al\u0105skich - Hallera", "stands": 13, "lon": 17.01230764389038, "address": "Powsta\u0144c\u00f3w \u015al\u0105skich - Hallera", "lat": 51.08658926519162}, "geometry": {"type": "Point", "coordinates": [17.01230764389038, 51.08658926519162]}, "type": "Feature"}, {"properties": {"bikes": 0, "status": "OPEN", "name": "\u015al\u0119\u017cna - Kamienna", "stands": 14, "lon": 17.028229236602783, "address": "\u015al\u0119\u017cna - Kamienna", "lat": 51.089756612155334}, "geometry": {"type": "Point", "coordinates": [17.028229236602783, 51.089756612155334]}, "type": "Feature"}, {"properties": {"bikes": 0, "status": "OPEN", "name": "Ko\u015bciuszki - Komuny Paryskiej / Zgodna", "stands": 15, "lon": 17.051634192466732, "address": "Ko\u015bciuszki - Komuny Paryskiej / Zgodna", "lat": 51.09891037318256}, "geometry": {"type": "Point", "coordinates": [17.051634192466732, 51.09891037318256]}, "type": "Feature"}, {"properties": {"bikes": 0, "status": "OPEN", "name": "Traugutta - Ko\u015bciuszki", "stands": 15, "lon": 17.0562744140625, "address": "Traugutta - Ko\u015bciuszki", "lat": 51.09699352280998}, "geometry": {"type": "Point", "coordinates": [17.0562744140625, 51.09699352280998]}, "type": "Feature"}, {"properties": {"bikes": 0, "status": "OPEN", "name": "Traugutta - Pu\u0142askiego", "stands": 15, "lon": 17.048335075378418, "address": "Traugutta - Pu\u0142askiego", "lat": 51.10443813804785}, "geometry": {"type": "Point", "coordinates": [17.048335075378418, 51.10443813804785]}, "type": "Feature"}, {"properties": {"bikes": 0, "status": "OPEN", "name": "Dworzec kolejowy - po\u0142udnie", "stands": 15, "lon": 17.03801929950714, "address": "Dworzec kolejowy - po\u0142udnie", "lat": 51.09695646516561}, "geometry": {"type": "Point", "coordinates": [17.03801929950714, 51.09695646516561]}, "type": "Feature"}, {"properties": {"bikes": 0, "status": "OPEN", "name": "Ko\u015bciuszki - Pu\u0142askiego", "stands": 15, "lon": 17.04504132270813, "address": "Ko\u015bciuszki - Pu\u0142askiego", "lat": 51.10022753009522}, "geometry": {"type": "Point", "coordinates": [17.04504132270813, 51.10022753009522]}, "type": "Feature"}, {"properties": {"bikes": 0, "status": "OPEN", "name": "Drobnera - Dubois", "stands": 15, "lon": 17.033389806747437, "address": "Drobnera - Dubois", "lat": 51.11698010808053}, "geometry": {"type": "Point", "coordinates": [17.033389806747437, 51.11698010808053]}, "type": "Feature"}, {"properties": {"bikes": 0, "status": "OPEN", "name": "\u017beromskiego - Kluczborska", "stands": 15, "lon": 17.047605514526364, "address": "\u017beromskiego - Kluczborska", "lat": 51.122387866424724}, "geometry": {"type": "Point", "coordinates": [17.047605514526364, 51.122387866424724]}, "type": "Feature"}, {"properties": {"bikes": 0, "status": "OPEN", "name": "Plac Bema", "stands": 15, "lon": 17.041382789611816, "address": "Plac Bema", "lat": 51.11743807478881}, "geometry": {"type": "Point", "coordinates": [17.041382789611816, 51.11743807478881]}, "type": "Feature"}, {"properties": {"bikes": 0, "status": "OPEN", "name": "Nowowiejska - Wyszy\u0144skiego", "stands": 15, "lon": 17.05226182937622, "address": "Nowowiejska - Wyszy\u0144skiego", "lat": 51.1222834885376}, "geometry": {"type": "Point", "coordinates": [17.05226182937622, 51.1222834885376]}, "type": "Feature"}, {"properties": {"bikes": 0, "status": "OPEN", "name": "Plac Staszica", "stands": 15, "lon": 17.03056812286377, "address": "Plac Staszica", "lat": 51.12288618340934}, "geometry": {"type": "Point", "coordinates": [17.03056812286377, 51.12288618340934]}, "type": "Feature"}, {"properties": {"bikes": 0, "status": "OPEN", "name": "Plac Uniwersytecki", "stands": 15, "lon": 17.034462690353394, "address": "Plac Uniwersytecki", "lat": 51.113844934670325}, "geometry": {"type": "Point", "coordinates": [17.034462690353394, 51.113844934670325]}, "type": "Feature"}, {"properties": {"bikes": 0, "status": "OPEN", "name": "Jedno\u015bci Narodowej - Nowowiejska ", "stands": 15, "lon": 17.045599222183228, "address": "Jedno\u015bci Narodowej - Nowowiejska ", "lat": 51.12462351680015}, "geometry": {"type": "Point", "coordinates": [17.045599222183228, 51.12462351680015]}, "type": "Feature"}, {"properties": {"bikes": 0, "status": "OPEN", "name": "Wita Stwosza - Szewska ", "stands": 15, "lon": 17.03505277633667, "address": "Wita Stwosza - Szewska ", "lat": 51.1102515151332}, "geometry": {"type": "Point", "coordinates": [17.03505277633667, 51.1102515151332]}, "type": "Feature"}, {"properties": {"bikes": 0, "status": "OPEN", "name": "Jedno\u015bci Narodowej - Ole\u015bnicka", "stands": 12, "lon": 17.043163776397705, "address": "Jedno\u015bci Narodowej - Ole\u015bnicka", "lat": 51.121256532234305}, "geometry": {"type": "Point", "coordinates": [17.043163776397705, 51.121256532234305]}, "type": "Feature"}, {"properties": {"bikes": 0, "status": "OPEN", "name": "Jedno\u015bci Narodowej - Wyszy\u0144skiego", "stands": 15, "lon": 17.05474019050598, "address": "Jedno\u015bci Narodowej - Wyszy\u0144skiego", "lat": 51.12811145398997}, "geometry": {"type": "Point", "coordinates": [17.05474019050598, 51.12811145398997]}, "type": "Feature"}, {"properties": {"bikes": 0, "status": "OPEN", "name": "Bajana - Szybowcowa", "stands": 15, "lon": 16.9659, "address": "Bajana - Szybowcowa", "lat": 51.129948}, "geometry": {"type": "Point", "coordinates": [16.9659, 51.129948]}, "type": "Feature"}, {"properties": {"bikes": 0, "status": "OPEN", "name": "\u017beromskiego - Daszy\u0144skiego", "stands": 15, "lon": 17.050459384918213, "address": "\u017beromskiego - Daszy\u0144skiego", "lat": 51.12557296208677}, "geometry": {"type": "Point", "coordinates": [17.050459384918213, 51.12557296208677]}, "type": "Feature"}, {"properties": {"bikes": 0, "status": "OPEN", "name": "Teki", "stands": 17, "lon": 17.084147930145264, "address": "Teki", "lat": 51.1039396220822}, "geometry": {"type": "Point", "coordinates": [17.084147930145264, 51.1039396220822]}, "type": "Feature"}, {"properties": {"bikes": 0, "status": "OPEN", "name": "Inowroc\u0142awska - Urz\u0105d Skarbowy", "stands": 15, "lon": 17.0137345790863, "address": "Inowroc\u0142awska - Urz\u0105d Skarbowy", "lat": 51.11413791906944}, "geometry": {"type": "Point", "coordinates": [17.0137345790863, 51.11413791906944]}, "type": "Feature"}, {"properties": {"bikes": 0, "status": "OPEN", "name": "Dworzec kolejowy - p\u00f3\u0142noc", "stands": 15, "lon": 17.035846710205078, "address": "Dworzec kolejowy - p\u00f3\u0142noc", "lat": 51.09965485778756}, "geometry": {"type": "Point", "coordinates": [17.035846710205078, 51.09965485778756]}, "type": "Feature"}, {"properties": {"bikes": 0, "status": "OPEN", "name": "Plac Nowy Targ ", "stands": 16, "lon": 17.037904, "address": "Plac Nowy Targ ", "lat": 51.111477}, "geometry": {"type": "Point", "coordinates": [17.037904, 51.111477]}, "type": "Feature"}, {"properties": {"bikes": 0, "status": "OPEN", "name": "Armii Krajowej - Borowska", "stands": 15, "lon": 17.0352566242218, "address": "Armii Krajowej - Borowska", "lat": 51.08346213967434}, "geometry": {"type": "Point", "coordinates": [17.0352566242218, 51.08346213967434]}, "type": "Feature"}, {"properties": {"bikes": 0, "status": "OPEN", "name": "Krynicka", "stands": 15, "lon": 17.04749822616577, "address": "Krynicka", "lat": 51.08016629798973}, "geometry": {"type": "Point", "coordinates": [17.04749822616577, 51.08016629798973]}, "type": "Feature"}, {"properties": {"bikes": 0, "status": "OPEN", "name": "Gliniana - Gajowa", "stands": 15, "lon": 17.040224075317383, "address": "Gliniana - Gajowa", "lat": 51.09156257672623}, "geometry": {"type": "Point", "coordinates": [17.040224075317383, 51.09156257672623]}, "type": "Feature"}, {"properties": {"bikes": 0, "status": "OPEN", "name": "Park Po\u0142udniowy - Powsta\u0144c\u00f3w \u015al\u0105skich", "stands": 15, "lon": 17.006921768188477, "address": "Park Po\u0142udniowy - Powsta\u0144c\u00f3w \u015al\u0105skich", "lat": 51.07496256893404}, "geometry": {"type": "Point", "coordinates": [17.006921768188477, 51.07496256893404]}, "type": "Feature"}, {"properties": {"bikes": 0, "status": "OPEN", "name": "Rac\u0142awicka - Rymarska", "stands": 15, "lon": 16.99460506439209, "address": "Rac\u0142awicka - Rymarska", "lat": 51.08013933717133}, "geometry": {"type": "Point", "coordinates": [16.99460506439209, 51.08013933717133]}, "type": "Feature"}, {"properties": {"bikes": 0, "status": "OPEN", "name": "Skarbowc\u00f3w - Wietrzna", "stands": 12, "lon": 16.995055675506592, "address": "Skarbowc\u00f3w - Wietrzna", "lat": 51.07333122768277}, "geometry": {"type": "Point", "coordinates": [16.995055675506592, 51.07333122768277]}, "type": "Feature"}, {"properties": {"bikes": 0, "status": "OPEN", "name": "Strzegomska - Gubi\u0144ska", "stands": 15, "lon": 16.960535645484924, "address": "Strzegomska - Gubi\u0144ska", "lat": 51.111955645831195}, "geometry": {"type": "Point", "coordinates": [16.960535645484924, 51.111955645831195]}, "type": "Feature"}, {"properties": {"bikes": 0, "status": "OPEN", "name": "Rondo Reagana", "stands": 16, "lon": 17.06024408340454, "address": "Rondo Reagana", "lat": 51.112171183577146}, "geometry": {"type": "Point", "coordinates": [17.06024408340454, 51.112171183577146]}, "type": "Feature"}, {"properties": {"bikes": 0, "status": "OPEN", "name": "Arena - Komandorska", "stands": 15, "lon": 17.026888132095333, "address": "Arena - Komandorska", "lat": 51.094668940345535}, "geometry": {"type": "Point", "coordinates": [17.026888132095333, 51.094668940345535]}, "type": "Feature"}, {"properties": {"bikes": 0, "status": "OPEN", "name": "Kamienna - Gajowa", "stands": 15, "lon": 17.040288448333737, "address": "Kamienna - Gajowa", "lat": 51.08774166546555}, "geometry": {"type": "Point", "coordinates": [17.040288448333737, 51.08774166546555]}, "type": "Feature"}, {"properties": {"bikes": 0, "status": "OPEN", "name": "Arkady", "stands": 16, "lon": 17.02756404876709, "address": "Arkady", "lat": 51.099264089082496}, "geometry": {"type": "Point", "coordinates": [17.02756404876709, 51.099264089082496]}, "type": "Feature"}, {"properties": {"bikes": 0, "status": "OPEN", "name": "Sky Tower", "stands": 15, "lon": 17.020998001098633, "address": "Sky Tower", "lat": 51.094520702137686}, "geometry": {"type": "Point", "coordinates": [17.020998001098633, 51.094520702137686]}, "type": "Feature"}, {"properties": {"bikes": 0, "status": "OPEN", "name": "Hala Targowa ", "stands": 14, "lon": 17.039633989334103, "address": "Hala Targowa ", "lat": 51.11287840974499}, "geometry": {"type": "Point", "coordinates": [17.039633989334103, 51.11287840974499]}, "type": "Feature"}, {"properties": {"bikes": 0, "status": "OPEN", "name": "Rynek ", "stands": 15, "lon": 17.0302677154541, "address": "Rynek ", "lat": 51.10971938239645}, "geometry": {"type": "Point", "coordinates": [17.0302677154541, 51.10971938239645]}, "type": "Feature"}, {"properties": {"bikes": 0, "status": "OPEN", "name": "Jana Paw\u0142a II", "stands": 15, "lon": 17.021266222000122, "address": "Jana Paw\u0142a II", "lat": 51.11143026836378}, "geometry": {"type": "Point", "coordinates": [17.021266222000122, 51.11143026836378]}, "type": "Feature"}, {"properties": {"bikes": 0, "status": "OPEN", "name": "Zachodnia - Pozna\u0144ska", "stands": 12, "lon": 17.007222175598145, "address": "Zachodnia - Pozna\u0144ska", "lat": 51.11760644376091}, "geometry": {"type": "Point", "coordinates": [17.007222175598145, 51.11760644376091]}, "type": "Feature"}, {"properties": {"bikes": 0, "status": "OPEN", "name": "Plac Strzegomski", "stands": 15, "lon": 17.00635313987732, "address": "Plac Strzegomski", "lat": 51.11346438894182}, "geometry": {"type": "Point", "coordinates": [17.00635313987732, 51.11346438894182]}, "type": "Feature"}, {"properties": {"bikes": 0, "status": "OPEN", "name": "Dworzec Miko\u0142aj\u00f3w", "stands": 15, "lon": 16.998703479766846, "address": "Dworzec Miko\u0142aj\u00f3w", "lat": 51.11533677840705}, "geometry": {"type": "Point", "coordinates": [16.998703479766846, 51.11533677840705]}, "type": "Feature"}, {"properties": {"bikes": 0, "status": "OPEN", "name": "Muzeum Narodowe", "stands": 15, "lon": 17.047863006591797, "address": "Muzeum Narodowe", "lat": 51.11010332688538}, "geometry": {"type": "Point", "coordinates": [17.047863006591797, 51.11010332688538]}, "type": "Feature"}, {"properties": {"bikes": 0, "status": "OPEN", "name": "Olszewskiego - Sp\u00f3\u0142dzielcza", "stands": 15, "lon": 17.10146427154541, "address": "Olszewskiego - Sp\u00f3\u0142dzielcza", "lat": 51.1019589785129}, "geometry": {"type": "Point", "coordinates": [17.10146427154541, 51.1019589785129]}, "type": "Feature"}, {"properties": {"bikes": 0, "status": "OPEN", "name": "Plac Legion\u00f3w", "stands": 15, "lon": 17.02254295349121, "address": "Plac Legion\u00f3w", "lat": 51.104384244689136}, "geometry": {"type": "Point", "coordinates": [17.02254295349121, 51.104384244689136]}, "type": "Feature"}, {"properties": {"bikes": 0, "status": "OPEN", "name": "\u015awidnicka - Chrobry", "stands": 15, "lon": 17.031673192977905, "address": "\u015awidnicka - Chrobry", "lat": 51.104121513665575}, "geometry": {"type": "Point", "coordinates": [17.031673192977905, 51.104121513665575]}, "type": "Feature"}, {"properties": {"bikes": 0, "status": "OPEN", "name": "\u015awidnicka - Pi\u0142sudskiego", "stands": 15, "lon": 17.02876567840576, "address": "\u015awidnicka - Pi\u0142sudskiego", "lat": 51.10123811098068}, "geometry": {"type": "Point", "coordinates": [17.02876567840576, 51.10123811098068]}, "type": "Feature"}, {"properties": {"bikes": 0, "status": "OPEN", "name": "Kredka i O\u0142\u00f3wek", "stands": 15, "lon": 17.067153453826904, "address": "Kredka i O\u0142\u00f3wek", "lat": 51.11390891992754}, "geometry": {"type": "Point", "coordinates": [17.067153453826904, 51.11390891992754]}, "type": "Feature"}, {"properties": {"bikes": 0, "status": "OPEN", "name": "Promenady Business Park", "stands": 15, "lon": 17.04499840736389, "address": "Promenady Business Park", "lat": 51.12887566759688}, "geometry": {"type": "Point", "coordinates": [17.04499840736389, 51.12887566759688]}, "type": "Feature"}, {"properties": {"bikes": 0, "status": "OPEN", "name": "Aleja Bielany", "stands": 15, "lon": 16.9643497467041, "address": "Aleja Bielany", "lat": 51.048031338767885}, "geometry": {"type": "Point", "coordinates": [16.9643497467041, 51.048031338767885]}, "type": "Feature"}], "type": "FeatureCollection"}