{"type": "FeatureCollection", "features": [{"type": "Feature", "geometry": {"type": "Point", "coordinates": [17.06550121307373, 51.13207714749649]}, "properties": {"bikes": 0, "stands": 15, "name": "Pl. Kromera", "status": "OPEN", "lon": 17.06550121307373, "lat": 51.13207714749649, "address": "Pl. Kromera"}}, {"type": "Feature", "geometry": {"type": "Point", "coordinates": [17.034999132156372, 51.12454271204484]}, "properties": {"bikes": 0, "stands": 16, "name": "Dworzec Nadodrze", "status": "OPEN", "lon": 17.034999132156372, "lat": 51.12454271204484, "address": "Dworzec Nadodrze"}}, {"type": "Feature", "geometry": {"type": "Point", "coordinates": [17.061327695846558, 51.10723376985792]}, "properties": {"bikes": 0, "stands": 14, "name": "Politechnika Wroc\u0142awska - Gmach G\u0142\u00f3wny", "status": "OPEN", "lon": 17.061327695846558, "lat": 51.10723376985792, "address": "Politechnika Wroc\u0142awska - Gmach G\u0142\u00f3wny"}}, {"type": "Feature", "geometry": {"type": "Point", "coordinates": [16.980035305023193, 51.094790225798505]}, "properties": {"bikes": 0, "stands": 15, "name": "FAT - Grabiszy\u0144ska - Hallera", "status": "OPEN", "lon": 16.980035305023193, "lat": 51.094790225798505, "address": "FAT - Grabiszy\u0144ska - Hallera"}}, {"type": "Feature", "geometry": {"type": "Point", "coordinates": [17.000784873962402, 51.099264089082496]}, "properties": {"bikes": 0, "stands": 15, "name": "Grabiszy\u0144ska - Stalowa", "status": "OPEN", "lon": 17.000784873962402, "lat": 51.099264089082496, "address": "Grabiszy\u0144ska - Stalowa"}}, {"type": "Feature", "geometry": {"type": "Point", "coordinates": [17.007962465286255, 51.09544381415203]}, "properties": {"bikes": 0, "stands": 15, "name": "Grochowa - Jemio\u0142owa", "status": "OPEN", "lon": 17.007962465286255, "lat": 51.09544381415203, "address": "Grochowa - Jemio\u0142owa"}}, {"type": "Feature", "geometry": {"type": "Point", "coordinates": [16.98563575744629, 51.091191955420186]}, "properties": {"bikes": 0, "stands": 15, "name": "Hallera - Odkrywc\u00f3w", "status": "OPEN", "lon": 16.98563575744629, "lat": 51.091191955420186, "address": "Hallera - Odkrywc\u00f3w"}}, {"type": "Feature", "geometry": {"type": "Point", "coordinates": [17.00162172317505, 51.089264676748826]}, "properties": {"bikes": 0, "stands": 14, "name": "Centrum Handlowe Borek", "status": "OPEN", "lon": 17.00162172317505, "lat": 51.089264676748826, "address": "Centrum Handlowe Borek"}}, {"type": "Feature", "geometry": {"type": "Point", "coordinates": [17.002780437469482, 51.09342911524615]}, "properties": {"bikes": 0, "stands": 15, "name": "Krucza - Mielecka", "status": "OPEN", "lon": 17.002780437469482, "lat": 51.09342911524615, "address": "Krucza - Mielecka"}}, {"type": "Feature", "geometry": {"type": "Point", "coordinates": [17.0082950592041, 51.10097536207561]}, "properties": {"bikes": 0, "stands": 15, "name": "Pereca - Grabiszy\u0144ska", "status": "OPEN", "lon": 17.0082950592041, "lat": 51.10097536207561, "address": "Pereca - Grabiszy\u0144ska"}}, {"type": "Feature", "geometry": {"type": "Point", "coordinates": [17.01408863067627, 51.09722260577026]}, "properties": {"bikes": 0, "stands": 15, "name": "Zaporoska - Gajowicka", "status": "OPEN", "lon": 17.01408863067627, "lat": 51.09722260577026, "address": "Zaporoska - Gajowicka"}}, {"type": "Feature", "geometry": {"type": "Point", "coordinates": [17.0137882232666, 51.10185118595181]}, "properties": {"bikes": 0, "stands": 15, "name": "Zaporoska - Grabiszy\u0144ska", "status": "OPEN", "lon": 17.0137882232666, "lat": 51.10185118595181, "address": "Zaporoska - Grabiszy\u0144ska"}}, {"type": "Feature", "geometry": {"type": "Point", "coordinates": [17.01447486877441, 51.09425117690591]}, "properties": {"bikes": 0, "stands": 15, "name": "Zaporoska - Wielka", "status": "OPEN", "lon": 17.01447486877441, "lat": 51.09425117690591, "address": "Zaporoska - Wielka"}}, {"type": "Feature", "geometry": {"type": "Point", "coordinates": [17.00680375099182, 51.09804123119159]}, "properties": {"bikes": 0, "stands": 15, "name": "\u017belazna - Pereca", "status": "OPEN", "lon": 17.00680375099182, "lat": 51.09804123119159, "address": "\u017belazna - Pereca"}}, {"type": "Feature", "geometry": {"type": "Point", "coordinates": [16.98439121246338, 51.12527668338291]}, "properties": {"bikes": 0, "stands": 15, "name": "Legnicka - Wejherowska", "status": "OPEN", "lon": 16.98439121246338, "lat": 51.12527668338291, "address": "Legnicka - Wejherowska"}}, {"type": "Feature", "geometry": {"type": "Point", "coordinates": [17.06479847431183, 51.108048849946385]}, "properties": {"bikes": 0, "stands": 15, "name": "Smoluchowskiego - \u0141ukaszewicza", "status": "OPEN", "lon": 17.06479847431183, "lat": 51.108048849946385, "address": "Smoluchowskiego - \u0141ukaszewicza"}}, {"type": "Feature", "geometry": {"type": "Point", "coordinates": [17.052347660064697, 51.11094529924635]}, "properties": {"bikes": 0, "stands": 15, "name": "Uniwersytet Wroc\u0142awski - Joliot Curie", "status": "OPEN", "lon": 17.052347660064697, "lat": 51.11094529924635, "address": "Uniwersytet Wroc\u0142awski - Joliot Curie"}}, {"type": "Feature", "geometry": {"type": "Point", "coordinates": [17.05654263496399, 51.11920928565168]}, "properties": {"bikes": 0, "stands": 15, "name": "Nowowiejska - Prusa", "status": "OPEN", "lon": 17.05654263496399, "lat": 51.11920928565168, "address": "Nowowiejska - Prusa"}}, {"type": "Feature", "geometry": {"type": "Point", "coordinates": [17.055496573448178, 51.110362656007275]}, "properties": {"bikes": 0, "stands": 15, "name": "Plac Grunwaldzki - Polaka", "status": "OPEN", "lon": 17.055496573448178, "lat": 51.110362656007275, "address": "Plac Grunwaldzki - Polaka"}}, {"type": "Feature", "geometry": {"type": "Point", "coordinates": [17.060614228248596, 51.11568363359365]}, "properties": {"bikes": 0, "stands": 15, "name": "Sienkiewicza - Piastowska", "status": "OPEN", "lon": 17.060614228248596, "lat": 51.11568363359365, "address": "Sienkiewicza - Piastowska"}}, {"type": "Feature", "geometry": {"type": "Point", "coordinates": [17.05156981945038, 51.116838676267925]}, "properties": {"bikes": 0, "stands": 15, "name": "Sienkiewicza - Wyszy\u0144skiego", "status": "OPEN", "lon": 17.05156981945038, "lat": 51.116838676267925, "address": "Sienkiewicza - Wyszy\u0144skiego"}}, {"type": "Feature", "geometry": {"type": "Point", "coordinates": [17.103824615478516, 51.11400321382931]}, "properties": {"bikes": 0, "stands": 16, "name": "Mickiewicza - p\u0119tla tramwajowa", "status": "OPEN", "lon": 17.103824615478516, "lat": 51.11400321382931, "address": "Mickiewicza - p\u0119tla tramwajowa"}}, {"type": "Feature", "geometry": {"type": "Point", "coordinates": [17.05151081085205, 51.119431524045254]}, "properties": {"bikes": 0, "stands": 15, "name": "Wyszy\u0144skiego - Prusa", "status": "OPEN", "lon": 17.05151081085205, "lat": 51.119431524045254, "address": "Wyszy\u0144skiego - Prusa"}}, {"type": "Feature", "geometry": {"type": "Point", "coordinates": [17.023476362228394, 51.08992845137241]}, "properties": {"bikes": 0, "stands": 15, "name": "Komandorska - Kamienna", "status": "OPEN", "lon": 17.023476362228394, "lat": 51.08992845137241, "address": "Komandorska - Kamienna"}}, {"type": "Feature", "geometry": {"type": "Point", "coordinates": [17.01230764389038, 51.08658926519162]}, "properties": {"bikes": 0, "stands": 13, "name": "Powsta\u0144c\u00f3w \u015al\u0105skich - Hallera", "status": "OPEN", "lon": 17.01230764389038, "lat": 51.08658926519162, "address": "Powsta\u0144c\u00f3w \u015al\u0105skich - Hallera"}}, {"type": "Feature", "geometry": {"type": "Point", "coordinates": [17.028229236602783, 51.089756612155334]}, "properties": {"bikes": 0, "stands": 14, "name": "\u015al\u0119\u017cna - Kamienna", "status": "OPEN", "lon": 17.028229236602783, "lat": 51.089756612155334, "address": "\u015al\u0119\u017cna - Kamienna"}}, {"type": "Feature", "geometry": {"type": "Point", "coordinates": [17.051634192466732, 51.09891037318256]}, "properties": {"bikes": 0, "stands": 15, "name": "Ko\u015bciuszki - Komuny Paryskiej / Zgodna", "status": "OPEN", "lon": 17.051634192466732, "lat": 51.09891037318256, "address": "Ko\u015bciuszki - Komuny Paryskiej / Zgodna"}}, {"type": "Feature", "geometry": {"type": "Point", "coordinates": [17.0562744140625, 51.09699352280998]}, "properties": {"bikes": 0, "stands": 15, "name": "Traugutta - Ko\u015bciuszki", "status": "OPEN", "lon": 17.0562744140625, "lat": 51.09699352280998, "address": "Traugutta - Ko\u015bciuszki"}}, {"type": "Feature", "geometry": {"type": "Point", "coordinates": [17.048335075378418, 51.10443813804785]}, "properties": {"bikes": 0, "stands": 15, "name": "Traugutta - Pu\u0142askiego", "status": "OPEN", "lon": 17.048335075378418, "lat": 51.10443813804785, "address": "Traugutta - Pu\u0142askiego"}}, {"type": "Feature", "geometry": {"type": "Point", "coordinates": [17.03801929950714, 51.09695646516561]}, "properties": {"bikes": 0, "stands": 15, "name": "Dworzec kolejowy - po\u0142udnie", "status": "OPEN", "lon": 17.03801929950714, "lat": 51.09695646516561, "address": "Dworzec kolejowy - po\u0142udnie"}}, {"type": "Feature", "geometry": {"type": "Point", "coordinates": [17.04504132270813, 51.10022753009522]}, "properties": {"bikes": 0, "stands": 15, "name": "Ko\u015bciuszki - Pu\u0142askiego", "status": "OPEN", "lon": 17.04504132270813, "lat": 51.10022753009522, "address": "Ko\u015bciuszki - Pu\u0142askiego"}}, {"type": "Feature", "geometry": {"type": "Point", "coordinates": [17.033389806747437, 51.11698010808053]}, "properties": {"bikes": 0, "stands": 15, "name": "Drobnera - Dubois", "status": "OPEN", "lon": 17.033389806747437, "lat": 51.11698010808053, "address": "Drobnera - Dubois"}}, {"type": "Feature", "geometry": {"type": "Point", "coordinates": [17.047605514526364, 51.122387866424724]}, "properties": {"bikes": 0, "stands": 15, "name": "\u017beromskiego - Kluczborska", "status": "OPEN", "lon": 17.047605514526364, "lat": 51.122387866424724, "address": "\u017beromskiego - Kluczborska"}}, {"type": "Feature", "geometry": {"type": "Point", "coordinates": [17.041382789611816, 51.11743807478881]}, "properties": {"bikes": 0, "stands": 15, "name": "Plac Bema", "status": "OPEN", "lon": 17.041382789611816, "lat": 51.11743807478881, "address": "Plac Bema"}}, {"type": "Feature", "geometry": {"type": "Point", "coordinates": [17.05226182937622, 51.1222834885376]}, "properties": {"bikes": 0, "stands": 15, "name": "Nowowiejska - Wyszy\u0144skiego", "status": "OPEN", "lon": 17.05226182937622, "lat": 51.1222834885376, "address": "Nowowiejska - Wyszy\u0144skiego"}}, {"type": "Feature", "geometry": {"type": "Point", "coordinates": [17.03056812286377, 51.12288618340934]}, "properties": {"bikes": 0, "stands": 15, "name": "Plac Staszica", "status": "OPEN", "lon": 17.03056812286377, "lat": 51.12288618340934, "address": "Plac Staszica"}}, {"type": "Feature", "geometry": {"type": "Point", "coordinates": [17.034462690353394, 51.113844934670325]}, "properties": {"bikes": 0, "stands": 15, "name": "Plac Uniwersytecki", "status": "OPEN", "lon": 17.034462690353394, "lat": 51.113844934670325, "address": "Plac Uniwersytecki"}}, {"type": "Feature", "geometry": {"type": "Point", "coordinates": [17.045599222183228, 51.12462351680015]}, "properties": {"bikes": 0, "stands": 15, "name": "Jedno\u015bci Narodowej - Nowowiejska ", "status": "OPEN", "lon": 17.045599222183228, "lat": 51.12462351680015, "address": "Jedno\u015bci Narodowej - Nowowiejska "}}, {"type": "Feature", "geometry": {"type": "Point", "coordinates": [17.03505277633667, 51.1102515151332]}, "properties": {"bikes": 0, "stands": 15, "name": "Wita Stwosza - Szewska ", "status": "OPEN", "lon": 17.03505277633667, "lat": 51.1102515151332, "address": "Wita Stwosza - Szewska "}}, {"type": "Feature", "geometry": {"type": "Point", "coordinates": [17.043163776397705, 51.121256532234305]}, "properties": {"bikes": 0, "stands": 12, "name": "Jedno\u015bci Narodowej - Ole\u015bnicka", "status": "OPEN", "lon": 17.043163776397705, "lat": 51.121256532234305, "address": "Jedno\u015bci Narodowej - Ole\u015bnicka"}}, {"type": "Feature", "geometry": {"type": "Point", "coordinates": [17.05474019050598, 51.12811145398997]}, "properties": {"bikes": 0, "stands": 15, "name": "Jedno\u015bci Narodowej - Wyszy\u0144skiego", "status": "OPEN", "lon": 17.05474019050598, "lat": 51.12811145398997, "address": "Jedno\u015bci Narodowej - Wyszy\u0144skiego"}}, {"type": "Feature", "geometry": {"type": "Point", "coordinates": [16.9659, 51.129948]}, "properties": {"bikes": 0, "stands": 15, "name": "Bajana - Szybowcowa", "status": "OPEN", "lon": 16.9659, "lat": 51.129948, "address": "Bajana - Szybowcowa"}}, {"type": "Feature", "geometry": {"type": "Point", "coordinates": [17.050459384918213, 51.12557296208677]}, "properties": {"bikes": 0, "stands": 15, "name": "\u017beromskiego - Daszy\u0144skiego", "status": "OPEN", "lon": 17.050459384918213, "lat": 51.12557296208677, "address": "\u017beromskiego - Daszy\u0144skiego"}}, {"type": "Feature", "geometry": {"type": "Point", "coordinates": [17.084147930145264, 51.1039396220822]}, "properties": {"bikes": 0, "stands": 17, "name": "Teki", "status": "OPEN", "lon": 17.084147930145264, "lat": 51.1039396220822, "address": "Teki"}}, {"type": "Feature", "geometry": {"type": "Point", "coordinates": [17.0137345790863, 51.11413791906944]}, "properties": {"bikes": 0, "stands": 15, "name": "Inowroc\u0142awska - Urz\u0105d Skarbowy", "status": "OPEN", "lon": 17.0137345790863, "lat": 51.11413791906944, "address": "Inowroc\u0142awska - Urz\u0105d Skarbowy"}}, {"type": "Feature", "geometry": {"type": "Point", "coordinates": [17.035846710205078, 51.09965485778756]}, "properties": {"bikes": 0, "stands": 15, "name": "Dworzec kolejowy - p\u00f3\u0142noc", "status": "OPEN", "lon": 17.035846710205078, "lat": 51.09965485778756, "address": "Dworzec kolejowy - p\u00f3\u0142noc"}}, {"type": "Feature", "geometry": {"type": "Point", "coordinates": [17.037904, 51.111477]}, "properties": {"bikes": 0, "stands": 16, "name": "Plac Nowy Targ ", "status": "OPEN", "lon": 17.037904, "lat": 51.111477, "address": "Plac Nowy Targ "}}, {"type": "Feature", "geometry": {"type": "Point", "coordinates": [17.0352566242218, 51.08346213967434]}, "properties": {"bikes": 0, "stands": 15, "name": "Armii Krajowej - Borowska", "status": "OPEN", "lon": 17.0352566242218, "lat": 51.08346213967434, "address": "Armii Krajowej - Borowska"}}, {"type": "Feature", "geometry": {"type": "Point", "coordinates": [17.04749822616577, 51.08016629798973]}, "properties": {"bikes": 0, "stands": 15, "name": "Krynicka", "status": "OPEN", "lon": 17.04749822616577, "lat": 51.08016629798973, "address": "Krynicka"}}, {"type": "Feature", "geometry": {"type": "Point", "coordinates": [17.040224075317383, 51.09156257672623]}, "properties": {"bikes": 0, "stands": 15, "name": "Gliniana - Gajowa", "status": "OPEN", "lon": 17.040224075317383, "lat": 51.09156257672623, "address": "Gliniana - Gajowa"}}, {"type": "Feature", "geometry": {"type": "Point", "coordinates": [17.006921768188477, 51.07496256893404]}, "properties": {"bikes": 0, "stands": 15, "name": "Park Po\u0142udniowy - Powsta\u0144c\u00f3w \u015al\u0105skich", "status": "OPEN", "lon": 17.006921768188477, "lat": 51.07496256893404, "address": "Park Po\u0142udniowy - Powsta\u0144c\u00f3w \u015al\u0105skich"}}, {"type": "Feature", "geometry": {"type": "Point", "coordinates": [16.99460506439209, 51.08013933717133]}, "properties": {"bikes": 0, "stands": 15, "name": "Rac\u0142awicka - Rymarska", "status": "OPEN", "lon": 16.99460506439209, "lat": 51.08013933717133, "address": "Rac\u0142awicka - Rymarska"}}, {"type": "Feature", "geometry": {"type": "Point", "coordinates": [16.995055675506592, 51.07333122768277]}, "properties": {"bikes": 0, "stands": 12, "name": "Skarbowc\u00f3w - Wietrzna", "status": "OPEN", "lon": 16.995055675506592, "lat": 51.07333122768277, "address": "Skarbowc\u00f3w - Wietrzna"}}, {"type": "Feature", "geometry": {"type": "Point", "coordinates": [16.960535645484924, 51.111955645831195]}, "properties": {"bikes": 0, "stands": 15, "name": "Strzegomska - Gubi\u0144ska", "status": "OPEN", "lon": 16.960535645484924, "lat": 51.111955645831195, "address": "Strzegomska - Gubi\u0144ska"}}, {"type": "Feature", "geometry": {"type": "Point", "coordinates": [17.06024408340454, 51.112171183577146]}, "properties": {"bikes": 0, "stands": 16, "name": "Rondo Reagana", "status": "OPEN", "lon": 17.06024408340454, "lat": 51.112171183577146, "address": "Rondo Reagana"}}, {"type": "Feature", "geometry": {"type": "Point", "coordinates": [17.026888132095333, 51.094668940345535]}, "properties": {"bikes": 0, "stands": 15, "name": "Arena - Komandorska", "status": "OPEN", "lon": 17.026888132095333, "lat": 51.094668940345535, "address": "Arena - Komandorska"}}, {"type": "Feature", "geometry": {"type": "Point", "coordinates": [17.040288448333737, 51.08774166546555]}, "properties": {"bikes": 0, "stands": 15, "name": "Kamienna - Gajowa", "status": "OPEN", "lon": 17.040288448333737, "lat": 51.08774166546555, "address": "Kamienna - Gajowa"}}, {"type": "Feature", "geometry": {"type": "Point", "coordinates": [17.02756404876709, 51.099264089082496]}, "properties": {"bikes": 0, "stands": 16, "name": "Arkady", "status": "OPEN", "lon": 17.02756404876709, "lat": 51.099264089082496, "address": "Arkady"}}, {"type": "Feature", "geometry": {"type": "Point", "coordinates": [17.020998001098633, 51.094520702137686]}, "properties": {"bikes": 0, "stands": 15, "name": "Sky Tower", "status": "OPEN", "lon": 17.020998001098633, "lat": 51.094520702137686, "address": "Sky Tower"}}, {"type": "Feature", "geometry": {"type": "Point", "coordinates": [17.039633989334103, 51.11287840974499]}, "properties": {"bikes": 0, "stands": 14, "name": "Hala Targowa ", "status": "OPEN", "lon": 17.039633989334103, "lat": 51.11287840974499, "address": "Hala Targowa "}}, {"type": "Feature", "geometry": {"type": "Point", "coordinates": [17.0302677154541, 51.10971938239645]}, "properties": {"bikes": 0, "stands": 15, "name": "Rynek ", "status": "OPEN", "lon": 17.0302677154541, "lat": 51.10971938239645, "address": "Rynek "}}, {"type": "Feature", "geometry": {"type": "Point", "coordinates": [17.021266222000122, 51.11143026836378]}, "properties": {"bikes": 0, "stands": 15, "name": "Jana Paw\u0142a II", "status": "OPEN", "lon": 17.021266222000122, "lat": 51.11143026836378, "address": "Jana Paw\u0142a II"}}, {"type": "Feature", "geometry": {"type": "Point", "coordinates": [17.007222175598145, 51.11760644376091]}, "properties": {"bikes": 0, "stands": 12, "name": "Zachodnia - Pozna\u0144ska", "status": "OPEN", "lon": 17.007222175598145, "lat": 51.11760644376091, "address": "Zachodnia - Pozna\u0144ska"}}, {"type": "Feature", "geometry": {"type": "Point", "coordinates": [17.00635313987732, 51.11346438894182]}, "properties": {"bikes": 0, "stands": 15, "name": "Plac Strzegomski", "status": "OPEN", "lon": 17.00635313987732, "lat": 51.11346438894182, "address": "Plac Strzegomski"}}, {"type": "Feature", "geometry": {"type": "Point", "coordinates": [16.998703479766846, 51.11533677840705]}, "properties": {"bikes": 0, "stands": 15, "name": "Dworzec Miko\u0142aj\u00f3w", "status": "OPEN", "lon": 16.998703479766846, "lat": 51.11533677840705, "address": "Dworzec Miko\u0142aj\u00f3w"}}, {"type": "Feature", "geometry": {"type": "Point", "coordinates": [17.047863006591797, 51.11010332688538]}, "properties": {"bikes": 0, "stands": 15, "name": "Muzeum Narodowe", "status": "OPEN", "lon": 17.047863006591797, "lat": 51.11010332688538, "address": "Muzeum Narodowe"}}, {"type": "Feature", "geometry": {"type": "Point", "coordinates": [17.10146427154541, 51.1019589785129]}, "properties": {"bikes": 0, "stands": 15, "name": "Olszewskiego - Sp\u00f3\u0142dzielcza", "status": "OPEN", "lon": 17.10146427154541, "lat": 51.1019589785129, "address": "Olszewskiego - Sp\u00f3\u0142dzielcza"}}, {"type": "Feature", "geometry": {"type": "Point", "coordinates": [17.02254295349121, 51.104384244689136]}, "properties": {"bikes": 0, "stands": 15, "name": "Plac Legion\u00f3w", "status": "OPEN", "lon": 17.02254295349121, "lat": 51.104384244689136, "address": "Plac Legion\u00f3w"}}, {"type": "Feature", "geometry": {"type": "Point", "coordinates": [17.031673192977905, 51.104121513665575]}, "properties": {"bikes": 0, "stands": 15, "name": "\u015awidnicka - Chrobry", "status": "OPEN", "lon": 17.031673192977905, "lat": 51.104121513665575, "address": "\u015awidnicka - Chrobry"}}, {"type": "Feature", "geometry": {"type": "Point", "coordinates": [17.02876567840576, 51.10123811098068]}, "properties": {"bikes": 0, "stands": 15, "name": "\u015awidnicka - Pi\u0142sudskiego", "status": "OPEN", "lon": 17.02876567840576, "lat": 51.10123811098068, "address": "\u015awidnicka - Pi\u0142sudskiego"}}, {"type": "Feature", "geometry": {"type": "Point", "coordinates": [17.067153453826904, 51.11390891992754]}, "properties": {"bikes": 0, "stands": 15, "name": "Kredka i O\u0142\u00f3wek", "status": "OPEN", "lon": 17.067153453826904, "lat": 51.11390891992754, "address": "Kredka i O\u0142\u00f3wek"}}, {"type": "Feature", "geometry": {"type": "Point", "coordinates": [17.04499840736389, 51.12887566759688]}, "properties": {"bikes": 0, "stands": 15, "name": "Promenady Business Park", "status": "OPEN", "lon": 17.04499840736389, "lat": 51.12887566759688, "address": "Promenady Business Park"}}, {"type": "Feature", "geometry": {"type": "Point", "coordinates": [16.9643497467041, 51.048031338767885]}, "properties": {"bikes": 0, "stands": 15, "name": "Aleja Bielany", "status": "OPEN", "lon": 16.9643497467041, "lat": 51.048031338767885, "address": "Aleja Bielany"}}]}